No,取引態様,物件種目,住所,登録価格（万円）,交通,土地権利,建ぺい率,用途地域,坪単価（万円）,容積率,土地面積（㎡）,公開日,私道面積,私道持分,条件等,登録会員,TEL,latitude,longitude
1,★売主,売地,浜松市中央区葵西２丁目26-35 付近,"1,298",浜松市中央区葵西２丁目26-35 付近,所有権,60,-,34.61,200%,124.01,2025/4/28,-,-,建築条件付,(株)ベスト・ハウジング,053-474-6252,34.7668188,137.7083276
2,専任媒介,売地,浜松市中央区葵西２丁目8-1,"2,304.12",浜松市中央区葵西２丁目8-1,所有権,60,-,28.0,200%,118,2025/2/17,-,-,現況渡し,2月8日,053-463-4386,34.76733310000001,137.7130607
3,専任媒介,売地,浜松市中央区葵西３丁目,490,浜松市中央区葵西３丁目,所有権,60,-,19.52,200%,82.99,2025/4/27,-,-,現況渡し,あららぎ不動産(株),053-464-5557,34.7703534,137.7076828
4,媒介,売地,浜松市中央区葵西３丁目15-10,"1,320",浜松市中央区葵西３丁目15-10,所有権,60,-,28.9,200%,75.03,2025/5/2,-,-,更地渡し,25/100,053-543-9988,34.7698858,137.7087318
5,専任媒介,売地,浜松市中央区葵西４丁目,942.3,浜松市中央区葵西４丁目,所有権,60,-,27.0,200%,115.38,2025/5/1,-,-,現況渡し,(株)マストレ　高林支店,053-472-5656,34.7727131,137.7052194
6,★売主,売地,浜松市中央区葵西５丁目1-10 付近,"1,598",浜松市中央区葵西５丁目1-10 付近,所有権,60,-,35.51,200%,148.79,2025/4/28,-,-,建築条件付,(株)ベスト・ハウジング,053-474-6252,34.7756678,137.705952
7,一般媒介,売地,浜松市中央区葵西６丁目9-11,620,浜松市中央区葵西６丁目9-11,所有権,60,工業地域,21.93,200%,120,2025/3/5,-,-,更地渡し,1月8日,053-401-3303,34.7682878,137.702033
8,専任媒介,売地,浜松市中央区葵西６丁目,792,浜松市中央区葵西６丁目,所有権,60,工業地域,23.16,200%,120,2025/4/17,-,-,更地渡し,1月8日,053-401-3456,34.7700018,137.7015245
9,媒介,売地,浜松市中央区葵西６丁目22-41,980,浜松市中央区葵西６丁目22-41,所有権,60,-,22.79,200%,28,2025/5/2,-,-,更地渡し,-,053-543-9988,34.7715894,137.700082
10,一般媒介,売地,浜松市中央区葵西６丁目,"1,590",浜松市中央区葵西６丁目,所有権,60,工業地域,21.22,200%,32,2025/4/10,-,-,更地渡し,-,053-472-5656,34.7700018,137.7015245
11,★売主,売地,浜松市中央区葵東２丁目3-21 付近,"1,398",浜松市中央区葵東２丁目3-21 付近,所有権,60,-,35.04,200%,131.91,2025/4/28,-,-,建築条件付,(株)ベスト・ハウジング,053-474-6252,34.7585993,137.7268117
12,専任媒介,売地,浜松市中央区葵東２丁目376-16　外3筆,"1,530",浜松市中央区葵東２丁目376-16　外3筆,所有権,80,-,37.93,200%,133.37,2025/3/31,-,-,更地渡し,アイエス宅建,053-434-6810,34.7589885,137.7236978
13,専属専任,売地,浜松市中央区葵東３丁目102-11,"2,526",浜松市中央区葵東３丁目102-11,所有権,80,-,36.0,200%,232,2025/2/20,-,-,現況渡し,(有)住まいる不動産,053-437-2490,34.7638634,137.7184616
14,★代理,売地,-,"1,388",バス停 遠鉄バス南中前 停歩6分,所有権,60,-,32.01,200%,143.36,2025/5/1,-,-,建築条件付,朝日住宅(株),0538-35-3500,,
15,専任媒介,売地,浜松市中央区浅田町61,"1,489",浜松市中央区浅田町61,所有権,80,-,33.0,200%,149.19,2025/3/21,-,-,更地渡し,クリエイト・ジャパン浜松(株),053-460-3785,34.6950364,137.7353066
16,★代理,売地,-,"1,667",バス停 遠鉄バス南中前 停歩6分,所有権,60,-,38.99,200%,141.36,2025/5/1,-,-,建築条件付,朝日住宅(株),0538-35-3500,,
17,★売主,売地,浜松市中央区浅田町169-4,"1,730",浜松市中央区浅田町169-4,所有権,60,-,35.34,200%,161.84,2025/5/7,-,-,建築条件付,(株)マルショウ企画,053-447-1115,34.69507,137.7323794
18,★売主,売地,浜松市中央区小豆餅１丁目407番19他,"1,603",浜松市中央区小豆餅１丁目407番19他,所有権,60,-,27.26,200%,194.44,2025/3/16,-,-,現況渡し,(株)スズキビジネス,053-451-3900,34.7555778,137.7236978
19,専任媒介,売地,浜松市中央区小豆餅１丁目,"2,380",浜松市中央区小豆餅１丁目,所有権,60,-,46.84,200%,168,2025/4/30,-,-,現況渡し,(株)ＡＦＣスマイルプラス　Ｓｍｉｆｅ浜松東店,053-423-4690,34.7555778,137.7236978
20,★売主,売地,浜松市中央区小豆餅２丁目1392-15,"1,126",浜松市中央区小豆餅２丁目1392-15,所有権,60,用途地域,39.99,200%,93.09,2025/2/24,-,-,建築条件付,(株)ニットーホーム,053-443-2100,34.7543533,137.7261621
21,一般媒介,売地,浜松市中央区小豆餅２丁目,"2,010",浜松市中央区小豆餅２丁目,所有権,60,-,33.99,200%,195.51,2025/4/10,-,-,更地渡し,(株)マストレ企画営業所,053-401-3456,34.7543533,137.7261621
22,専任媒介,売地,浜松市中央区小豆餅２丁目20-6,"2,250",浜松市中央区小豆餅２丁目20-6,所有権,60,-,31.38,200%,237.09,2025/4/18,-,-,更地渡し,センチュリー21中央不動産浜松店,053-584-0021,34.7539993,137.7268744
23,-,売地,浜松市中央区小豆餅３丁目,"1,527.40",浜松市中央区小豆餅３丁目,所有権,70,-,33.44,200%,151,2025/5/2,-,-,現況渡し,藤田土地開発(株),053-922-3007,34.7542656,137.7286265
24,一般媒介,売地,浜松市中央区有玉北町２０１３－１,490,浜松市中央区有玉北町２０１３－１,所有権,60,-,7.65,200%,212,2025/4/30,-,-,現況渡し,遠州鉄道(株)　浜北店,053-581-1124,34.763879,137.7503993
25,一般媒介,売地,浜松市中央区有玉北町2013-1,590,浜松市中央区有玉北町2013-1,所有権,60,-,9.21,200%,212,2025/4/28,-,-,現況渡し,アイエス宅建,053-434-6810,34.763879,137.7503993
26,一般媒介,売地,浜松市中央区有玉北町,600,浜松市中央区有玉北町,所有権,60,-,19.66,200%,100.94,2025/4/12,-,-,相談,(株)マストレ　高林支店,053-472-5656,34.7649747,137.7551259
27,専任媒介,売地,浜松市中央区有玉北町1898,629.2,浜松市中央区有玉北町1898,所有権,70,-,10.01,200%,208,2025/3/25,-,-,現況渡し,(有)西遠土地建物センター,053-587-7255,34.7649747,137.7551259
28,媒介,売地,浜松市中央区有玉北町556,757.5,浜松市中央区有玉北町556,所有権,60,-,8.01,200%,313,2025/4/17,-,-,現況渡し,上島不動産(株),053-473-5000,34.7649747,137.7551259
29,一般媒介,売地,浜松市中央区有玉北町２０９７,760,浜松市中央区有玉北町２０９７,所有権,60,-,7.07,200%,355.44,2025/4/22,-,-,現況渡し,遠州鉄道(株)　浜北店,053-581-1124,34.7649747,137.7551259
30,-,売地,浜松市中央区有玉北町,779.52,浜松市中央区有玉北町,所有権,60,用途地域,8.0,200%,322.12,2025/3/24,-,-,現況渡し,藤田土地開発(株),053-922-3007,34.7649747,137.7551259
31,専任媒介,売地,浜松市中央区有玉北町,"1,680",浜松市中央区有玉北町,所有権,60,-,20.73,200%,268.03,2025/4/23,-,-,更地渡し,(株)マストレ東営業所,053-462-5656,34.7649747,137.7551259
32,★売主,売地,浜松市中央区有玉北町1315-1他,"1,875",浜松市中央区有玉北町1315-1他,所有権,60,-,19.0,200%,326.27,2025/5/7,-,-,相談,犬塚産業(株),053-455-0588,34.7628123,137.7602727
33,★売主,売地,浜松市中央区有玉北町1702-3 付近,"1,898",浜松市中央区有玉北町1702-3 付近,所有権,60,-,31.24,200%,200.87,2025/4/28,-,-,建築条件付,(株)ベスト・ハウジング,053-474-6252,34.7609242,137.7552318
34,媒介,売地,浜松市中央区有玉北町1392,"1,900",浜松市中央区有玉北町1392,所有権,60,-,31.73,200%,198,2025/4/25,-,-,更地渡し,(株)小幡工務店,053-576-0471,34.7630884,137.7572024
35,★売主,売地,浜松市中央区有玉北町１３１５－１他,"1,974",浜松市中央区有玉北町１３１５－１他,所有権,60,-,20.01,200%,326.27,2025/3/4,-,-,現況渡し,犬塚産業(株),053-455-0588,34.7628123,137.7602727
36,一般媒介,売地,浜松市中央区有玉台１丁目,"2,634.39",浜松市中央区有玉台１丁目,所有権,60,-,33.0,200%,263.91,2025/5/7,-,-,現況渡し,センチュリー21中央不動産浜松店,053-584-0021,34.7595993,137.7384852
37,媒介,売地,浜松市中央区有玉台１丁目6-11,"2,634.39",浜松市中央区有玉台１丁目6-11,所有権,60,-,33.0,200%,263.91,2025/4/5,-,-,相談,しずなび(株)　浜松東店,053-467-6700,34.76017849999999,137.7401798
38,媒介,売地,浜松市中央区有玉台１丁目648番20外1筆,"2,634.39",浜松市中央区有玉台１丁目648番20外1筆,所有権,60,-,33.0,200%,263.91,2025/3/31,-,-,現況渡し,(株)ヤマセ不動産,053-474-2188,34.7595993,137.7384852
39,一般媒介,売地,浜松市中央区有玉台２丁目,"3,980",浜松市中央区有玉台２丁目,所有権,60,-,22.31,200%,590,2025/5/7,-,-,相談,浜松損害保険サービス(株),053-459-4180,34.7623101,137.7421827
40,一般媒介,売地,浜松市中央区有玉台２丁目３７－１４,"3,980",浜松市中央区有玉台２丁目３７－１４,所有権,60,用途地域,22.31,200%,590,2025/4/24,-,-,更地渡し,遠州鉄道(株)　浜北店,053-581-1124,34.76452099999999,137.7410648
41,一般媒介,売地,浜松市中央区有玉台３丁目,"2,607.39",浜松市中央区有玉台３丁目,所有権,60,-,37.0,200%,232.96,2025/4/18,-,-,現況渡し,(株)マストレ,053-448-5656,34.762595,137.7381771
42,媒介,売地,浜松市中央区有玉西町333-13,650,浜松市中央区有玉西町333-13,所有権,-,-,3.47,200%,621,2025/3/14,-,-,現況渡し,古田不動産(株),053-581-9801,34.7523252,137.7387566
43,媒介,売地,浜松市中央区有玉南町1515-1の一部,450,浜松市中央区有玉南町1515-1の一部,所有権,60,-,5.69,200%,261.51,2025/2/20,-,-,現況渡し,とぴあ浜松農業協同組合不動産センター有玉店,053-476-3152,34.7533433,137.7464967
44,媒介,売地,浜松市中央区有玉南町780番1、781番1の一部,650,浜松市中央区有玉南町780番1、781番1の一部,所有権,60,-,4.98,200%,431.58,2025/4/21,-,-,現況渡し,とぴあ浜松農業協同組合不動産センター有玉店,053-476-3152,34.7533433,137.7464967
45,一般媒介,売地,浜松市中央区有玉南町395-1,745.6,浜松市中央区有玉南町395-1,所有権,60,-,10.0,200%,246.5,2025/4/1,-,-,現況渡し,(有)西遠土地建物センター,053-587-7255,34.7567296,137.7543202
46,専任媒介,売地,浜松市中央区有玉南町,990,浜松市中央区有玉南町,所有権,60,-,9.89,200%,331,2025/3/18,-,-,相談,マークスライフ(株),050-8885-0772,34.7533433,137.7464967
47,一般媒介,売地,浜松市中央区有玉南町1160-1他,"1,027",浜松市中央区有玉南町1160-1他,所有権,60,-,7.01,200%,485,2025/4/29,-,-,現況渡し,ＦＰ・マンション管理士事務所　あんず,053-545-6500,34.7533433,137.7464967
48,一般媒介,売地,浜松市中央区有玉南町１２０３－１０,"1,053",浜松市中央区有玉南町１２０３－１０,所有権,60,-,8.52,200%,409,2025/5/8,-,-,現況渡し,浩世不動産,053-522-8631,34.7565106,137.7469531
49,一般媒介,売地,浜松市中央区有玉南町３９５－１,"1,100",浜松市中央区有玉南町３９５－１,所有権,60,-,7.38,200%,493,2025/4/28,-,-,現況渡し,遠州鉄道(株)　浜北店,053-581-1124,34.7567296,137.7543202
50,媒介,売地,浜松市中央区有玉南町2329・2330-4,"1,200",浜松市中央区有玉南町2329・2330-4,所有権,60,用途地域,27.98,200%,141.78,2025/4/30,-,-,更地渡し,(株)村こし,053-423-2220,34.7463387,137.7481479
51,★売主,売地,-,"1,550",遠州鉄道 自動車学校前 徒歩7分,所有権,60,-,33.48,200%,153.07,2025/5/5,-,-,現況渡し,東洋地所(株)　浜松営業所,053-464-5200,,
52,媒介,売地,浜松市中央区有玉南町2230,"2,460",浜松市中央区有玉南町2230,所有権,70,-,30.01,200%,271,2025/5/2,-,-,現況渡し,(株)丸玉,053-421-7360,34.749132,137.7457448
53,一般媒介,売地,浜松市中央区有玉南町,"2,754",浜松市中央区有玉南町,所有権,-,-,9.01,200%,-,2025/3/24,-,-,現況渡し,-,058-246-4770,34.7533433,137.7464967
54,媒介,売地,"浜松市中央区有玉南町175-1,175-2","5,000","浜松市中央区有玉南町175-1,175-2",所有権,60,-,22.77,200%,726,2025/2/15,-,-,現況渡し,(株)リンク,053-424-5000,34.7532433,137.7544902
55,一般媒介,売地,浜松市中央区有玉南町,"6,200",浜松市中央区有玉南町,所有権,-,-,10.04,200%,-,2025/3/24,-,-,現況渡し,-,058-246-4770,34.7533433,137.7464967
56,一般媒介,売地,浜松市中央区安新町８２－１,"1,370",浜松市中央区安新町８２－１,所有権,60,-,27.03,200%,167.61,2025/4/21,-,-,現況渡し,サーラ不動産(株)　浜松仲介チーム,053-464-6105,34.7308278,137.7871894
57,一般媒介,売地,浜松市中央区安間町405番4,608,浜松市中央区安間町405番4,所有権,60,-,10.0,200%,201,2025/3/6,-,-,現況渡し,とぴあ浜松農業協同組合不動産センター有玉店,053-476-3152,34.7215434,137.792124
58,一般媒介,売地,浜松市中央区安間町３４１,741,浜松市中央区安間町３４１,所有権,60,-,10.0,200%,245,2025/4/10,-,-,現況渡し,(株)東洋エージェンシー,053-421-0700,34.7215434,137.792124
59,媒介,売地,浜松市中央区安間町725番1の一部,950,浜松市中央区安間町725番1の一部,所有権,60,-,10.41,200%,301.84,2025/4/24,-,-,現況渡し,コイケ総建(株),053-422-3003,34.7215434,137.792124
60,一般媒介,売地,浜松市中央区飯田町,380,浜松市中央区飯田町,所有権,60,工業地域,12.41,200%,101.27,2025/3/22,-,-,相談,あららぎ不動産(株),053-464-5557,34.7067664,137.7760883
61,専任媒介,売地,浜松市中央区飯田町1402,"1,566",浜松市中央区飯田町1402,所有権,60,-,10.0,200%,518,2025/3/7,-,-,現況渡し,(株)イイダ開発,0538-31-2708,34.7067664,137.7760883
62,★一般媒介,売地,浜松市中央区飯田町885,"2,385",浜松市中央区飯田町885,所有権,60,-,11.0,200%,717,2025/4/14,-,-,現況渡し,みき不動産(株),053-581-9266,34.7067664,137.7760883
63,媒介,売地,浜松市中央区飯田町885,"2,385.79",浜松市中央区飯田町885,所有権,-,-,11.0,200%,717,2025/3/6,-,-,現況渡し,とぴあ浜松農業協同組合不動産センター有玉店,053-476-3152,34.7067664,137.7760883
64,媒介,売地,-,"3,500",東海道本線 天竜川 徒歩9分,所有権,60,工業地域,26.41,200%,438.26,2025/4/5,-,-,現況渡し,上島不動産(株),053-473-5000,,
65,専任媒介,売地,浜松市中央区飯田町,"3,600",浜松市中央区飯田町,所有権,60,工業地域,22.5,200%,528.93,2025/5/3,-,-,現況渡し,(株)マストレ　高林支店,053-472-5656,34.7067664,137.7760883
66,-,売地,浜松市中央区飯田町274-1、274-2,"3,600",浜松市中央区飯田町274-1、274-2,所有権,60,工業地域,22.5,200%,528.93,2025/3/6,-,-,現況渡し,(株)エステート・パートナー,053-443-8856,34.7110183,137.7792948
67,専任媒介,売地,浜松市中央区飯田町１５９１,"5,900",浜松市中央区飯田町１５９１,所有権,60,-,13.62,200%,-,2025/4/25,-,-,現況渡し,-,053-476-7112,34.70942369999999,137.7795151
68,媒介,売地,浜松市中央区伊左地町8858・8860,465,浜松市中央区伊左地町8858・8860,所有権,60,-,2.99,200%,515,2025/4/27,-,-,相談,(有)ほんま不動産,053-461-3345,34.7456974,137.6654485
69,媒介,売地,浜松市中央区伊左地町5223番1,"1,425.40",浜松市中央区伊左地町5223番1,所有権,60,-,6.75,200%,698.09,2025/2/27,-,-,更地渡し,とぴあ浜松農業協同組合不動産センター有玉店,053-476-3152,34.7453417,137.6581408
70,媒介,売地,浜松市中央区伊左地町8422、8423,"4,760.80",浜松市中央区伊左地町8422、8423,所有権,60,用途地域,10.0,200%,-,2025/4/23,-,-,現況渡し,-,053-447-7941,34.7456974,137.6654485
71,一般媒介,売地,浜松市中央区伊左地町,"5,000",浜松市中央区伊左地町,所有権,60,-,6.11,200%,-,2025/4/4,-,-,相談,-,053-485-7700,34.7456974,137.6654485
72,媒介,売地,浜松市中央区伊左地町7964他,"11,823.50",浜松市中央区伊左地町7964他,所有権,60,-,8.5,200%,-,2025/5/1,-,-,相談,-,053-525-0755,34.7456974,137.6654485
73,一般媒介,売地,浜松市中央区石原町,150,浜松市中央区石原町,所有権,60,-,1.32,200%,378,2025/5/2,-,-,現況渡し,あららぎ不動産(株),053-464-5557,34.6918443,137.7717718
74,媒介,売地,浜松市中央区石原町222,400,浜松市中央区石原町222,所有権,60,-,2.65,200%,499,2025/5/7,-,-,現況渡し,(株)山崎不動産,053-463-8713,34.6918443,137.7717718
75,一般媒介,売地,浜松市中央区石原町155 付近,480,浜松市中央区石原町155 付近,所有権,60,-,7.9,200%,201,2025/5/2,-,-,相談,(株)ベスト・ハウジング,053-474-6252,34.6921026,137.7741805
76,媒介,売地,浜松市中央区石原町,860,浜松市中央区石原町,所有権,60,-,7.01,200%,406,2025/5/7,-,-,現況渡し,(株)山崎不動産,053-463-8713,34.6918443,137.7717718
77,媒介,売地,浜松市中央区石原町,"1,059.92",浜松市中央区石原町,所有権,60,-,8.0,200%,438,2025/4/4,-,-,現況渡し,とぴあ浜松農業協同組合不動産センター有玉店,053-476-3152,34.6918443,137.7717718
78,媒介,売地,浜松市中央区泉１丁目837-1192,"1,690",浜松市中央区泉１丁目837-1192,所有権,60,-,28.41,200%,196.67,2025/5/2,-,-,現況渡し,(株)アスティア,053-543-9988,34.7397478,137.7212337
79,媒介,売地,浜松市中央区泉１丁目837-61の一部,"5,251",浜松市中央区泉１丁目837-61の一部,所有権,80,-,40.0,200%,434.03,2025/5/1,-,-,更地渡し,とぴあ浜松農業協同組合不動産センター有玉店,053-476-3152,34.7397478,137.7212337
80,媒介,売地,浜松市中央区泉２丁目691-50,680,浜松市中央区泉２丁目691-50,所有権,60,用途地域,13.55,200%,166,2025/3/10,-,-,現況渡し,曳馬土地開発(株),053-463-2161,34.7431589,137.7212337
81,専任媒介,売地,浜松市中央区泉２丁目636-10,700,浜松市中央区泉２丁目636-10,所有権,60,-,23.25,200%,99.55,2025/2/28,-,-,現況渡し,(株)マエフジ不動産,053-472-3341,34.7431589,137.7212337
82,-,売地,浜松市中央区泉２丁目837-868,"1,180",浜松市中央区泉２丁目837-868,所有権,60,-,28.28,200%,137.95,2025/4/25,-,-,現況渡し,(株)インフィルプラス,053-440-0445,34.7431589,137.7212337
83,専任媒介,売地,浜松市中央区泉２丁目20-2,"1,850",浜松市中央区泉２丁目20-2,所有権,60,-,27.2,200%,224.85,2025/4/28,-,-,現況渡し,(株)ヤマセ不動産,053-474-2188,34.7416539,137.7212948
84,一般媒介,売地,浜松市中央区泉２丁目,"2,980",浜松市中央区泉２丁目,所有権,60,-,11.94,200%,825.58,2025/4/29,-,-,相談,松屋不動産販売(株),053-401-6610,34.7431589,137.7212337
85,専任媒介,売地,浜松市中央区泉３丁目837-1090.837-1091.837-1093,720,浜松市中央区泉３丁目837-1090.837-1091.837-1093,所有権,60,-,16.56,200%,36.43,2025/4/8,-,-,現況渡し,-,053-472-3341,34.7470946,137.7224657
86,★売主,売地,浜松市中央区泉３丁目27-3 付近,"1,298",浜松市中央区泉３丁目27-3 付近,所有権,70,-,25.29,200%,169.73,2025/4/28,-,-,建築条件付,(株)ベスト・ハウジング,053-474-6252,34.7483973,137.7211219
87,媒介,売地,浜松市中央区泉３丁目780-1,"1,440",浜松市中央区泉３丁目780-1,所有権,60,-,33.06,200%,144,2025/5/7,-,-,現況渡し,(株)アトラック,053-454-4551,34.7470946,137.7224657
88,★売主,売地,浜松市中央区泉３丁目22-10 付近,"1,798",浜松市中央区泉３丁目22-10 付近,所有権,60,-,35.91,200%,165.56,2025/4/28,-,-,建築条件付,(株)ベスト・ハウジング,053-474-6252,34.7472138,137.7208984
89,専任媒介,売地,浜松市中央区泉４丁目２５－１９,950,浜松市中央区泉４丁目２５－１９,所有権,60,-,14.95,200%,210.18,2025/4/10,-,-,更地渡し,遠州鉄道(株)　高台店,053-437-1976,34.7464591,137.7144867
90,専属専任,売地,浜松市中央区市野町1061-1，1062-3，1062-4,800,浜松市中央区市野町1061-1，1062-3，1062-4,所有権,60,用途地域,5.39,200%,490.92,2025/3/26,-,-,現況渡し,川井建設(株),053-461-9491,34.7489745,137.7777477
91,専任媒介,売地,浜松市中央区市野町1478-2,990,浜松市中央区市野町1478-2,所有権,60,-,20.3,200%,161.24,2025/4/19,-,-,更地渡し,(株)美建コーポレーション,053-473-1208,34.7450169,137.7755006
92,一般媒介,売地,"浜松市中央区市野町1169-1,1170-1,1171-2,1172-3","1,000","浜松市中央区市野町1169-1,1170-1,1171-2,1172-3",所有権,60,-,4.03,200%,821,2025/3/3,-,-,現況渡し,冨士物産(株)　浜松店,053-411-2223,34.7456318,137.7711552
93,一般媒介,売地,浜松市中央区市野町４１１－３,"1,650",浜松市中央区市野町４１１－３,所有権,60,-,26.48,200%,206.05,2025/4/24,-,-,現況渡し,遠州鉄道(株)　高台店,053-437-1976,34.7521455,137.7677468
94,一般媒介,売地,浜松市中央区市野町998,"1,880",浜松市中央区市野町998,所有権,-,-,10.0,200%,622,2025/3/3,-,-,現況渡し,冨士物産(株)　浜松店,053-411-2223,34.7456318,137.7711552
95,専任媒介,売地,浜松市中央区市野町,"1,916",浜松市中央区市野町,所有権,60,-,24.4,200%,259.64,2025/5/9,-,-,更地渡し,(株)マストレ,053-448-5656,34.7456318,137.7711552
96,媒介,売地,浜松市中央区市野町650-2,"2,100",浜松市中央区市野町650-2,所有権,60,-,19.76,200%,351.33,2025/4/28,-,-,相談,(株)ヤマセ不動産,053-474-2188,34.7502559,137.7699784
97,一般媒介,売地,浜松市中央区入野町,800,浜松市中央区入野町,所有権,60,工業地域,27.27,200%,96.99,2025/4/15,-,-,更地渡し,常盤工業(株),053-461-9144,34.698039,137.6792657
98,専任媒介,売地,浜松市中央区入野町字彦尾前913番1,878.46,浜松市中央区入野町字彦尾前913番1,所有権,60,-,3.01,200%,968,2025/4/28,-,-,現況渡し,(株)ヤマセ不動産,053-474-2188,34.7002449,137.6913677
99,専任媒介,売地,浜松市中央区入野町307-1,980,浜松市中央区入野町307-1,所有権,60,-,6.41,200%,506.04,2025/4/1,-,-,更地渡し,(株)マルショウ企画,053-447-1115,34.6959068,137.6850257
100,専任媒介,売地,浜松市中央区入野町１０８２３－２,"1,080",浜松市中央区入野町１０８２３－２,所有権,60,用途地域,13.53,200%,264,2025/2/20,-,-,更地渡し,(株)マルショウ企画,053-447-1115,34.6959373,137.6743942
101,★売主,売地,浜松市中央区入野町16285番1,"1,280",浜松市中央区入野町16285番1,所有権,60,-,32.66,200%,129.59,2025/2/18,-,-,建築条件付,(株)スズイチ,053-448-1155,34.7007735,137.6753501
102,専任媒介,売地,浜松市中央区入野町10181-4,"1,450",浜松市中央区入野町10181-4,所有権,60,-,30.17,200%,158.9,2025/4/10,-,-,現況渡し,ユウナンエイト(株),053-401-9723,34.6979598,137.6693048
103,媒介,売地,浜松市中央区入野町村前10086,"1,574",浜松市中央区入野町村前10086,所有権,60,-,5.0,200%,-,2025/4/17,-,-,現況渡し,-,0563-55-0131,34.698039,137.6792657
104,専任媒介,売地,浜松市中央区入野町１６４４７－３,"1,650",浜松市中央区入野町１６４４７－３,所有権,60,-,27.82,200%,196.11,2025/2/20,-,-,現況渡し,(株)マルショウ企画,053-447-1115,34.7043809,137.6770265
105,★売主,売地,浜松市中央区入野町16412-29,"1,760",浜松市中央区入野町16412-29,所有権,60,-,32.1,200%,181.29,2025/3/27,-,-,建築条件付,(株)スズイチ,053-448-1155,34.7032553,137.6756404
106,★売主,売地,浜松市中央区入野町6375-1 付近,"1,798",浜松市中央区入野町6375-1 付近,所有権,60,-,42.25,200%,140.7,2025/4/28,-,-,建築条件付,(株)ベスト・ハウジング,053-474-6252,34.7001783,137.6873451
107,専任媒介,売地,浜松市中央区入野町16425-7,"2,780",浜松市中央区入野町16425-7,所有権,60,-,40.13,200%,229.05,2025/5/1,-,-,更地渡し,(株)マルショウ企画,053-447-1115,34.7054527,137.6770859
108,一般媒介,売地,浜松市中央区入野町,"2,980",浜松市中央区入野町,所有権,60,-,5.35,200%,-,2025/5/7,-,-,現況渡し,-,053-459-4180,34.698039,137.6792657
109,専任媒介,売地,浜松市中央区入野町,"6,993",浜松市中央区入野町,所有権,40,-,40.0,200%,578,2025/5/8,-,-,現況渡し,(株)マストレ,053-448-5656,34.698039,137.6792657
110,媒介,売地,浜松市中央区瓜内町,850,浜松市中央区瓜内町,所有権,60,用途地域,9.01,200%,312,2025/3/21,-,-,現況渡し,宏怜エステート(株),053-464-0200,34.6883365,137.7354041
111,専任媒介,売地,浜松市中央区瓜内町８４１,"1,100",浜松市中央区瓜内町８４１,所有権,60,-,8.36,200%,435,2025/5/8,-,-,現況渡し,(株)アライブ　企画営業部,053-476-7112,34.6883365,137.7354041
112,-,売地,-,"1,600",バス停 遠鉄バス「瓜内東」停 停歩2分,所有権,60,-,29.85,200%,177.24,2025/4/28,-,-,相談,(株)インフィルプラス,053-440-0445,,
113,専任媒介,売地,浜松市中央区瓜内町,"1,657.80",浜松市中央区瓜内町,所有権,60,-,27.0,200%,203,2025/5/1,-,-,更地渡し,(株)マストレ企画営業所,053-401-3456,34.6883365,137.7354041
114,★一般媒介,売地,浜松市中央区瓜内町323ー1,"2,824",浜松市中央区瓜内町323ー1,所有権,60,-,23.0,200%,406,2025/5/8,-,-,相談,ユタカ土地,053-425-5771,34.6914701,137.7337134
115,一般媒介,売地,浜松市中央区海老塚町828,"1,280",浜松市中央区海老塚町828,所有権,60,-,29.91,200%,141.48,2025/4/7,-,-,現況渡し,(株)ニットーホーム,053-443-2100,34.6953918,137.7327015
116,一般媒介,売地,浜松市中央区遠州浜１丁目,850,浜松市中央区遠州浜１丁目,所有権,60,-,14.64,200%,191.97,2025/4/16,-,-,現況渡し,(有)ホームズ,053-455-2223,34.6574423,137.76314
117,媒介,売地,浜松市中央区遠州浜１丁目４０－９,850,浜松市中央区遠州浜１丁目４０－９,所有権,60,-,14.64,200%,191.97,2025/3/5,-,-,相談,(有)ホームズ,053-455-2223,34.6561033,137.7644693
118,専任媒介,売地,浜松市中央区遠州浜２丁目１９１１－１３,500,浜松市中央区遠州浜２丁目１９１１－１３,所有権,60,-,10.0,200%,165.36,2025/4/27,-,-,現況渡し,遠州鉄道(株)　浜松店,053-471-0202,34.6572597,137.7680723
119,一般媒介,売地,浜松市中央区遠州浜２丁目,"2,000",浜松市中央区遠州浜２丁目,所有権,60,-,13.07,200%,505.93,2025/5/3,-,-,現況渡し,旭化成不動産レジデンス(株)　西日本・東海営業,06-6940-2893,34.6572597,137.7680723
120,専任媒介,売地,浜松市中央区遠州浜３丁目２１－１,450,浜松市中央区遠州浜３丁目２１－１,所有権,60,用途地域,6.8,200%,219.04,2025/4/19,-,-,相談,遠州鉄道(株)　高台店,053-437-1976,34.6549731,137.7716588
121,媒介,売地,浜松市中央区遠州浜３丁目25-6,450,浜松市中央区遠州浜３丁目25-6,所有権,60,-,7.1,200%,209.78,2025/3/21,-,-,更地渡し,(株)アスティア,053-543-9988,34.6539988,137.7729833
122,一般媒介,売地,浜松市中央区大蒲町,"1,780",浜松市中央区大蒲町,所有権,60,-,32.51,200%,181.01,2025/4/22,-,-,現況渡し,(株)マストレ　高林支店,053-472-5656,34.7141717,137.7680723
123,-,売地,浜松市中央区大蒲町A区画,"1,850",浜松市中央区大蒲町A区画,所有権,60,工業地域,31.65,200%,193.24,2025/3/6,-,-,現況渡し,(株)エステート・パートナー,053-443-8856,34.7141717,137.7680723
124,一般媒介,売地,浜松市中央区大蒲町124-22,"2,000",浜松市中央区大蒲町124-22,所有権,60,工業地域,29.54,200%,223.85,2025/4/30,-,-,現況渡し,(株)アクト建設　本社,053-445-4350,34.7142546,137.7714057
125,媒介,売地,浜松市中央区大蒲町124-36,"2,000",浜松市中央区大蒲町124-36,所有権,60,工業地域,29.54,200%,223.85,2025/3/10,-,-,現況渡し,曳馬土地開発(株),053-463-2161,34.7147723,137.7711902
126,一般媒介,売地,浜松市中央区大蒲町,"2,287",浜松市中央区大蒲町,所有権,60,-,41.16,200%,183.71,2025/4/21,-,-,更地渡し,(株)マストレ東営業所,053-462-5656,34.7141717,137.7680723
127,★売主,売地,浜松市中央区大蒲町94-1,"2,287",浜松市中央区大蒲町94-1,所有権,60,-,41.16,200%,183.71,2025/3/16,-,-,現況渡し,(株)スズキビジネス,053-451-3900,34.7143473,137.7650414
128,一般媒介,売地,浜松市中央区大蒲町,"2,290",浜松市中央区大蒲町,所有権,60,-,41.39,200%,182.93,2025/4/21,-,-,更地渡し,(株)マストレ東営業所,053-462-5656,34.7141717,137.7680723
129,-,売地,浜松市中央区大蒲町81番8外,"2,343",浜松市中央区大蒲町81番8外,所有権,60,-,41.0,200%,188.93,2025/3/31,-,-,現況渡し,(株)リサイクルクリーン　天竜不動産,053-926-2511,34.7157088,137.7636987
130,専任媒介,売地,浜松市中央区大蒲町,"2,590",浜松市中央区大蒲町,所有権,60,用途地域,36.76,200%,232.97,2025/4/28,-,-,更地渡し,(株)マストレ東営業所,053-462-5656,34.7141717,137.7680723
131,一般媒介,売地,浜松市中央区大蒲町115-6,"2,735",浜松市中央区大蒲町115-6,所有権,60,工業地域,34.0,200%,266,2025/5/1,-,-,現況渡し,ＳＭＤ不動産(株),053-401-4235,34.712802,137.7688266
132,一般媒介,売地,浜松市中央区大蒲町115-6,"5,471",浜松市中央区大蒲町115-6,所有権,60,工業地域,34.0,200%,532,2025/5/1,-,-,現況渡し,ＳＭＤ不動産(株),053-401-4235,34.712802,137.7688266
133,-,売地,浜松市中央区大久保町4415番4他1筆,200,浜松市中央区大久保町4415番4他1筆,所有権,-,-,4.22,200%,156.75,2025/4/5,-,-,更地渡し,コイケ総建(株),053-422-3003,34.7146877,137.6504382
134,媒介,売地,浜松市中央区大久保町6471-1の一部,850,浜松市中央区大久保町6471-1の一部,所有権,60,-,7.16,200%,392.98,2025/4/4,-,-,現況渡し,とぴあ浜松農業協同組合不動産センター有玉店,053-476-3152,34.7146877,137.6504382
135,一般媒介,売地,浜松市中央区大久保町6462,880,浜松市中央区大久保町6462,所有権,60,-,9.51,200%,306,2025/2/23,-,-,現況渡し,第一伊藤建設(株),053-457-1181,34.7146877,137.6504382
136,専任媒介,売地,浜松市中央区大島町２１１,380,浜松市中央区大島町２１１,所有権,60,-,3.98,200%,316,2025/4/29,-,-,現況渡し,アースデイ不動産,053-441-2103,34.7653152,137.7773217
137,専任媒介,売地,"浜松市中央区大島町320-1,320-2",383,"浜松市中央区大島町320-1,320-2",所有権,60,-,1.5,200%,845,2025/2/15,-,-,現況渡し,アースデイ不動産,053-441-2103,34.7653152,137.7773217
138,一般媒介,売地,浜松市中央区大島町532-1,460,浜松市中央区大島町532-1,所有権,60,-,5.03,200%,302.89,2025/3/15,-,-,現況渡し,コリー(株),053-433-3808,34.7562403,137.7750022
139,一般媒介,売地,浜松市中央区大島町,473,浜松市中央区大島町,所有権,60,-,5.0,200%,313,2025/5/4,-,-,現況渡し,(株)マストレ　高林支店,053-472-5656,34.7653152,137.7773217
140,媒介,売地,浜松市中央区大島町483の一部,477.9,浜松市中央区大島町483の一部,所有権,60,用途地域,5.0,200%,316,2025/4/30,-,-,更地渡し,(有)天商,053-436-6708,34.7653152,137.7773217
141,媒介,売地,浜松市中央区大島町483の一部,477.9,浜松市中央区大島町483の一部,所有権,60,-,5.0,200%,316,2025/4/30,-,-,更地渡し,(有)天商,053-436-6708,34.7653152,137.7773217
142,一般媒介,売地,浜松市中央区大島町,480,浜松市中央区大島町,所有権,60,-,3.89,200%,408,2025/2/28,-,-,現況渡し,あららぎ不動産(株),053-464-5557,34.7653152,137.7773217
143,媒介,売地,浜松市中央区大島町483の一部,573.54,浜松市中央区大島町483の一部,所有権,60,-,6.01,200%,316,2025/4/30,-,-,更地渡し,(有)天商,053-436-6708,34.7653152,137.7773217
144,媒介,売地,浜松市中央区大島町321番の北西一部,600,浜松市中央区大島町321番の北西一部,所有権,60,-,8.16,200%,243.25,2025/3/4,-,-,現況渡し,浜日商事(株),053-545-5488,34.7359925,137.7330202
145,一般媒介,売地,-,650,遠州鉄道 遠州西ヶ崎 徒歩26 分,所有権,60,-,6.5,200%,330.58,2025/2/28,-,-,現況渡し,(株)ライフナビ,053-458-5000,,
146,一般媒介,売地,浜松市中央区大島町９９７ー２、９９８,680,浜松市中央区大島町９９７ー２、９９８,所有権,60,-,5.77,200%,390.02,2025/4/27,-,-,更地渡し,遠州鉄道(株)　高台店,053-437-1976,34.7682399,137.782326
147,媒介,売地,浜松市中央区大島町1004,700,浜松市中央区大島町1004,所有権,60,-,6.91,200%,335,2025/2/25,-,-,現況渡し,(有)弥生不動産,053-587-0030,34.7653152,137.7773217
148,媒介,売地,浜松市中央区大島町1014,706.56,浜松市中央区大島町1014,所有権,60,-,7.31,200%,319.75,2025/3/4,-,-,現況渡し,浜日商事(株),053-545-5488,34.7653152,137.7773217
149,媒介,売地,浜松市中央区大島町１１７４番内,754,浜松市中央区大島町１１７４番内,所有権,60,-,5.0,200%,499,2025/2/27,-,-,現況渡し,とぴあ浜松農業協同組合不動産センター有玉店,053-476-3152,34.7653152,137.7773217
150,媒介,売地,浜松市中央区大島町780-1,777.45,浜松市中央区大島町780-1,所有権,60,用途地域,5.01,200%,514,2025/5/7,-,-,現況渡し,上島不動産(株),053-473-5000,34.7653152,137.7773217
151,一般媒介,売地,浜松市中央区大島町,780,浜松市中央区大島町,所有権,60,-,7.17,200%,360,2025/4/30,-,-,現況渡し,(株)マストレ　高林支店,053-472-5656,34.7653152,137.7773217
152,媒介,売地,浜松市中央区大島町1004,780,浜松市中央区大島町1004,所有権,60,-,7.7,200%,335,2025/3/10,-,-,現況渡し,曳馬土地開発(株),053-463-2161,34.7653152,137.7773217
153,媒介,売地,浜松市中央区大島町１００４,780,浜松市中央区大島町１００４,所有権,60,-,7.7,200%,335,2025/2/27,-,-,現況渡し,とぴあ浜松農業協同組合不動産センター有玉店,053-476-3152,34.7653152,137.7773217
154,一般媒介,売地,浜松市中央区大島町,801,浜松市中央区大島町,所有権,60,-,7.5,200%,353.07,2025/5/7,-,-,現況渡し,(株)マストレ　高林支店,053-472-5656,34.7653152,137.7773217
155,専任媒介,売地,浜松市中央区大島町717,838.4,浜松市中央区大島町717,所有権,60,-,10.0,200%,277.18,2025/4/19,-,-,現況渡し,(有)西遠土地建物センター,053-587-7255,34.7653152,137.7773217
156,媒介,売地,-,915,バス停 北病院 停歩6分,所有権,60,-,3.0,200%,-,2025/4/5,-,-,現況渡し,-,053-473-5000,,
157,専任媒介,売地,浜松市中央区大島町559外1筆　一部,978.9,浜松市中央区大島町559外1筆　一部,所有権,60,-,7.5,200%,431.48,2025/4/22,-,-,現況渡し,アイエス宅建,053-434-6810,34.7653152,137.7773217
158,専任媒介,売地,浜松市中央区大島町,"1,120",浜松市中央区大島町,所有権,60,-,22.38,200%,165.49,2025/4/12,-,-,更地渡し,遠州鉄道(株)　袋井店,0538-31-8711,34.7653152,137.7773217
159,媒介,売地,浜松市中央区大島町７７８,"1,134.30",浜松市中央区大島町７７８,所有権,60,-,7.5,200%,499.99,2025/2/27,-,-,相談,とぴあ浜松農業協同組合不動産センター有玉店,053-476-3152,34.7653152,137.7773217
160,一般媒介,売地,浜松市中央区大島町1479外　一部,"1,250",浜松市中央区大島町1479外　一部,所有権,60,用途地域,8.33,200%,496.24,2025/3/13,-,-,現況渡し,アイエス宅建,053-434-6810,34.7653152,137.7773217
161,専任媒介,売地,浜松市中央区大島町,"1,300",浜松市中央区大島町,所有権,60,-,9.49,200%,453,2025/5/7,-,-,現況渡し,水嶋宅建(株),053-433-7660,34.7653152,137.7773217
162,専任媒介,売地,浜松市中央区大島町１３６８,"1,400",浜松市中央区大島町１３６８,所有権,60,-,19.21,200%,241,2025/4/12,-,-,更地渡し,遠州鉄道(株)　浜北店,053-581-1124,34.7673069,137.7742896
163,一般媒介,売地,浜松市中央区大島町1119　の一部,"1,680",浜松市中央区大島町1119　の一部,所有権,60,-,14.64,200%,379.5,2025/3/24,-,-,現況渡し,アイエス宅建,053-434-6810,34.7653152,137.7773217
164,一般媒介,売地,浜松市中央区大島町,"1,806",浜松市中央区大島町,所有権,60,-,10.01,200%,597,2025/4/15,-,-,相談,あららぎ不動産(株),053-464-5557,34.7653152,137.7773217
165,一般媒介,売地,浜松市中央区大島町,"2,279.30",浜松市中央区大島町,所有権,60,-,5.0,200%,-,2025/5/6,-,-,現況渡し,-,053-448-5656,34.7653152,137.7773217
166,一般媒介,売地,浜松市中央区大島町1119,"2,700",浜松市中央区大島町1119,所有権,60,-,13.45,200%,664,2025/4/3,-,-,現況渡し,アイエス宅建,053-434-6810,34.7653152,137.7773217
167,一般媒介,売地,浜松市中央区大島町1473外5筆,"11,999",浜松市中央区大島町1473外5筆,所有権,60,-,14.34,200%,-,2025/4/22,-,-,現況渡し,-,053-434-6810,34.7653152,137.7773217
168,専任媒介,売地,浜松市中央区大瀬町２５３８－２,299,浜松市中央区大瀬町２５３８－２,所有権,60,-,4.87,200%,203,2025/4/22,-,-,現況渡し,遠州鉄道(株)　浜北店,053-581-1124,34.7592816,137.7711552
169,専任媒介,売地,浜松市中央区大瀬町１２９０番１,400,浜松市中央区大瀬町１２９０番１,所有権,60,-,4.91,200%,269.5,2025/5/9,-,-,現況渡し,遠州鉄道(株)　高台店,053-437-1976,34.761382,137.7663269
170,一般媒介,売地,浜松市中央区大瀬町,455,浜松市中央区大瀬町,所有権,60,用途地域,7.01,200%,214.77,2025/5/4,-,-,現況渡し,(株)マストレ　高林支店,053-472-5656,34.7592816,137.7711552
171,媒介,売地,浜松市中央区大瀬町2751,460,浜松市中央区大瀬町2751,所有権,60,-,6.39,200%,238,2025/3/28,-,-,現況渡し,(有)イーエム,053-437-1980,34.7592816,137.7711552
172,媒介,売地,浜松市中央区大瀬町1516,551,浜松市中央区大瀬町1516,所有権,60,-,8.01,200%,53.69,2025/3/23,-,-,更地渡し,-,053-587-0030,34.7592816,137.7711552
173,一般媒介,売地,浜松市中央区大瀬町2210,560,浜松市中央区大瀬町2210,所有権,60,-,6.1,200%,303.88,2025/4/28,-,-,現況渡し,コリー(株),053-433-3808,34.7592816,137.7711552
174,媒介,売地,浜松市中央区大瀬町1328番内（北側）,588,浜松市中央区大瀬町1328番内（北側）,所有権,60,-,8.0,200%,243,2025/3/6,-,-,現況渡し,とぴあ浜松農業協同組合不動産センター有玉店,053-476-3152,34.7618035,137.7681059
175,専任媒介,売地,浜松市中央区大瀬町,621.74,浜松市中央区大瀬町,所有権,60,-,7.01,200%,293.62,2025/4/21,-,-,現況渡し,(株)宅建堂,053-568-2169,34.7592816,137.7711552
176,一般媒介,売地,浜松市中央区大瀬町,650,浜松市中央区大瀬町,所有権,60,-,10.72,200%,200.49,2025/4/28,-,-,現況渡し,(株)マストレ,053-448-5656,34.7592816,137.7711552
177,一般媒介,売地,浜松市中央区大瀬町,650,浜松市中央区大瀬町,所有権,60,-,10.72,200%,200.5,2025/4/28,-,-,現況渡し,(株)マストレ,053-448-5656,34.7592816,137.7711552
178,一般媒介,売地,浜松市中央区大瀬町1156-1,707.8,浜松市中央区大瀬町1156-1,所有権,70,-,10.0,200%,234,2025/4/19,-,-,現況渡し,(有)西遠土地建物センター,053-587-7255,34.7592816,137.7711552
179,専任媒介,売地,浜松市中央区大瀬町906-1の一部,748,浜松市中央区大瀬町906-1の一部,所有権,60,-,11.92,200%,207.59,2025/3/9,-,-,現況渡し,アースデイ不動産,053-441-2103,34.7592816,137.7711552
180,専任媒介,売地,浜松市中央区大瀬町２２１７－１,774,浜松市中央区大瀬町２２１７－１,所有権,60,用途地域,8.51,200%,301,2025/4/14,-,-,現況渡し,(株)アライブ　企画営業部,053-476-7112,34.7567067,137.7747035
181,-,売地,浜松市中央区大瀬町2446-1・2447-2,800,浜松市中央区大瀬町2446-1・2447-2,所有権,60,-,7.98,200%,331.58,2025/4/3,-,-,現況渡し,アイエス宅建,053-434-6810,34.7592816,137.7711552
182,専任媒介,売地,浜松市中央区大瀬町685-2,"1,000",浜松市中央区大瀬町685-2,所有権,60,-,10.02,200%,330,2025/2/16,-,-,現況渡し,(有)エステート東海,053-433-5401,34.7592816,137.7711552
183,一般媒介,売地,浜松市中央区大瀬町,"1,076.80",浜松市中央区大瀬町,所有権,60,-,8.0,200%,445,2025/4/15,-,-,現況渡し,(株)マストレ　高林支店,053-472-5656,34.7592816,137.7711552
184,媒介,売地,浜松市中央区大瀬町2682,"1,580",浜松市中央区大瀬町2682,所有権,70,-,25.04,200%,208.6,2025/5/2,-,-,更地渡し,(株)アスティア,053-543-9988,34.7540881,137.7710204
185,媒介,売地,浜松市中央区大瀬町1517番3・1518,"51,473",浜松市中央区大瀬町1517番3・1518,所有権,60,-,18.65,200%,-,2025/3/4,-,-,更地渡し,-,053-476-3152,34.7653073,137.7711454
186,媒介,売地,浜松市中央区大塚町２０７他,"1,200",浜松市中央区大塚町２０７他,所有権,60,-,1.53,200%,-,2025/2/21,-,-,現況渡し,-,053-528-7605,34.6977315,137.7896566
187,媒介,売地,浜松市中央区大原町177-2、176-1,"6,350",浜松市中央区大原町177-2、176-1,所有権,60,-,11.46,200%,-,2025/2/15,-,-,建築条件付,-,053-443-8578,34.7980411,137.7354591
188,一般媒介,売地,浜松市中央区大人見町2325-1,477,浜松市中央区大人見町2325-1,所有権,-,-,3.0,200%,527,2025/4/28,-,-,現況渡し,(株)リデコ,053-488-4537,34.7383063,137.6510054
189,★売主,売地,浜松市中央区大人見町12番74,980,浜松市中央区大人見町12番74,所有権,60,-,16.08,200%,201.5,2025/4/19,-,-,更地渡し,センチュリー21中央不動産浜松店,053-584-0021,34.7335339,137.6440473
190,一般媒介,売地,浜松市中央区大人見町,"1,182",浜松市中央区大人見町,所有権,60,用途地域,16.84,200%,232.11,2025/4/12,-,-,更地渡し,(株)マストレ企画営業所,053-401-3456,34.7361938,137.6528991
191,専任媒介,売地,浜松市中央区大人見町,"1,690",浜松市中央区大人見町,所有権,60,-,17.08,200%,327.22,2025/4/15,-,-,更地渡し,(株)マストレ,053-448-5656,34.7361938,137.6528991
192,媒介,売地,浜松市中央区大平台１丁目8-18,"5,280",浜松市中央区大平台１丁目8-18,所有権,40,-,40.76,200%,428.32,2025/4/23,-,-,更地渡し,ＲＥコンサルタント静岡(株),053-489-6088,34.7204625,137.6878728
193,専任媒介,売地,浜松市中央区大平台２丁目132-1､132-2,"3,100",浜松市中央区大平台２丁目132-1､132-2,所有権,40,-,29.62,200%,346,2025/4/13,-,-,現況渡し,伸光不動産(株),053-448-0001,34.7128569,137.6861319
194,専任媒介,売地,浜松市中央区大平台２丁目１３２－１他,"3,100",浜松市中央区大平台２丁目１３２－１他,所有権,40,-,29.62,200%,346,2025/2/28,-,-,現況渡し,伸光不動産(株),053-448-0001,34.7128569,137.6861319
195,専任媒介,売地,浜松市中央区大平台２丁目2-8,"4,980",浜松市中央区大平台２丁目2-8,所有権,40,-,29.75,200%,553.4,2025/4/13,-,-,更地渡し,伸光不動産(株),053-448-0001,34.7162262,137.6870198
196,専任媒介,売地,浜松市中央区大平台２丁目２－８,"4,980",浜松市中央区大平台２丁目２－８,所有権,40,-,29.75,200%,553.4,2025/2/28,-,-,更地渡し,伸光不動産(株),053-448-0001,34.7162262,137.6870198
197,一般媒介,売地,浜松市中央区大平台４丁目128-7,"3,323",浜松市中央区大平台４丁目128-7,所有権,60,-,32.51,200%,338,2025/4/5,-,-,現況渡し,(株)丸浜不動産コンサルティング,053-447-8817,34.7089652,137.6756675
198,一般媒介,売地,浜松市中央区大柳町842-1,821,浜松市中央区大柳町842-1,所有権,60,-,3.0,200%,905,2025/4/28,-,-,現況渡し,(株)リデコ,053-488-4537,34.6772836,137.7575916
199,専任媒介,売地,浜松市中央区大山町,423.5,浜松市中央区大山町,所有権,60,-,10.01,200%,546,2025/4/22,-,-,現況渡し,"2,499/66,450",053-448-5656,34.7789509,137.6812072
200,一般媒介,売地,浜松市中央区大山町4067-1,"5,116",浜松市中央区大山町4067-1,所有権,60,用途地域,6.0,200%,-,2025/5/1,-,-,現況渡し,-,053-401-4235,34.7789509,137.6812072
201,媒介,売地,浜松市中央区恩地町259番5,592.02,浜松市中央区恩地町259番5,所有権,60,工業地域,18.0,200%,140,2025/4/24,-,-,更地渡し,1月6日,053-476-3152,34.6887659,137.7623812
202,媒介,売地,浜松市中央区恩地町,740,浜松市中央区恩地町,所有権,60,工業地域,24.99,200%,142.98,2025/5/7,-,-,現況渡し,1月10日,053-463-8713,34.6874367,137.7600575
203,一般媒介,売地,浜松市中央区恩地町,740,浜松市中央区恩地町,所有権,60,工業地域,24.99,200%,126,2025/4/18,-,-,現況渡し,1月10日,053-472-5656,34.6874367,137.7600575
204,媒介,売地,浜松市中央区恩地町２５４－２,740,浜松市中央区恩地町２５４－２,所有権,60,工業地域,24.99,200%,142.98,2025/2/27,-,-,現況渡し,1月10日,053-476-3152,34.6888969,137.7618994
205,★売主,売地,-,"1,143",バス停 芳川西 停歩9分,所有権,60,工業地域,24.32,200%,155.4,2025/3/31,-,-,建築条件付,遠州鉄道(株)　遠鉄ホーム　浜松住宅プラザ,053-473-5515,,
206,媒介,売地,浜松市中央区恩地町693番、694番,"1,642.08",浜松市中央区恩地町693番、694番,所有権,-,-,5.5,200%,987,2025/3/10,-,-,現況渡し,とぴあ浜松農業協同組合不動産センター有玉店,053-476-3152,34.6874367,137.7600575
207,★代理,売地,-,"1,698",バス停 遠鉄バス本郷南 停歩6分,所有権,60,工業地域,34.0,200%,165.1,2025/5/1,-,-,建築条件付,朝日住宅(株),0538-35-3500,,
208,専任媒介,売地,浜松市中央区笠井上町２３６－２,480,浜松市中央区笠井上町２３６－２,所有権,60,-,7.09,200%,224,2025/4/16,-,-,現況渡し,遠州鉄道(株)　浜北店,053-581-1124,34.7777928,137.7995424
209,媒介,売地,-,880,遠州鉄道 遠州小松 徒歩30 分,所有権,60,-,8.0,200%,364,2025/3/28,-,-,現況渡し,(株)竹林不動産,053-433-4451,,
210,★一般媒介,売地,浜松市中央区笠井上町５２１－２２,"1,280",浜松市中央区笠井上町５２１－２２,所有権,60,用途地域,11.57,200%,365.97,2025/4/30,-,-,現況渡し,遠州鉄道(株)　高台店,053-437-1976,34.7742854,137.7992768
211,一般媒介,売地,浜松市中央区笠井上町,"1,280",浜松市中央区笠井上町,所有権,60,-,11.57,200%,365.97,2025/4/21,-,-,現況渡し,(株)マストレ,053-448-5656,34.77619540000001,137.7989098
212,-,売地,-,"1,380",遠州鉄道 遠州小松 徒歩31分,所有権,60,-,24.58,200%,185.61,2025/2/9,-,-,更地渡し,(株)エステートカドル,053-489-5537,,
213,-,売地,-,"1,450",遠州鉄道 遠州小松 徒歩31分,所有権,60,-,24.11,200%,198.89,2025/2/9,-,-,更地渡し,(株)エステートカドル,053-489-5537,,
214,媒介,売地,"浜松市中央区笠井上町373, 389-1","1,980","浜松市中央区笠井上町373, 389-1",所有権,-,-,6.0,200%,-,2025/4/12,-,-,現況渡し,-,053-433-4451,34.77619540000001,137.7989098
215,一般媒介,売地,浜松市中央区笠井新田町,880,浜松市中央区笠井新田町,所有権,60,-,7.05,200%,413,2025/5/2,-,-,現況渡し,(株)マストレ浜松医大前営業所,053-424-7747,34.7626843,137.7871894
216,専任媒介,売地,浜松市中央区笠井新田町978-6,900,浜松市中央区笠井新田町978-6,所有権,60,-,13.31,200%,223.57,2025/4/23,-,-,相談,ユウナンエイト(株),053-401-9723,34.7626843,137.7871894
217,専任媒介,売地,浜松市中央区笠井新田町978-6,900,浜松市中央区笠井新田町978-6,所有権,60,-,13.31,200%,223.57,2025/2/18,-,-,現況渡し,(株)トレスト,053-459-0811,34.7626843,137.7871894
218,-,売地,浜松市中央区笠井新田町1539,"1,315.85",浜松市中央区笠井新田町1539,所有権,60,-,5.0,200%,870,2025/3/24,-,-,現況渡し,藤田土地開発(株),053-922-3007,34.7626843,137.7871894
219,媒介,売地,浜松市中央区笠井新田町1096番2、1095番2,"1,402",浜松市中央区笠井新田町1096番2、1095番2,所有権,-,-,11.0,200%,421.58,2025/2/27,-,-,現況渡し,とぴあ浜松農業協同組合不動産センター有玉店,053-476-3152,34.7626843,137.7871894
220,専任媒介,売地,浜松市中央区笠井新田町字俣志240番の一部,"2,180",浜松市中央区笠井新田町字俣志240番の一部,所有権,-,用途地域,24.03,200%,300,2025/4/12,-,-,現況渡し,ユーホーム(株),053-444-0282,34.7676,137.7879
221,専任媒介,売地,浜松市中央区笠井新田町２７３,"2,340",浜松市中央区笠井新田町２７３,所有権,60,-,25.79,200%,300,2025/4/28,-,-,現況渡し,遠州鉄道(株)　浜北店,053-581-1124,34.7626843,137.7871894
222,一般媒介,売地,浜松市中央区笠井新田町１７８５－２,"5,081.10",浜松市中央区笠井新田町１７８５－２,所有権,60,-,27.0,200%,622.12,2025/5/8,-,-,更地渡し,遠州鉄道(株)　高台店,053-437-1976,34.7568229,137.7800679
223,専任媒介,売地,浜松市中央区笠井町,600,浜松市中央区笠井町,所有権,60,-,20.24,200%,98,2025/4/22,-,-,現況渡し,アイエス宅建,053-434-6810,34.7681043,137.7945914
224,一般媒介,売地,浜松市中央区笠井町,800,浜松市中央区笠井町,所有権,60,-,19.52,200%,135.51,2025/4/26,-,-,現況渡し,(株)マストレ東営業所,053-462-5656,34.7681043,137.7945914
225,★売主,売地,浜松市中央区笠井町197-1他2筆,880,浜松市中央区笠井町197-1他2筆,所有権,80,-,11.05,200%,263.35,2025/5/1,-,-,現況渡し,センチュリー21中央不動産浜松店,053-584-0021,34.7734461,137.7996135
226,専属専任,売地,浜松市中央区笠井町2-2,980,浜松市中央区笠井町2-2,所有権,60,-,35.68,200%,90.8,2025/4/26,-,-,更地渡し,オーク不動産(株),053-555-1074,34.7736939,137.8000087
227,専任媒介,売地,"浜松市中央区笠井町1179-1,1179-3",990,"浜松市中央区笠井町1179-1,1179-3",所有権,60,-,9.28,200%,353,2025/3/10,-,-,更地渡し,(株)不動産Ｌａｂｏ．,0538-33-6118,34.7699317,137.7923595
228,一般媒介,売地,浜松市中央区笠井町２４０,"1,600",浜松市中央区笠井町２４０,所有権,80,-,17.84,200%,296.61,2025/4/11,-,-,現況渡し,遠州鉄道(株)　高台店,053-437-1976,34.7716162,137.799135
229,一般媒介,売地,浜松市中央区笠井町,"1,600",浜松市中央区笠井町,所有権,60,-,17.84,200%,296.61,2025/4/8,-,-,相談,あららぎ不動産(株),053-464-5557,34.7681043,137.7945914
230,★売主,売地,-,"1,630","遠州鉄道 遠州西ヶ崎 距離2,90 0 m",所有権,60,用途地域,25.54,200%,211.06,2025/4/15,-,-,建築条件付,(株)ＡＱ　Ｇｒｏｕｐ　静岡支店,053-445-6211,,
231,★売主,売地,-,"1,630","遠州鉄道 遠州西ヶ崎 距離2,90 0 m",所有権,60,-,23.27,200%,231.6,2025/4/15,-,-,建築条件付,(株)ＡＱ　Ｇｒｏｕｐ　静岡支店,053-445-6211,,
232,★売主,売地,-,"1,680","遠州鉄道 遠州西ヶ崎 距離2,90 0 m",所有権,60,-,33.28,200%,166.89,2025/4/15,-,-,建築条件付,(株)ＡＱ　Ｇｒｏｕｐ　静岡支店,053-445-6211,,
233,専任媒介,売地,浜松市中央区笠井町,"1,800",浜松市中央区笠井町,所有権,70,-,24.09,200%,247.11,2025/5/7,-,-,現況渡し,浜松損害保険サービス(株),053-459-4180,34.7681043,137.7945914
234,一般媒介,売地,浜松市中央区笠井町,"2,300",浜松市中央区笠井町,所有権,60,-,21.94,200%,346.61,2025/5/7,-,-,更地渡し,浜松損害保険サービス(株),053-459-4180,34.7681043,137.7945914
235,媒介,売地,浜松市中央区笠井町字西浦542番1,"2,307",浜松市中央区笠井町字西浦542番1,所有権,60,-,22.01,200%,346.61,2025/3/31,-,-,更地渡し,(株)リサイクルクリーン　天竜不動産,053-926-2511,34.7681043,137.7945914
236,一般媒介,売地,浜松市中央区笠井町928-9,"2,500",浜松市中央区笠井町928-9,所有権,60,-,20.78,200%,397.75,2025/5/7,-,-,現況渡し,浜松損害保険サービス(株),053-459-4180,34.7664803,137.7963456
237,一般媒介,売地,-,330,バス停 遠鉄バス「金折住吉館」 停歩1分,所有権,60,-,4.12,200%,265,2025/3/22,-,-,相談,あららぎ不動産(株),053-464-5557,,
238,一般媒介,売地,浜松市中央区金折町,407.7,浜松市中央区金折町,所有権,60,-,4.6,200%,293,2025/3/29,-,-,現況渡し,あららぎ不動産(株),053-464-5557,34.6923125,137.7822553
239,一般媒介,売地,-,450,バス停 遠鉄バス「金折住吉館」 停歩1分,所有権,60,-,5.62,200%,265,2025/3/22,-,-,相談,あららぎ不動産(株),053-464-5557,,
240,媒介,売地,浜松市中央区金折町,454,浜松市中央区金折町,所有権,60,用途地域,3.01,200%,500,2025/5/7,-,-,現況渡し,(株)山崎不動産,053-463-8713,34.6923125,137.7822553
241,媒介,売地,浜松市中央区金折町611-2,489,浜松市中央区金折町611-2,所有権,60,-,7.0,200%,231,2025/5/7,-,-,現況渡し,(株)山崎不動産,053-463-8713,34.6923125,137.7822553
242,媒介,売地,浜松市中央区金折町999,498,浜松市中央区金折町999,所有権,60,-,4.49,200%,367,2025/5/7,-,-,現況渡し,(株)山崎不動産,053-463-8713,34.6923125,137.7822553
243,一般媒介,売地,浜松市中央区金折町,498,浜松市中央区金折町,所有権,60,-,4.49,200%,367,2025/4/16,-,-,相談,(有)ホームズ,053-455-2223,34.6923125,137.7822553
244,媒介,売地,浜松市中央区金折町９９９,498,浜松市中央区金折町９９９,所有権,60,-,4.49,200%,367,2025/3/5,-,-,現況渡し,(有)ホームズ,053-455-2223,34.6923125,137.7822553
245,専任媒介,売地,浜松市中央区金折町６１１－２,559,浜松市中央区金折町６１１－２,所有権,60,-,8.0,200%,231,2025/4/15,-,-,現況渡し,アースデイ不動産,053-441-2103,34.6923125,137.7822553
246,媒介,売地,浜松市中央区金折町611-1,568,浜松市中央区金折町611-1,所有権,60,-,6.5,200%,289,2025/5/7,-,-,現況渡し,(株)山崎不動産,053-463-8713,34.6923125,137.7822553
247,媒介,売地,浜松市中央区金折町78-1,600,浜松市中央区金折町78-1,所有権,60,-,6.38,200%,311,2025/5/7,-,-,現況渡し,(株)山崎不動産,053-463-8713,34.6923125,137.7822553
248,一般媒介,売地,浜松市中央区金折町,600,浜松市中央区金折町,所有権,70,-,6.38,200%,311,2025/4/16,-,-,相談,(有)ホームズ,053-455-2223,34.6923125,137.7822553
249,媒介,売地,浜松市中央区金折町78-1,600,浜松市中央区金折町78-1,所有権,70,-,6.38,200%,311,2025/3/5,-,-,現況渡し,(有)ホームズ,053-455-2223,34.6923125,137.7822553
250,専任媒介,売地,浜松市中央区金折町６１１－１,656,浜松市中央区金折町６１１－１,所有権,60,用途地域,7.51,200%,289,2025/3/9,-,-,現況渡し,アースデイ不動産,053-441-2103,34.6923125,137.7822553
251,媒介,売地,浜松市中央区金折町609,783,浜松市中央区金折町609,所有権,60,-,5.81,200%,446,2025/5/7,-,-,現況渡し,(株)山崎不動産,053-463-8713,34.6923125,137.7822553
252,専任媒介,売地,浜松市中央区金折町字内浦2078,"1,324.18",浜松市中央区金折町字内浦2078,所有権,70,-,22.0,200%,199,2025/4/28,-,-,更地渡し,(株)ヤマセ不動産,053-474-2188,34.6923125,137.7822553
253,一般媒介,売地,浜松市中央区金折町３３６－１,"1,525",浜松市中央区金折町３３６－１,所有権,60,-,4.0,200%,-,2025/4/26,-,-,現況渡し,-,053-455-2223,34.6923125,137.7822553
254,一般媒介,売地,浜松市中央区金折町,"1,525.80",浜松市中央区金折町,所有権,60,-,4.0,200%,-,2025/4/16,-,-,相談,-,053-455-2223,34.6923125,137.7822553
255,媒介,売地,浜松市中央区金折町,"2,770.88",浜松市中央区金折町,所有権,60,-,4.0,200%,-,2025/4/4,-,-,現況渡し,-,053-476-3152,34.6923125,137.7822553
256,一般媒介,売地,浜松市中央区上浅田１丁目,"1,180",浜松市中央区上浅田１丁目,所有権,60,-,26.65,200%,146.42,2025/5/4,-,-,更地渡し,(株)マストレ　高林支店,053-472-5656,34.695738,137.7273943
257,専任媒介,売地,浜松市中央区上浅田２丁目,"1,980",浜松市中央区上浅田２丁目,所有権,60,-,25.46,200%,257.17,2025/4/24,-,-,更地渡し,(株)マストレ,053-448-5656,34.6945111,137.7298587
258,専任媒介,売地,浜松市中央区上浅田２丁目,"2,980",浜松市中央区上浅田２丁目,所有権,60,-,27.52,200%,358,2025/5/5,-,-,相談,(株)マストレ,053-448-5656,34.6945111,137.7298587
259,専任媒介,売地,浜松市中央区上新屋町201-4,"1,730",浜松市中央区上新屋町201-4,所有権,60,-,26.85,200%,213,2025/5/7,-,-,更地渡し,浜松損害保険サービス(株),053-459-4180,34.7319125,137.7570715
260,★売主,売地,-,"2,159",バス停 上新屋南 停歩3分,所有権,60,用途地域,44.7,200%,159.7,2025/3/31,-,-,相談,ケイアイスター不動産(株)　浜松営業所,053-489-6686,,
261,一般媒介,売地,浜松市中央区上石田町715,798,浜松市中央区上石田町715,所有権,60,-,8.0,200%,330,2025/4/30,-,-,現況渡し,犬塚産業(株),053-455-0588,34.7519217,137.7859558
262,専任媒介,売地,浜松市中央区上石田町2178-2,"1,180",浜松市中央区上石田町2178-2,所有権,60,-,11.02,200%,354,2025/4/17,-,-,現況渡し,(株)テラニシ,053-523-6201,34.7503458,137.7819481
263,専任媒介,売地,浜松市中央区上石田町2178-2,"2,755.60",浜松市中央区上石田町2178-2,所有権,60,-,14.0,200%,650.71,2025/3/2,-,-,現況渡し,上島不動産(株),053-473-5000,34.7503458,137.7819481
264,専属専任,売地,-,"4,980",バス30分 バス停 東平 停歩3分,所有権,30,-,20.79,200%,792,2025/4/24,-,-,相談,丸善管財(株),053-569-4544,,
265,★売主,売地,浜松市中央区上島１丁目12-21 付近,"1,298",浜松市中央区上島１丁目12-21 付近,所有権,70,-,37.64,200%,114.02,2025/4/28,-,-,建築条件付,(株)ベスト・ハウジング,053-474-6252,34.7395375,137.7416338
266,★売主,売地,浜松市中央区上島１丁目9-22 付近,"1,898",浜松市中央区上島１丁目9-22 付近,所有権,60,-,34.37,200%,182.59,2025/5/2,-,-,建築条件付,(株)ベスト・ハウジング,053-474-6252,34.737418,137.7398757
267,★売主,売地,浜松市中央区上島２丁目18-36 付近,"1,798",浜松市中央区上島２丁目18-36 付近,所有権,60,-,38.64,200%,153.85,2025/4/28,-,-,建築条件付,(株)ベスト・ハウジング,053-474-6252,34.7402361,137.7420739
268,★売主,売地,-,"1,880",遠州鉄道 上島 徒歩8 分,所有権,60,-,49.81,200%,124.78,2025/4/28,-,-,建築条件付,三井ホーム(株)　浜松支店,053-555-5331,,
269,一般媒介,売地,浜松市中央区上島４丁目１１－６,"2,660",浜松市中央区上島４丁目１１－６,所有権,60,-,39.18,200%,224.49,2025/4/24,-,-,更地渡し,遠州鉄道(株)　浜北店,053-581-1124,34.7434343,137.7509366
270,一般媒介,売地,浜松市中央区上島４丁目,"2,660",浜松市中央区上島４丁目,所有権,60,用途地域,39.18,200%,224.49,2025/4/12,-,-,更地渡し,(株)マストレ　高林支店,053-472-5656,34.74332589999999,137.7483457
271,専任媒介,売地,浜松市中央区上島６丁目2680番3,888,浜松市中央区上島６丁目2680番3,所有権,60,-,26.24,200%,111.91,2025/5/8,-,-,現況渡し,(株)アモルテ,053-522-8885,34.7439861,137.737869
272,専任媒介,売地,浜松市中央区上島６丁目１０－４,"1,480",浜松市中央区上島６丁目１０－４,所有権,60,-,32.57,200%,150.25,2025/4/30,-,-,更地渡し,遠州鉄道(株)　高台店,053-437-1976,34.739549,137.7364857
273,専任媒介,売地,浜松市中央区上島６丁目2680-9,"1,950",浜松市中央区上島６丁目2680-9,所有権,60,-,19.19,200%,336,2025/5/1,-,-,現況渡し,センチュリー21中央不動産浜松店,053-584-0021,34.7439861,137.737869
274,-,売地,浜松市中央区上島６丁目２５０７－４３,"2,048.56",浜松市中央区上島６丁目２５０７－４３,所有権,60,-,29.0,200%,233.53,2025/4/25,-,-,現況渡し,遠州鉄道(株)　買取再生グループ,053-488-8807,34.7439861,137.737869
275,専任媒介,売地,浜松市中央区上島６丁目１３－１０,"3,400",浜松市中央区上島６丁目１３－１０,所有権,60,-,29.65,200%,379.14,2025/4/11,-,-,相談,遠州鉄道(株)　高台店,053-437-1976,34.7405217,137.7356541
276,一般媒介,売地,浜松市中央区上島７丁目２６,980,浜松市中央区上島７丁目２６,所有権,60,-,20.91,200%,155,2025/5/2,-,-,現況渡し,遠州鉄道(株)　高台店,053-437-1976,34.747003,137.7409501
277,専任媒介,売地,浜松市中央区神田町,650,浜松市中央区神田町,所有権,60,工業地域,21.42,200%,100.32,2025/4/11,-,-,更地渡し,あららぎ不動産(株),053-464-5557,34.6865976,137.7206176
278,一般媒介,売地,浜松市中央区神田町957,"2,500",浜松市中央区神田町957,所有権,60,-,22.9,200%,361,2025/5/1,-,-,現況渡し,(株)Ｐａｄｄｌｅ,053-482-7733,34.6865976,137.7206176
279,専任媒介,売地,浜松市中央区神田町,"3,350",浜松市中央区神田町,所有権,60,-,25.48,200%,434.68,2025/4/19,-,-,更地渡し,(株)マストレ,053-448-5656,34.6865976,137.7206176
280,★売主,売地,浜松市中央区上西町字西表1164番4,"1,650",浜松市中央区上西町字西表1164番4,所有権,60,用途地域,44.31,200%,123.12,2025/5/2,-,-,相談,ホームポジション(株)　浜松支店,053-582-6500,34.7238499,137.7600575
281,-,売地,-,750,バス37分 バス停 神原 停歩7分,所有権,60,-,5.94,200%,417.65,2025/3/31,-,-,建築条件付,(株)セイケンハウス工業,053-597-1011,,
282,一般媒介,売地,浜松市中央区鴨江１丁目35-8,300,浜松市中央区鴨江１丁目35-8,所有権,80,-,12.13,200%,81.77,2025/4/21,-,-,更地渡し,丸友開発(株),053-454-8118,34.7010227,137.7194915
283,専任媒介,売地,浜松市中央区鴨江１丁目30-22,492,浜松市中央区鴨江１丁目30-22,所有権,80,-,29.94,200%,54.33,2025/4/4,-,-,現況渡し,(株)不動産スズキ,053-454-4512,34.7023772,137.7201268
284,専任媒介,売地,浜松市中央区鴨江１丁目20-12,600,浜松市中央区鴨江１丁目20-12,所有権,80,-,28.47,200%,69.68,2025/5/1,-,-,更地渡し,センチュリー21中央不動産浜松店,053-584-0021,34.7036259,137.7217246
285,一般媒介,売地,浜松市中央区鴨江１丁目１６００－１１,980,浜松市中央区鴨江１丁目１６００－１１,所有権,80,-,26.05,200%,124.4,2025/4/23,-,-,現況渡し,サーラ不動産(株)　浜松仲介チーム,053-464-6105,34.7025239,137.7206176
286,専属専任,売地,浜松市中央区鴨江１丁目1636-14，1636-18,"1,100",浜松市中央区鴨江１丁目1636-14，1636-18,所有権,80,-,18.18,200%,200.05,2025/3/31,-,-,現況渡し,(株)大隅土地建物,053-443-8443,34.7025239,137.7206176
287,一般媒介,売地,浜松市中央区鴨江２丁目1265-8,798,浜松市中央区鴨江２丁目1265-8,所有権,60,-,14.0,200%,188.45,2025/5/7,-,-,更地渡し,(株)山崎不動産,053-463-8713,34.7039275,137.7132259
288,一般媒介,売地,浜松市中央区鴨江２丁目7-22,"1,000",浜松市中央区鴨江２丁目7-22,所有権,60,-,32.86,200%,100.62,2025/5/1,-,-,更地渡し,(株)Ｐａｄｄｌｅ,053-482-7733,34.7056514,137.7145829
289,専任媒介,売地,浜松市中央区鴨江２丁目,"1,800",浜松市中央区鴨江２丁目,所有権,60,-,36.74,200%,162,2025/4/12,-,-,更地渡し,(株)ＡＦＣスマイルプラス　Ｓｍｉｆｅ浜松西支店,053-449-7111,34.7039275,137.7132259
290,一般媒介,売地,浜松市中央区鴨江２丁目34街区,"2,440",浜松市中央区鴨江２丁目34街区,所有権,60,用途地域,13.82,200%,583.85,2025/3/29,-,-,現況渡し,山田土地建物(株),054-654-1900,34.7023746,137.712918
291,専任媒介,売地,浜松市中央区鴨江３丁目,700,浜松市中央区鴨江３丁目,所有権,60,-,12.9,200%,179.43,2025/4/15,-,-,現況渡し,カワイ不動産(有),053-464-8873,34.7074281,137.7107623
292,一般媒介,売地,浜松市中央区鴨江３丁目,"1,200",浜松市中央区鴨江３丁目,所有権,60,-,40.01,200%,99.17,2025/4/12,-,-,現況渡し,(株)マストレ,053-448-5656,34.7074281,137.7107623
293,専任媒介,売地,浜松市中央区鴨江３丁目597-1,"1,880",浜松市中央区鴨江３丁目597-1,所有権,70,-,32.88,200%,189.03,2025/2/20,-,-,現況渡し,アンセット・リアルティ(株),053-452-6520,34.7074281,137.7107623
294,一般媒介,売地,浜松市中央区鴨江３丁目,"2,370",浜松市中央区鴨江３丁目,所有権,60,-,34.05,200%,230.14,2025/5/5,-,-,現況渡し,(株)マストレ企画営業所,053-401-3456,34.7074281,137.7107623
295,一般媒介,売地,浜松市中央区鴨江３丁目328-4　他7筆,"2,457",浜松市中央区鴨江３丁目328-4　他7筆,所有権,60,-,20.94,200%,388,2025/4/10,-,-,更地渡し,(有)アイ・プラン,053-451-4656,34.7074281,137.7107623
296,専任媒介,売地,浜松市中央区鴨江３丁目,"2,480",浜松市中央区鴨江３丁目,所有権,60,-,33.61,200%,243.93,2025/4/16,-,-,現況渡し,(株)マストレ,053-448-5656,34.7074281,137.7107623
297,媒介,売地,浜松市中央区鴨江３丁目72-1,"3,550",浜松市中央区鴨江３丁目72-1,所有権,60,-,45.3,200%,259.1,2025/5/2,-,-,現況渡し,(株)アスティア,053-543-9988,34.7081593,137.7088704
298,一般媒介,売地,浜松市中央区鴨江３丁目72-1,"3,550",浜松市中央区鴨江３丁目72-1,所有権,60,-,45.22,200%,259.55,2025/4/23,-,-,現況渡し,ＲＥコンサルタント静岡(株),053-489-6088,34.7081593,137.7088704
299,一般媒介,売地,浜松市中央区鴨江３丁目７００－４,"3,550",浜松市中央区鴨江３丁目７００－４,所有権,60,-,45.22,200%,259.55,2025/4/20,-,-,現況渡し,遠州鉄道(株)　事業用不動産流通グループ,053-488-8811,34.7074281,137.7107623
300,一般媒介,売地,浜松市中央区鴨江４丁目19-32,350,浜松市中央区鴨江４丁目19-32,所有権,60,用途地域,15.05,200%,76.89,2025/5/1,-,-,現況渡し,(株)Ｐａｄｄｌｅ,053-482-7733,34.7065033,137.7200227
301,一般媒介,売地,浜松市中央区鴨江４丁目22-26,"2,230",浜松市中央区鴨江４丁目22-26,所有権,60,-,17.2,200%,428.81,2025/5/2,-,-,更地渡し,(株)アスティア,053-543-9988,34.7071007,137.7186215
302,一般媒介,売地,浜松市中央区鴨江４丁目22-10,"2,500",浜松市中央区鴨江４丁目22-10,所有権,60,-,18.3,200%,451.67,2025/3/5,-,-,現況渡し,ＳＭＤ不動産(株),053-401-4235,34.7070641,137.7188477
303,★一般媒介,売地,浜松市中央区鴨江４丁目21-6,"3,980",浜松市中央区鴨江４丁目21-6,所有権,60,-,18.76,200%,701.58,2025/5/1,-,-,現況渡し,(株)創継コンサルタンツ,053-545-7450,34.7065663,137.7192517
304,一般媒介,売地,浜松市中央区鴨江４丁目21-6,"3,980",浜松市中央区鴨江４丁目21-6,所有権,60,-,18.76,200%,701.58,2025/3/4,-,-,現況渡し,カワイ不動産(有),053-464-8873,34.7065663,137.7192517
305,専任媒介,売地,浜松市中央区鴨江４丁目27-28,"7,980",浜松市中央区鴨江４丁目27-28,所有権,60,-,40.97,200%,643.94,2025/4/2,-,-,現況渡し,(株)不動産スズキ,053-454-4512,34.7071665,137.7174892
306,媒介,売地,浜松市中央区河輪町260,240,浜松市中央区河輪町260,所有権,60,-,3.0,200%,264.47,2025/5/7,-,-,現況渡し,(株)山崎不動産,053-463-8713,34.6745298,137.7859558
307,一般媒介,売地,浜松市中央区河輪町126-1,690.27,浜松市中央区河輪町126-1,所有権,60,-,7.0,200%,326,2025/5/7,-,-,現況渡し,(株)山崎不動産,053-463-8713,34.6780467,137.7854358
308,媒介,売地,浜松市中央区河輪町126番1,690.27,浜松市中央区河輪町126番1,所有権,60,-,7.0,200%,326,2025/4/14,-,-,現況渡し,とぴあ浜松農業協同組合不動産センター有玉店,053-476-3152,34.6780467,137.7854358
309,専属専任,売地,-,850,"東海道本線 天竜川 距離5,10 0 m",所有権,60,-,9.1,200%,309,2025/5/7,-,-,現況渡し,大成ビルド(株)　本社,054-254-7025,,
310,専属専任,売地,-,"2,000","東海道本線 天竜川 距離5,10 0 m",所有権,60,用途地域,3.21,200%,-,2025/5/7,-,-,現況渡し,-,054-254-7025,,
311,★一般媒介,売地,浜松市中央区河輪町48-1,"2,580",浜松市中央区河輪町48-1,所有権,70,-,6.34,200%,-,2025/2/16,-,-,現況渡し,-,053-523-6715,34.6787406,137.7869436
312,専任媒介,売地,浜松市中央区舘山寺町５５番,418.18,浜松市中央区舘山寺町５５番,所有権,-,-,3.5,200%,395,2025/4/4,-,-,現況渡し,ＵＮＯ　ｒｅａｌ　ｅｓｔａｔｅ(株),053-454-0711,34.7648184,137.6135392
313,専任媒介,売地,浜松市中央区舘山寺町,490,浜松市中央区舘山寺町,所有権,60,-,5.11,200%,317,2025/5/3,-,-,現況渡し,(株)マストレ東営業所,053-462-5656,34.7648184,137.6135392
314,一般媒介,売地,浜松市中央区舘山寺町2753番2,500,浜松市中央区舘山寺町2753番2,所有権,60,-,5.26,200%,314.71,2025/4/7,-,-,更地渡し,冨士物産(株)　浜松店,053-411-2223,34.7571447,137.6132703
315,専任媒介,売地,浜松市中央区舘山寺町2503-1,650,浜松市中央区舘山寺町2503-1,所有権,60,-,5.21,200%,413,2025/3/11,-,-,更地渡し,(株)不動産Ｌａｂｏ．,0538-33-6118,34.7648184,137.6135392
316,★売主,売地,浜松市中央区舘山寺町1422-1,780,浜松市中央区舘山寺町1422-1,所有権,60,-,3.15,200%,819.17,2025/4/14,-,-,現況渡し,(株)ＡＦＣスマイル不動産　営業本部　浜松支社,053-450-3964,34.7648184,137.6135392
317,専任媒介,売地,浜松市中央区舘山寺町５２番１　52番２,854.86,浜松市中央区舘山寺町５２番１　52番２,所有権,60,-,4.5,200%,628,2025/4/4,-,-,現況渡し,ＵＮＯ　ｒｅａｌ　ｅｓｔａｔｅ(株),053-454-0711,34.7648184,137.6135392
318,一般媒介,売地,浜松市中央区舘山寺町,"1,080",浜松市中央区舘山寺町,所有権,60,-,4.36,200%,819.17,2025/4/11,-,-,更地渡し,(株)ＡＦＣスマイルプラス　Ｓｍｉｆｅ浜松西支店,053-449-7111,34.7648184,137.6135392
319,★一般媒介,売地,浜松市中央区舘山寺町２４６３－１,"1,690",浜松市中央区舘山寺町２４６３－１,所有権,60,-,8.05,200%,694.8,2025/4/13,-,-,更地渡し,遠州鉄道(株)　高台店,053-437-1976,34.7603543,137.6133417
320,一般媒介,売地,浜松市中央区舘山寺町２４６３－１,"1,690",浜松市中央区舘山寺町２４６３－１,所有権,60,用途地域,8.18,200%,683.62,2025/4/12,-,-,更地渡し,(株)アライブ　企画営業部,053-476-7112,34.7603543,137.6133417
321,媒介,売地,浜松市中央区舘山寺町2642番外1筆,"2,888",浜松市中央区舘山寺町2642番外1筆,所有権,60,-,10.0,200%,955,2025/2/27,-,-,相談,とぴあ浜松農業協同組合不動産センター有玉店,053-476-3152,34.7648184,137.6135392
322,一般媒介,売地,浜松市中央区舘山寺町,"3,080",浜松市中央区舘山寺町,所有権,60,-,6.23,200%,-,2025/4/11,-,-,更地渡し,-,053-449-7111,34.7648184,137.6135392
323,★売主,売地,-,"1,158.64",東海道本線 天竜川 徒歩20 分,所有権,60,-,28.0,200%,136.82,2025/5/8,-,-,建築条件付,(株)パートナーズホーム,0532-87-4323,,
324,媒介,売地,浜松市中央区北島町,"2,176.25",浜松市中央区北島町,所有権,60,-,25.0,200%,287.77,2025/3/17,-,-,現況渡し,とぴあ浜松農業協同組合不動産センター有玉店,053-476-3152,34.7310076,137.7822553
325,専任媒介,売地,浜松市中央区木戸町641,"1,896",浜松市中央区木戸町641,所有権,80,商業地域,54.99,200%,114,2025/3/7,-,-,現況渡し,(株)イイダ開発,0538-31-2708,34.7089632,137.7431071
326,媒介,売地,浜松市中央区貴平町309,"1,515",浜松市中央区貴平町309,所有権,-,-,5.0,200%,-,2025/4/22,-,-,現況渡し,-,053-433-4451,34.7561144,137.7958252
327,媒介,売地,浜松市中央区貴平町439,"1,672.79",浜松市中央区貴平町439,所有権,60,-,7.0,200%,790,2025/3/28,-,-,現況渡し,(株)竹林不動産,053-433-4451,34.7561144,137.7958252
328,-,売地,浜松市中央区貴平町572,"3,800",浜松市中央区貴平町572,所有権,60,-,9.77,200%,-,2025/3/4,-,-,相談,-,053-545-5488,34.7561144,137.7958252
329,媒介,売地,浜松市中央区国吉町１２０６,"1,194",浜松市中央区国吉町１２０６,所有権,60,-,4.0,200%,987,2025/2/27,-,-,現況渡し,とぴあ浜松農業協同組合不動産センター有玉店,053-476-3152,34.7217957,137.8007606
330,媒介,売地,浜松市中央区倉松町９１８番１、９１９番１,644,浜松市中央区倉松町９１８番１、９１９番１,所有権,60,用途地域,5.0,200%,426,2025/5/8,-,-,現況渡し,とぴあ浜松農業協同組合不動産センター有玉店,053-476-3152,34.6765846,137.6942433
331,媒介,売地,浜松市中央区倉松町234番Ａ,700,浜松市中央区倉松町234番Ａ,所有権,60,-,6.42,200%,360.62,2025/4/4,-,-,現況渡し,とぴあ浜松農業協同組合不動産センター有玉店,053-476-3152,34.6756762,137.6922884
332,一般媒介,売地,浜松市中央区呉松町2337,300,浜松市中央区呉松町2337,所有権,60,-,1.84,200%,541.66,2025/2/25,-,-,現況渡し,(株)スズキビジネス,053-451-3900,34.7732281,137.6332155
333,一般媒介,売地,浜松市中央区呉松町,"1,050",浜松市中央区呉松町,所有権,60,-,10.15,200%,342.06,2025/4/25,-,-,更地渡し,(株)マストレ　高林支店,053-472-5656,34.7732281,137.6332155
334,★一般媒介,売地,浜松市中央区呉松町2868番1　外2筆,"1,931.80",浜松市中央区呉松町2868番1　外2筆,所有権,60,-,10.0,200%,638.64,2025/4/3,-,-,現況渡し,アイエス宅建,053-434-6810,34.7732281,137.6332155
335,一般媒介,売地,浜松市中央区元目町１２８－２５,"1,490",浜松市中央区元目町１２８－２５,所有権,80,商業地域,47.95,200%,102.73,2025/4/17,-,-,更地渡し,(株)アライブ　企画営業部,053-476-7112,34.7130492,137.7305037
336,一般媒介,売地,浜松市中央区元目町128-25,"1,500",浜松市中央区元目町128-25,所有権,80,商業地域,48.27,200%,102.73,2025/3/3,-,-,現況渡し,(有)カミヤプランニングオフィス,053-453-5564,34.7130492,137.7305037
337,媒介,売地,浜松市中央区小池町2732番3,500,浜松市中央区小池町2732番3,所有権,60,-,5.88,200%,281.36,2025/4/28,-,-,現況渡し,(株)ヤマセ不動産,053-474-2188,34.7407252,137.7556605
338,媒介,売地,浜松市中央区小池町2585-1,707,浜松市中央区小池町2585-1,所有権,70,-,9.99,200%,234,2025/2/27,-,-,現況渡し,とぴあ浜松農業協同組合不動産センター有玉店,053-476-3152,34.7435064,137.7586636
339,媒介,売地,-,750,遠州鉄道 自動車学校前 徒歩14 分,所有権,60,-,9.33,200%,266,2025/4/22,-,-,相談,(株)にわとり不動産,053-569-1122,,
340,媒介,売地,"浜松市中央区小池町1232,1233",806,"浜松市中央区小池町1232,1233",所有権,60,用途地域,6.5,200%,410,2025/5/2,-,-,建築条件付,(株)アトラック,053-454-4551,34.7484403,137.7563588
341,-,売地,-,967,遠州鉄道 自動車学校前 徒歩15分,所有権,60,-,8.4,200%,380.64,2025/3/31,-,-,建築条件付,(株)セイケンハウス工業,053-597-1011,,
342,一般媒介,売地,浜松市中央区小池町2780，2781，2782,"1,193",浜松市中央区小池町2780，2781，2782,所有権,60,-,9.01,200%,438,2025/5/3,-,-,更地渡し,(有)金原物産,0538-24-7024,34.7484403,137.7563588
343,媒介,売地,浜松市中央区小池町,"2,290",浜松市中央区小池町,所有権,60,-,11.66,200%,649.64,2025/4/15,-,-,相談,(株)ニイノプラン　第一支店,053-401-2105,34.7484403,137.7563588
344,専任媒介,売地,浜松市中央区小池町,"2,680",浜松市中央区小池町,所有権,60,-,20.17,200%,439.28,2025/5/2,-,-,更地渡し,(株)マストレ　高林支店,053-472-5656,34.7484403,137.7563588
345,媒介,売地,浜松市中央区小池町2965番1・2961番6,"3,852",浜松市中央区小池町2965番1・2961番6,所有権,60,-,25.0,200%,509.43,2025/3/7,-,-,更地渡し,とぴあ浜松農業協同組合不動産センター有玉店,053-476-3152,34.742529,137.7539509
346,専任媒介,売地,浜松市中央区神立町561-3,700,浜松市中央区神立町561-3,所有権,60,-,34.49,200%,67.1,2025/4/7,-,-,建築条件付,(株)ユートピア開発,053-464-1010,34.7124721,137.7539878
347,媒介,売地,浜松市中央区御給町180,"2,345",浜松市中央区御給町180,所有権,60,-,5.0,200%,-,2025/5/7,-,-,現況渡し,-,053-463-8713,34.675999,137.7693054
348,媒介,売地,浜松市中央区小沢渡町1453-1,600,浜松市中央区小沢渡町1453-1,所有権,60,-,7.55,200%,263,2025/2/17,-,-,現況渡し,(株)丸玉,053-421-7360,34.6822092,137.6826141
349,媒介,売地,浜松市中央区小沢渡町1198,645,浜松市中央区小沢渡町1198,所有権,60,-,5.0,200%,427,2025/4/4,-,-,現況渡し,とぴあ浜松農業協同組合不動産センター有玉店,053-476-3152,34.6789181,137.6812072
350,媒介,売地,浜松市中央区小沢渡町1760番１,721.4,浜松市中央区小沢渡町1760番１,所有権,60,用途地域,9.0,200%,265,2025/4/28,-,-,現況渡し,とぴあ浜松農業協同組合不動産センター有玉店,053-476-3152,34.6789181,137.6812072
351,専任媒介,売地,浜松市中央区小沢渡町,750,浜松市中央区小沢渡町,所有権,60,-,8.07,200%,307.32,2025/5/8,-,-,現況渡し,(株)三キュウ,053-489-9937,34.6789181,137.6812072
352,専任媒介,売地,浜松市中央区小沢渡町,900,浜松市中央区小沢渡町,所有権,60,-,14.31,200%,208,2025/5/8,-,-,現況渡し,(株)三キュウ,053-489-9937,34.6789181,137.6812072
353,一般媒介,売地,浜松市中央区小沢渡町1057の一部,"1,000",浜松市中央区小沢渡町1057の一部,所有権,60,-,9.25,200%,357.5,2025/4/4,-,-,現況渡し,とぴあ浜松農業協同組合不動産センター有玉店,053-476-3152,34.6834487,137.6795973
354,-,売地,浜松市中央区小沢渡町1506番1,"1,100",浜松市中央区小沢渡町1506番1,所有権,60,-,18.04,200%,201.66,2025/3/11,-,-,相談,(株)ミサワホーム静岡　浜松支店不動産課,053-478-0350,34.6789181,137.6812072
355,一般媒介,売地,浜松市中央区小沢渡町,"1,150",浜松市中央区小沢渡町,所有権,60,-,13.72,200%,277.16,2025/4/23,-,-,更地渡し,(株)マストレ,053-448-5656,34.6789181,137.6812072
356,媒介,売地,浜松市中央区小沢渡町364-5,"1,180",浜松市中央区小沢渡町364-5,所有権,60,-,13.4,200%,291.25,2025/3/31,-,-,現況渡し,(有)フクエイ,053-435-0913,34.6835913,137.6869615
357,-,売地,浜松市中央区小沢渡町,"1,200",浜松市中央区小沢渡町,所有権,60,-,11.43,200%,347.09,2025/5/8,-,-,更地渡し,(株)三キュウ,053-489-9937,34.6789181,137.6812072
358,媒介,売地,浜松市中央区小沢渡町417-2,"1,200",浜松市中央区小沢渡町417-2,所有権,60,-,18.2,200%,218,2025/5/2,-,-,更地渡し,(株)アスティア,053-543-9988,34.6828004,137.6921152
359,一般媒介,売地,浜松市中央区小沢渡町,"1,680",浜松市中央区小沢渡町,所有権,60,-,10.18,200%,546,2025/4/30,-,-,現況渡し,(株)マストレ,053-448-5656,34.6789181,137.6812072
360,一般媒介,売地,浜松市中央区湖東町2808-1,700,浜松市中央区湖東町2808-1,所有権,60,用途地域,7.9,200%,293,2025/3/11,-,-,現況渡し,第一伊藤建設(株),053-457-1181,34.7621033,137.6826919
361,一般媒介,売地,浜松市中央区湖東町２７２６－３,980,浜松市中央区湖東町２７２６－３,所有権,60,-,4.23,200%,766.39,2025/4/30,-,-,更地渡し,遠州鉄道(株)　高台店,053-437-1976,34.7686902,137.6799184
362,媒介,売地,浜松市中央区湖東町1169-32,"1,570",浜松市中央区湖東町1169-32,所有権,60,-,18.24,200%,284.58,2025/5/2,-,-,更地渡し,(株)丸玉,053-421-7360,34.7619932,137.6704046
363,専任媒介,売地,浜松市中央区湖東町5609-1,"2,241.50",浜松市中央区湖東町5609-1,所有権,70,-,5.0,200%,-,2025/5/8,-,-,現況渡し,-,053-922-3007,34.7621033,137.6826919
364,一般媒介,売地,浜松市中央区古人見町,670,浜松市中央区古人見町,所有権,60,-,5.0,200%,443.7,2025/5/1,-,-,更地渡し,(株)マストレ,053-448-5656,34.7256898,137.6282957
365,一般媒介,売地,浜松市中央区古人見町1570-12,680,浜松市中央区古人見町1570-12,所有権,60,-,3.64,200%,619.23,2025/5/1,-,-,現況渡し,(株)Ｐａｄｄｌｅ,053-482-7733,34.731336,137.6417391
366,一般媒介,売地,浜松市中央区古人見町,"1,190",浜松市中央区古人見町,所有権,60,-,14.67,200%,268.31,2025/5/9,-,-,更地渡し,(株)マストレ　高林支店,053-472-5656,34.7256898,137.6282957
367,専任媒介,売地,浜松市中央区古人見町,"1,200",浜松市中央区古人見町,所有権,60,-,17.21,200%,230.56,2025/4/14,-,-,更地渡し,(株)マストレ東営業所,053-462-5656,34.7256898,137.6282957
368,一般媒介,売地,浜松市中央区古人見町,"1,380",浜松市中央区古人見町,所有権,60,-,19.87,200%,229.68,2025/5/8,-,-,更地渡し,(株)マストレ　高林支店,053-472-5656,34.7256898,137.6282957
369,一般媒介,売地,浜松市中央区古人見町1538-39,"1,680",浜松市中央区古人見町1538-39,所有権,60,-,24.15,200%,230.01,2025/3/21,-,-,更地渡し,(株)マエフジ不動産,053-472-3341,34.7313702,137.6442994
370,専任媒介,売地,浜松市中央区子安町1378-10,"1,250",浜松市中央区子安町1378-10,所有権,60,用途地域,24.87,200%,166,2025/4/12,-,-,更地渡し,1月8日,053-467-6700,34.7150187,137.7623729
371,一般媒介,売地,浜松市中央区子安町336-3,"1,511",浜松市中央区子安町336-3,所有権,60,-,35.99,200%,138.8,2025/5/1,-,-,現況渡し,ＳＭＤ不動産(株),053-401-4235,34.7118184,137.7666439
372,一般媒介,売地,浜松市中央区子安町335-4,"2,188.20",浜松市中央区子安町335-4,所有権,60,-,35.0,200%,206.68,2025/4/14,-,-,更地渡し,しずなび(株)　浜松駅南店,053-453-3731,34.7112807,137.7667172
373,一般媒介,売地,浜松市中央区子安町３００番７,"2,300",浜松市中央区子安町３００番７,所有権,60,-,27.26,200%,279.02,2025/4/19,-,-,現況渡し,サーラ不動産(株)　浜松仲介チーム,053-464-6105,34.7127194,137.7592222
374,一般媒介,売地,浜松市中央区子安町３００－７,"2,300",浜松市中央区子安町３００－７,所有権,60,-,27.26,200%,279.02,2025/4/17,-,-,現況渡し,遠州鉄道(株)　浜松店,053-471-0202,34.7127194,137.7592222
375,媒介,売地,浜松市中央区材木町29番の一部,850,浜松市中央区材木町29番の一部,所有権,60,-,7.09,200%,396.5,2025/4/7,-,-,現況渡し,とぴあ浜松農業協同組合不動産センター有玉店,053-476-3152,34.7169909,137.792124
376,媒介,売地,浜松市中央区材木町29番の一部,"1,000",浜松市中央区材木町29番の一部,所有権,60,-,8.34,200%,396.5,2025/4/7,-,-,現況渡し,とぴあ浜松農業協同組合不動産センター有玉店,053-476-3152,34.7169909,137.792124
377,媒介,売地,浜松市中央区材木町468,"3,600",浜松市中央区材木町468,所有権,60,工業地域,16.2,200%,735,2025/3/10,-,-,現況渡し,エヌ・ワイ・エフ(株),053-522-7207,34.7169909,137.792124
378,-,売地,浜松市中央区幸２丁目31番13号,"1,690",浜松市中央区幸２丁目31番13号,所有権,40,-,23.98,200%,233,2025/4/12,-,-,現況渡し,(株)Ｒｅ・ｌａｔｉｏｎ,053-523-6715,34.7387686,137.7299935
379,一般媒介,売地,浜松市中央区幸２丁目４０１－３,"1,998",浜松市中央区幸２丁目４０１－３,所有権,40,-,31.72,200%,208.28,2025/4/24,-,-,現況渡し,(株)アライブ　中東遠支店,0538-36-8851,34.7382584,137.731091
380,媒介,売地,浜松市中央区幸２丁目260-137、260-138,"1,998",浜松市中央区幸２丁目260-137、260-138,所有権,40,用途地域,14.39,200%,459.06,2025/4/23,-,-,更地渡し,ＲＥコンサルタント静岡(株),053-489-6088,34.7382584,137.731091
381,一般媒介,売地,浜松市中央区幸２丁目４０１－３,"2,170",浜松市中央区幸２丁目４０１－３,所有権,40,-,34.97,200%,205.19,2025/4/24,-,-,現況渡し,(株)アライブ　中東遠支店,0538-36-8851,34.7382584,137.731091
382,一般媒介,売地,浜松市中央区幸２丁目,"2,380",浜松市中央区幸２丁目,所有権,60,-,39.74,200%,198,2025/4/11,-,-,現況渡し,(株)マストレ,053-448-5656,34.7382584,137.731091
383,専任媒介,売地,浜松市中央区幸２丁目285-3,"2,500",浜松市中央区幸２丁目285-3,所有権,60,-,12.62,200%,655,2025/5/7,-,-,現況渡し,水嶋宅建(株),053-433-7660,34.7382584,137.731091
384,-,売地,浜松市中央区幸３丁目７－１,"2,980",浜松市中央区幸３丁目７－１,所有権,30,-,28.12,200%,350.41,2025/5/2,-,-,現況渡し,遠州鉄道(株)　高台店,053-437-1976,34.7408031,137.7294963
385,★売主,売地,浜松市中央区幸４丁目9-5,"2,137",浜松市中央区幸４丁目9-5,所有権,60,-,48.23,200%,146.48,2025/3/16,-,-,更地渡し,(株)スズキビジネス,053-451-3900,34.7456211,137.7279519
386,一般媒介,売地,浜松市中央区栄町,900,浜松市中央区栄町,所有権,80,-,20.69,200%,143.83,2025/5/2,-,-,現況渡し,(株)マストレ企画営業所,053-401-3456,34.7042057,137.725238
387,★売主,売地,浜松市中央区篠ケ瀬町139-3、139-7,980,浜松市中央区篠ケ瀬町139-3、139-7,所有権,60,-,21.7,200%,149.31,2025/4/9,-,-,更地渡し,センチュリー21中央不動産浜松店,053-584-0021,34.7331107,137.7731943
388,専任媒介,売地,浜松市中央区篠ケ瀬町138-9,"1,680",浜松市中央区篠ケ瀬町138-9,所有権,60,-,30.48,200%,305.32,2025/5/1,-,-,現況渡し,-,053-401-2266,34.73303569999999,137.7733098
389,専任媒介,売地,浜松市中央区篠ケ瀬町437-3,"1,800",浜松市中央区篠ケ瀬町437-3,所有権,60,-,36.01,200%,165.28,2025/4/26,-,-,更地渡し,しずなび(株)　浜松東店,053-467-6700,34.7313947,137.7750189
390,専任媒介,売地,浜松市中央区篠ケ瀬町596-2,"1,999",浜松市中央区篠ケ瀬町596-2,所有権,60,用途地域,54.09,200%,122.19,2025/3/10,-,-,更地渡し,オーク不動産(株),053-555-1074,34.7270033,137.7776293
391,★売主,売地,-,"1,999",バス停 篠ケ瀬 停歩5分,所有権,60,-,54.09,200%,122.19,2025/3/3,-,-,相談,ケイアイスター不動産(株)　浜松営業所,053-489-6686,,
392,★売主,売地,-,"1,999",バス停 篠ケ瀬 停歩5分,所有権,60,-,54.09,200%,122.19,2025/3/3,-,-,相談,ケイアイスター不動産(株)　浜松営業所,053-489-6686,,
393,媒介,売地,"浜松市中央区篠ケ瀬町356番2,356番8","2,200","浜松市中央区篠ケ瀬町356番2,356番8",所有権,60,-,32.41,200%,240,2025/2/18,-,-,更地渡し,1月6日,053-476-3152,34.72901420000001,137.7738752
394,一般媒介,売地,浜松市中央区篠ケ瀬町１３８６番２，１３８６番３,"2,490",浜松市中央区篠ケ瀬町１３８６番２，１３８６番３,所有権,80,-,30.49,200%,270,2025/4/19,-,-,現況渡し,サーラ不動産(株)　浜松仲介チーム,053-464-6105,34.7278635,137.774855
395,★売主,売地,-,"2,700",バス停 篠ケ瀬 停歩3分,所有権,60,-,28.4,200%,314.29,2025/4/29,-,-,現況渡し,あららぎ不動産(株),053-464-5557,,
396,-,売地,浜松市中央区佐藤３丁目8-9,760,浜松市中央区佐藤３丁目8-9,所有権,60,-,17.56,200%,143.08,2025/4/23,-,-,更地渡し,(株)セイエイ,0538-66-2838,34.7119684,137.7508988
397,専属専任,売地,浜松市中央区佐藤３丁目105,"4,460",浜松市中央区佐藤３丁目105,所有権,60,-,46.31,200%,318.4,2025/5/9,-,-,相談,(株)オフィスＳＡＮＯ,053-522-8320,34.7136614,137.7508111
398,媒介,売地,浜松市中央区佐鳴台１丁目1774,"2,547",浜松市中央区佐鳴台１丁目1774,所有権,60,-,39.99,200%,210.57,2025/3/12,-,-,現況渡し,(株)プラス,053-478-5511,34.7040632,137.7015245
399,専任媒介,売地,浜松市中央区佐鳴台２丁目１２９番２,"2,800",浜松市中央区佐鳴台２丁目１２９番２,所有権,60,-,38.25,200%,242,2025/4/11,-,-,現況渡し,遠州鉄道(株)　浜北店,053-581-1124,34.7031905,137.6941355
400,専任媒介,売地,浜松市中央区佐鳴台２丁目30-15,"11,000",浜松市中央区佐鳴台２丁目30-15,所有権,60,用途地域,50.27,200%,723.39,2025/3/6,-,-,現況渡し,(株)川嶋,053-437-3731,34.7046072,137.6925967
401,専任媒介,売地,浜松市中央区佐鳴台２丁目31-16,"12,000",浜松市中央区佐鳴台２丁目31-16,所有権,60,-,50.86,200%,780.02,2025/2/18,-,-,現況渡し,(株)川嶋,053-437-3731,34.7042667,137.692504
402,-,売地,浜松市中央区佐鳴台５丁目122-21,"2,500",浜松市中央区佐鳴台５丁目122-21,所有権,40,-,36.26,200%,227.93,2025/2/21,-,-,更地渡し,(株)エステート・パートナー,053-443-8856,34.7127243,137.6978299
403,一般媒介,売地,浜松市中央区佐鳴台５丁目,"3,890",浜松市中央区佐鳴台５丁目,所有権,30,-,37.61,200%,342,2025/3/24,-,-,更地渡し,しずなび(株)　浜松駅南店,053-453-3731,34.7127243,137.6978299
404,一般媒介,売地,浜松市中央区佐鳴台５丁目,"4,680",浜松市中央区佐鳴台５丁目,所有権,40,-,59.5,200%,260.03,2025/2/20,-,-,更地渡し,(有)アイ・プラン,053-451-4656,34.7127243,137.6978299
405,★売主,売地,浜松市中央区佐鳴台６丁目110－18他,"2,600",浜松市中央区佐鳴台６丁目110－18他,所有権,40,-,35.51,200%,242.06,2025/4/28,-,-,建築条件付,三井ホーム(株)　浜松支店,053-555-5331,34.7055528,137.6916727
406,専任媒介,売地,浜松市中央区参野町,890,浜松市中央区参野町,所有権,70,-,24.0,200%,122.6,2025/4/29,-,-,更地渡し,あららぎ不動産(株),053-464-5557,34.6923863,137.7569752
407,一般媒介,売地,浜松市中央区参野町156-2,"1,598",浜松市中央区参野町156-2,所有権,60,-,25.53,200%,206.99,2025/3/29,-,-,現況渡し,ＳＭＤ不動産(株),053-401-4235,34.6944935,137.7556364
408,★一般媒介,売地,浜松市中央区参野町334,"2,760",浜松市中央区参野町334,所有権,60,-,22.93,200%,398,2025/5/8,-,-,相談,ユタカ土地,053-425-5771,34.6923863,137.7569752
409,専任媒介,売地,浜松市中央区三新町７１４－３,530,浜松市中央区三新町７１４－３,所有権,60,-,8.33,200%,210.39,2025/5/8,-,-,更地渡し,遠州鉄道(株)　浜北店,053-581-1124,34.657462,137.7849332
410,専任媒介,売地,浜松市中央区三新町字中通297番1・298番,553,浜松市中央区三新町字中通297番1・298番,所有権,60,用途地域,4.38,200%,417.48,2025/3/21,-,-,現況渡し,(株)リサイクルクリーン　天竜不動産,053-926-2511,34.6654208,137.7859558
411,専任媒介,売地,浜松市中央区三和町７３６－２,"2,285",浜松市中央区三和町７３６－２,所有権,60,-,20.0,200%,377.74,2025/2/14,-,-,相談,(株)東洋エージェンシー,053-421-0700,34.7010446,137.7683708
412,★一般媒介,売地,浜松市中央区三和町539,"2,339",浜松市中央区三和町539,所有権,60,-,11.0,200%,703,2025/4/14,-,-,現況渡し,みき不動産(株),053-581-9266,34.7065131,137.7674557
413,一般媒介,売地,浜松市中央区鹿谷町19,"4,500",浜松市中央区鹿谷町19,所有権,60,-,25.03,200%,594.56,2025/3/7,-,-,現況渡し,しずなび(株)　藤枝店,054-639-9816,34.7160299,137.7226197
414,媒介,売地,浜松市中央区蜆塚１丁目19-18,"1,622",浜松市中央区蜆塚１丁目19-18,所有権,60,-,32.02,200%,167.51,2025/3/12,-,-,相談,(株)プラス,053-478-5511,34.7132776,137.7118716
415,専任媒介,売地,浜松市中央区蜆塚１丁目,"1,680",浜松市中央区蜆塚１丁目,所有権,60,-,9.82,200%,566.09,2025/5/2,-,-,現況渡し,(株)マストレ,053-448-5656,34.7121954,137.71261
416,媒介,売地,浜松市中央区蜆塚１丁目,"2,780",浜松市中央区蜆塚１丁目,所有権,60,-,43.49,200%,211.34,2025/5/2,-,-,更地渡し,(株)アスティア,053-543-9988,34.7121954,137.71261
417,-,売地,浜松市中央区蜆塚２丁目19770-25,"3,150",浜松市中央区蜆塚２丁目19770-25,所有権,60,-,40.21,200%,259.03,2025/3/6,-,-,現況渡し,(株)エステート・パートナー,053-443-8856,34.7140337,137.7089146
418,専任媒介,売地,浜松市中央区蜆塚３丁目16-33,"2,650",浜松市中央区蜆塚３丁目16-33,所有権,60,-,50.7,200%,172.82,2025/4/5,-,-,更地渡し,(株)マルショウ企画,053-447-1115,34.7169936,137.708428
419,★売主,売地,浜松市中央区蜆塚４丁目21-14,"1,750",浜松市中央区蜆塚４丁目21-14,所有権,60,-,27.04,200%,213.96,2025/5/7,-,-,現況渡し,(株)タカオホームパートナーズ　浜松店,053-450-8131,34.7115337,137.703261
420,一般媒介,売地,浜松市中央区十軒町４６１－８,"1,580",浜松市中央区十軒町４６１－８,所有権,60,用途地域,27.23,200%,191.83,2025/5/8,-,-,相談,遠州鉄道(株)　高台店,053-437-1976,34.7306829,137.7452212
421,一般媒介,売地,浜松市中央区志都呂２丁目,"1,880",浜松市中央区志都呂２丁目,所有権,60,-,34.09,200%,182.36,2025/4/29,-,-,現況渡し,(株)マストレ,053-448-5656,34.6984687,137.6510534
422,専任媒介,売地,浜松市中央区志都呂町,"1,700",浜松市中央区志都呂町,所有権,70,-,29.12,200%,193.04,2025/4/28,-,-,更地渡し,(株)マストレ　高林支店,053-472-5656,34.7037596,137.6541296
423,一般媒介,売地,浜松市中央区篠原町９７２７－１,300,浜松市中央区篠原町９７２７－１,所有権,60,-,4.0,200%,248,2025/4/20,-,-,現況渡し,遠州鉄道(株)　事業用不動産流通グループ,053-488-8811,34.6857303,137.6546256
424,専任媒介,売地,浜松市中央区篠原町９５６０,400,浜松市中央区篠原町９５６０,所有権,60,-,12.99,200%,101.86,2025/4/19,-,-,更地渡し,サーラ不動産(株)　豊橋仲介チーム,0532-51-5810,34.6845135,137.6558628
425,一般媒介,売地,浜松市中央区篠原町,411,浜松市中央区篠原町,所有権,60,-,9.0,200%,151.1,2025/4/18,-,-,現況渡し,(株)マストレ,053-448-5656,34.6858129,137.6708537
426,専属専任,売地,浜松市中央区篠原町11162-2,570,浜松市中央区篠原町11162-2,所有権,60,-,4.42,200%,426.83,2025/4/8,-,-,更地渡し,(株)グレービック・リアルエステイト,053-473-5071,34.685102,137.6616764
427,一般媒介,売地,浜松市中央区篠原町9782、9788,580,浜松市中央区篠原町9782、9788,所有権,60,-,11.91,200%,161,2025/4/4,-,-,相談,とぴあ浜松農業協同組合不動産センター有玉店,053-476-3152,34.6858129,137.6708537
428,一般媒介,売地,-,650,バス停 札木 停歩5分,所有権,60,-,4.96,200%,433.78,2025/5/1,-,-,現況渡し,こみき不動産,053-421-5521,,
429,専任媒介,売地,浜松市中央区篠原町22536-1,685,浜松市中央区篠原町22536-1,所有権,60,-,8.01,200%,283,2025/3/25,-,-,現況渡し,アースデイ不動産,053-441-2103,34.6858129,137.6708537
430,一般媒介,売地,-,750,バス停 札木 停歩5分,所有権,60,用途地域,5.72,200%,433.76,2025/5/1,-,-,現況渡し,こみき不動産,053-421-5521,,
431,一般媒介,売地,浜松市中央区篠原町,865,浜松市中央区篠原町,所有権,60,-,15.0,200%,190.7,2025/4/16,-,-,現況渡し,(株)マストレ,053-448-5656,34.6858129,137.6708537
432,★売主,売地,-,924,"東海道本線 高塚 距離1,6 0 0 m",所有権,60,-,20.51,200%,148.95,2025/2/11,-,-,建築条件付,遠州鉄道(株)　遠鉄ホーム　浜松住宅プラザ,053-473-5515,,
433,一般媒介,売地,浜松市中央区篠原町22598-1,952,浜松市中央区篠原町22598-1,所有権,60,-,6.98,200%,451,2025/4/23,-,-,現況渡し,クリエイト・ジャパン浜松西(株),053-447-7941,34.6858129,137.6708537
434,専任媒介,売地,浜松市中央区篠原町21712番の一部,"1,174.63",浜松市中央区篠原町21712番の一部,所有権,60,工業地域,18.9,200%,205.48,2025/5/8,-,-,現況渡し,(株)アモルテ,053-522-8885,34.6858129,137.6708537
435,★売主,売地,浜松市中央区篠原町９９４８－２０,"1,388.40",浜松市中央区篠原町９９４８－２０,所有権,60,-,22.5,200%,204,2025/4/22,-,-,建築条件付,林工住宅(株),053-463-0258,34.6860334,137.6519625
436,-,売地,-,"1,390",バス停 坪井新田 停歩2分,所有権,60,-,19.51,200%,235.58,2025/5/1,-,-,更地渡し,(株)エム・レップ不動産,053-401-2266,,
437,専任媒介,売地,浜松市中央区篠原町２００１２,"1,390",浜松市中央区篠原町２００１２,所有権,60,-,19.51,200%,235.58,2025/4/28,-,-,現況渡し,遠州鉄道(株)　浜松店,053-471-0202,34.6858129,137.6708537
438,一般媒介,売地,浜松市中央区篠原町,"1,780",浜松市中央区篠原町,所有権,60,-,11.5,200%,90.63,2025/5/1,-,-,現況渡し,-,053-448-5656,34.6858129,137.6708537
439,一般媒介,売地,浜松市中央区篠原町,"2,571.96",浜松市中央区篠原町,所有権,60,-,12.0,200%,708.55,2025/4/11,-,-,現況渡し,(株)マストレ企画営業所,053-401-3456,34.6858129,137.6708537
440,専任媒介,売地,浜松市中央区四本松町,560,浜松市中央区四本松町,所有権,60,用途地域,6.52,200%,284,2025/5/8,-,-,現況渡し,あららぎ不動産(株),053-464-5557,34.6837506,137.7674557
441,★一般媒介,売地,浜松市中央区四本松町,600,浜松市中央区四本松町,所有権,60,-,6.03,200%,329,2025/4/14,-,-,現況渡し,みき不動産(株),053-581-9266,34.6837506,137.7674557
442,専任媒介,売地,浜松市中央区四本松町,600,浜松市中央区四本松町,所有権,60,-,4.05,200%,490,2025/3/29,-,-,相談,あららぎ不動産(株),053-464-5557,34.6837506,137.7674557
443,媒介,売地,浜松市中央区四本松町,"2,150",浜松市中央区四本松町,所有権,-,-,7.01,200%,-,2025/5/7,-,-,相談,-,053-463-8713,34.6837506,137.7674557
444,一般媒介,売地,浜松市中央区下池川町40-2,"1,480",浜松市中央区下池川町40-2,所有権,80,-,70.86,200%,69.05,2025/3/9,-,-,現況渡し,(株)ライフナビ,053-458-5000,34.7173511,137.7273943
445,媒介,売地,浜松市中央区下石田町1315,550,浜松市中央区下石田町1315,所有権,60,-,5.37,200%,339,2025/3/22,-,-,現況渡し,丸八不動産(株),053-455-0808,34.7388826,137.7847223
446,一般媒介,売地,浜松市中央区下石田町1583-1,660,浜松市中央区下石田町1583-1,所有権,60,-,7.0,200%,312,2025/4/29,-,-,現況渡し,しずなび(株)　浜松東店,053-467-6700,34.73507,137.783419
447,媒介,売地,浜松市中央区下石田町492-1,800,浜松市中央区下石田町492-1,所有権,60,-,9.95,200%,266,2025/3/13,-,-,相談,とぴあ浜松農業協同組合不動産センター有玉店,053-476-3152,34.7554487,137.7893365
448,媒介,売地,浜松市中央区下石田町,"1,630",浜松市中央区下石田町,所有権,60,-,26.93,200%,200.16,2025/5/2,-,-,更地渡し,(株)アスティア,053-543-9988,34.7388826,137.7847223
449,専任媒介,売地,浜松市中央区下石田町1578-1,"5,600",浜松市中央区下石田町1578-1,所有権,60,-,10.45,200%,-,2025/3/14,-,-,更地渡し,-,053-476-6001,34.7351934,137.7828085
450,媒介,売地,浜松市中央区下江町,545,浜松市中央区下江町,所有権,60,用途地域,8.01,200%,225,2025/5/7,-,-,現況渡し,(株)山崎不動産,053-463-8713,34.6799378,137.7705386
451,媒介,売地,浜松市中央区下江町６６８－③,580,浜松市中央区下江町６６８－③,所有権,60,-,7.52,200%,255,2025/5/7,-,-,現況渡し,(株)山崎不動産,053-463-8713,34.6799378,137.7705386
452,媒介,売地,浜松市中央区下江町６６８－①,656,浜松市中央区下江町６６８－①,所有権,60,-,8.51,200%,255,2025/5/7,-,-,現況渡し,(株)山崎不動産,053-463-8713,34.6799378,137.7705386
453,一般媒介,売地,浜松市中央区下江町,713.9,浜松市中央区下江町,所有権,60,-,5.01,200%,472,2025/4/15,-,-,現況渡し,あららぎ不動産(株),053-464-5557,34.6799378,137.7705386
454,媒介,売地,浜松市中央区下江町,783,浜松市中央区下江町,所有権,60,-,7.0,200%,370,2025/5/7,-,-,現況渡し,(株)山崎不動産,053-463-8713,34.6799378,137.7705386
455,一般媒介,売地,浜松市中央区下江町492・493,783.44,浜松市中央区下江町492・493,所有権,60,-,7.0,200%,370,2025/4/4,-,-,現況渡し,とぴあ浜松農業協同組合不動産センター有玉店,053-476-3152,34.6799378,137.7705386
456,媒介,売地,浜松市中央区下江町,919,浜松市中央区下江町,所有権,60,-,8.0,200%,380,2025/5/7,-,-,現況渡し,(株)山崎不動産,053-463-8713,34.6799378,137.7705386
457,媒介,売地,浜松市中央区常光町168-1,"1,014",浜松市中央区常光町168-1,所有権,-,-,7.0,200%,479,2025/2/18,-,-,現況渡し,(株)竹林不動産,053-433-4451,34.751204,137.8056964
458,媒介,売地,浜松市中央区常光町277,"1,300",浜松市中央区常光町277,所有権,60,-,9.35,200%,460.05,2025/3/18,-,-,現況渡し,(株)竹林不動産,053-433-4451,34.7549609,137.8046629
459,専任媒介,売地,浜松市中央区城北２丁目２７５　の一部,990,浜松市中央区城北２丁目２７５　の一部,所有権,60,-,30.88,200%,106,2025/4/26,-,-,現況渡し,(株)アライブ　企画営業部,053-476-7112,34.7238276,137.7212337
460,★売主,売地,浜松市中央区城北２丁目29-6 付近,"1,698",浜松市中央区城北２丁目29-6 付近,所有権,70,用途地域,34.26,200%,163.86,2025/4/28,-,-,建築条件付,(株)ベスト・ハウジング,053-474-6252,34.724864,137.7224369
461,一般媒介,売地,浜松市中央区城北２丁目２２－１５,"2,435",浜松市中央区城北２丁目２２－１５,所有権,60,-,45.84,200%,175.62,2025/4/21,-,-,建築条件付,遠州鉄道(株)　事業用不動産流通グループ,053-488-8811,34.72435550000001,137.7216397
462,-,売地,浜松市中央区城北２丁目22-15,"2,435",浜松市中央区城北２丁目22-15,所有権,60,-,45.84,200%,175.62,2025/3/12,-,-,建築条件付,西遠建設(株),053-424-8188,34.72435550000001,137.7216397
463,一般媒介,売地,-,"2,435",バス16分 バス停 静岡大学 停歩4分,所有権,60,-,45.84,200%,175.62,2025/3/3,-,-,建築条件付,冨士物産(株)　浜松店,053-411-2223,,
464,専任媒介,売地,浜松市中央区城北２丁目－,"7,500",浜松市中央区城北２丁目－,所有権,60,-,13.11,200%,-,2025/2/25,-,-,相談,-,053-434-6810,34.7238276,137.7212337
465,専任媒介,売地,浜松市中央区城北２丁目－,"9,999",浜松市中央区城北２丁目－,所有権,60,-,9.53,200%,-,2025/3/24,-,-,相談,-,053-434-6810,34.7238276,137.7212337
466,媒介,売地,浜松市中央区庄和町1277-1の一部、1290-2,829,浜松市中央区庄和町1277-1の一部、1290-2,所有権,60,-,10.0,200%,274.28,2025/3/6,-,-,更地渡し,とぴあ浜松農業協同組合不動産センター有玉店,053-476-3152,34.74111329999999,137.6041722
467,媒介,売地,-,380,東海道本線 浜松 徒歩38 分,所有権,60,-,3.57,200%,352,2025/4/22,-,-,現況渡し,(株)にわとり不動産,053-569-1122,,
468,専任媒介,売地,浜松市中央区白羽町419番の一部,432,浜松市中央区白羽町419番の一部,所有権,60,-,4.44,200%,322.08,2025/3/9,-,-,相談,アースデイ不動産,053-441-2103,34.6808954,137.7366365
469,媒介,売地,-,480,東海道本線 浜松 徒歩38 分,所有権,60,-,4.51,200%,352,2025/4/22,-,-,現況渡し,(株)にわとり不動産,053-569-1122,,
470,専任媒介,売地,浜松市中央区白羽町419の一部,550,浜松市中央区白羽町419の一部,所有権,60,用途地域,5.37,200%,339.06,2025/3/25,-,-,現況渡し,アースデイ不動産,053-441-2103,34.6808954,137.7366365
471,一般媒介,売地,浜松市中央区白羽町,600,浜松市中央区白羽町,所有権,60,-,13.29,200%,149.27,2025/5/7,-,-,更地渡し,浜松損害保険サービス(株),053-459-4180,34.6808954,137.7366365
472,専任媒介,売地,浜松市中央区白羽町,980,浜松市中央区白羽町,所有権,60,-,10.0,200%,324,2025/3/6,-,-,相談,あららぎ不動産(株),053-464-5557,34.6808954,137.7366365
473,専任媒介,売地,浜松市中央区白羽町2424,"1,423",浜松市中央区白羽町2424,所有権,60,-,8.01,200%,588,2025/4/28,-,-,更地渡し,(株)リデコ,053-488-4537,34.6808954,137.7366365
474,一般媒介,売地,浜松市中央区新貝町,754,浜松市中央区新貝町,所有権,60,-,13.0,200%,191.79,2025/4/12,-,-,現況渡し,(株)マストレ,053-448-5656,34.7033322,137.792124
475,媒介,売地,浜松市中央区新貝町852-1,"1,000",浜松市中央区新貝町852-1,所有権,60,-,12.75,200%,259.3,2025/5/2,-,-,更地渡し,(株)丸玉,053-421-7360,34.7039111,137.7897637
476,専任媒介,売地,浜松市中央区新津町315-1,"2,200",浜松市中央区新津町315-1,所有権,80,-,36.5,200%,199.29,2025/5/1,-,-,更地渡し,(株)創継コンサルタンツ,053-545-7450,34.7188018,137.7407477
477,専任媒介,売地,浜松市中央区神明町218-19,"6,300",浜松市中央区神明町218-19,所有権,80,商業地域,149.88,200%,138.96,2025/5/1,-,-,現況渡し,(株)東洋エージェンシー,053-421-0700,34.7082863,137.7280456
478,一般媒介,売地,浜松市中央区菅原町13-6,"1,281",浜松市中央区菅原町13-6,所有権,80,-,40.34,200%,105,2025/5/1,-,-,現況渡し,ＳＭＤ不動産(株),053-401-4235,34.6999815,137.7258346
479,専任媒介,売地,浜松市中央区砂山町344-30,"1,050",浜松市中央区砂山町344-30,所有権,80,商業地域,48.72,200%,71.26,2025/4/1,-,-,更地渡し,ユウナンエイト(株),053-401-9723,34.7028865,137.7400889
480,専属専任,売地,浜松市中央区砂山町620-2,"1,350",浜松市中央区砂山町620-2,所有権,80,用途地域,43.32,200%,103.03,2025/2/27,-,-,現況渡し,(株)Ｅａｒｎｅｓｔ,053-544-7344,34.7017426,137.7393999
481,専任媒介,売地,浜松市中央区住吉２丁目２３,"2,800",浜松市中央区住吉２丁目２３,所有権,60,-,39.94,200%,231.78,2025/5/1,-,-,更地渡し,遠州鉄道(株)　広沢プラザ,053-456-0055,34.7325412,137.7260081
482,専任媒介,売地,浜松市中央区住吉３丁目1-1,"1,000",浜松市中央区住吉３丁目1-1,所有権,70,-,42.36,200%,78.05,2025/4/23,-,-,更地渡し,ユウナンエイト(株),053-401-9723,34.7329912,137.7260713
483,★売主,売地,浜松市中央区住吉３丁目145-207,"1,850",浜松市中央区住吉３丁目145-207,所有権,80,-,34.88,200%,175.34,2025/5/7,-,-,現況渡し,(株)新栄,0538-85-4690,34.7344987,137.7249299
484,一般媒介,売地,浜松市中央区住吉３丁目,"1,850",浜松市中央区住吉３丁目,所有権,80,-,34.88,200%,175.34,2025/5/2,-,-,現況渡し,(株)マストレ東営業所,053-462-5656,34.7344987,137.7249299
485,専任媒介,売地,浜松市中央区住吉３丁目,"3,000",浜松市中央区住吉３丁目,所有権,80,-,41.34,200%,239.93,2025/5/7,-,-,更地渡し,浜松損害保険サービス(株),053-459-4180,34.7344987,137.7249299
486,一般媒介,売地,浜松市中央区住吉３丁目155-8,"3,295",浜松市中央区住吉３丁目155-8,所有権,80,-,44.99,200%,242.13,2025/4/19,-,-,現況渡し,センチュリー21中央不動産浜松店,053-584-0021,34.7344987,137.7249299
487,一般媒介,売地,浜松市中央区住吉３丁目,"3,295",浜松市中央区住吉３丁目,所有権,80,-,44.99,200%,242.13,2025/4/11,-,-,更地渡し,(株)マストレ企画営業所,053-401-3456,34.7344987,137.7249299
488,媒介,売地,浜松市中央区住吉３丁目１５５－８,"3,295.80",浜松市中央区住吉３丁目１５５－８,所有権,80,-,45.0,200%,242.13,2025/4/23,-,-,現況渡し,アルファ,053-584-5388,34.7344987,137.7249299
489,媒介,売地,浜松市中央区住吉３丁目155番8,"3,296",浜松市中央区住吉３丁目155番8,所有権,80,-,45.01,200%,242.13,2025/3/12,-,-,相談,(株)プラス,053-478-5511,34.7344987,137.7249299
490,専任媒介,売地,浜松市中央区住吉３丁目,"3,568",浜松市中央区住吉３丁目,所有権,80,用途地域,40.0,200%,294.9,2025/4/12,-,-,現況渡し,(株)マストレ　高林支店,053-472-5656,34.7344987,137.7249299
491,★売主,売地,-,"2,305",バス停 せいれい病院入口 停歩4分,所有権,60,-,47.0,200%,162.14,2025/4/22,-,-,建築条件付,遠州鉄道(株)　遠鉄ホーム　浜松住宅プラザ,053-473-5515,,
492,専任媒介,売地,浜松市中央区住吉４丁目932-19,"2,630",浜松市中央区住吉４丁目932-19,所有権,60,-,40.91,200%,212.54,2025/5/2,-,-,更地渡し,(株)ＩＭＡＥＤＡ,053-450-5678,34.7309106,137.7298587
493,専任媒介,売地,浜松市中央区住吉５丁目186-3,"1,871.70",浜松市中央区住吉５丁目186-3,所有権,40,-,43.0,200%,143.92,2025/4/27,-,-,更地渡し,(株)美建コーポレーション,053-473-1208,34.7352414,137.7280104
494,一般媒介,売地,浜松市中央区積志町,290,浜松市中央区積志町,所有権,60,-,2.44,200%,394,2025/4/21,-,-,現況渡し,(株)マストレ,053-448-5656,34.7679446,137.7674557
495,一般媒介,売地,浜松市中央区積志町９３６－３,480,浜松市中央区積志町９３６－３,所有権,60,-,5.61,200%,283,2025/4/24,-,-,現況渡し,遠州鉄道(株)　浜北店,053-581-1124,34.7674899,137.7681955
496,一般媒介,売地,浜松市中央区積志町,480,浜松市中央区積志町,所有権,60,-,5.61,200%,283,2025/4/23,-,-,現況渡し,(株)マストレ,053-448-5656,34.7679446,137.7674557
497,専任媒介,売地,浜松市中央区積志町３１－３,500,浜松市中央区積志町３１－３,所有権,60,-,5.01,200%,330,2025/4/23,-,-,現況渡し,遠州鉄道(株)　浜北店,053-581-1124,34.7679446,137.7674557
498,媒介,売地,-,530,遠州鉄道 遠州西ヶ崎 徒歩10 分,所有権,60,-,3.59,200%,489.29,2025/4/19,-,-,現況渡し,(株)つなぐエステート,053-489-5702,,
499,専任媒介,売地,浜松市中央区積志町３１番２,650,浜松市中央区積志町３１番２,所有権,60,-,6.52,200%,330,2025/5/5,-,-,現況渡し,遠州鉄道(株)　浜松店,053-471-0202,34.7679446,137.7674557
500,媒介,売地,浜松市中央区積志町1102,650,浜松市中央区積志町1102,所有権,60,用途地域,7.99,200%,269,2025/4/14,-,-,現況渡し,曳馬土地開発(株),053-463-2161,34.7679446,137.7674557
501,一般媒介,売地,浜松市中央区積志町,680,浜松市中央区積志町,所有権,60,-,5.8,200%,388.18,2025/4/21,-,-,現況渡し,(株)マストレ,053-448-5656,34.7679446,137.7674557
502,専任媒介,売地,浜松市中央区積志町２７１,680,浜松市中央区積志町２７１,所有権,60,-,7.45,200%,302,2025/4/19,-,-,相談,遠州鉄道(株)　高台店,053-437-1976,34.7679446,137.7674557
503,一般媒介,売地,浜松市中央区積志町766番外1筆の一部,722.54,浜松市中央区積志町766番外1筆の一部,所有権,60,-,6.5,200%,367.5,2025/3/24,-,-,現況渡し,アイエス宅建,053-434-6810,34.7679446,137.7674557
504,一般媒介,売地,浜松市中央区積志町,750,浜松市中央区積志町,所有権,60,-,6.01,200%,413.11,2025/4/21,-,-,現況渡し,(株)マストレ,053-448-5656,34.7679446,137.7674557
505,専任媒介,売地,浜松市中央区積志町972-1の一部、972-2の一部,780,浜松市中央区積志町972-1の一部、972-2の一部,所有権,60,-,5.17,200%,499,2025/3/24,-,-,現況渡し,アイエス宅建,053-434-6810,34.7679446,137.7674557
506,一般媒介,売地,浜松市中央区積志町766番外1筆の一部,793.33,浜松市中央区積志町766番外1筆の一部,所有権,60,-,6.5,200%,403.5,2025/4/14,-,-,現況渡し,アイエス宅建,053-434-6810,34.7679446,137.7674557
507,専属専任,売地,浜松市中央区積志町9-2,"1,054",浜松市中央区積志町9-2,所有権,60,-,9.01,200%,387,2025/3/24,-,-,更地渡し,アイエス宅建,053-434-6810,34.7679446,137.7674557
508,専任媒介,売地,浜松市中央区積志町１０５８,"1,200",浜松市中央区積志町１０５８,所有権,60,-,16.51,200%,240.35,2025/5/7,-,-,更地渡し,遠州鉄道(株)　高台店,053-437-1976,34.7659331,137.7661223
509,★売主,売地,浜松市中央区積志町1291-2 付近,"1,498",浜松市中央区積志町1291-2 付近,所有権,60,-,29.91,200%,165.61,2025/4/28,-,-,建築条件付,(株)ベスト・ハウジング,053-474-6252,34.7646176,137.7669765
510,専任媒介,売地,浜松市中央区積志町,"1,753",浜松市中央区積志町,所有権,60,用途地域,9.48,200%,611.63,2025/4/4,-,-,更地渡し,(有)大西屋,053-585-3401,34.7679446,137.7674557
511,専任媒介,売地,浜松市中央区積志町386,"1,965.74",浜松市中央区積志町386,所有権,60,-,30.01,200%,216.61,2025/2/25,-,-,現況渡し,アイエス宅建,053-434-6810,34.7705815,137.7683599
512,一般媒介,売地,浜松市中央区積志町766番外1筆,"1,966.56",浜松市中央区積志町766番外1筆,所有権,60,-,5.51,200%,-,2025/3/24,-,-,現況渡し,-,053-434-6810,34.7679446,137.7674557
513,専任媒介,売地,浜松市中央区早出町,"1,880",浜松市中央区早出町,所有権,60,-,35.49,200%,175.12,2025/4/25,-,-,更地渡し,(株)マストレ東営業所,053-462-5656,34.7333071,137.7501948
514,媒介,売地,浜松市中央区早出町1428-2,"2,190",浜松市中央区早出町1428-2,所有権,60,-,22.45,200%,322.5,2025/3/3,-,-,更地渡し,曳馬土地開発(株),053-463-2161,34.73163530000001,137.7499106
515,専任媒介,売地,浜松市中央区早出町711-7、711-8,"2,290",浜松市中央区早出町711-7、711-8,所有権,70,-,29.08,200%,260.37,2025/4/7,-,-,現況渡し,(株)ユートピア開発,053-464-1010,34.7337476,137.7498972
516,専任媒介,売地,浜松市中央区早出町１０４１－３,"2,500",浜松市中央区早出町１０４１－３,所有権,60,-,29.31,200%,282,2025/4/10,-,-,更地渡し,遠州鉄道(株)　事業用不動産流通グループ,053-488-8811,34.7330129,137.7461657
517,一般媒介,売地,浜松市中央区増楽町1756,300,浜松市中央区増楽町1756,所有権,60,-,4.75,200%,209,2025/4/23,-,-,現況渡し,クリエイト・ジャパン浜松西(株),053-447-7941,34.690987,137.6935198
518,一般媒介,売地,浜松市中央区増楽町,"1,480",浜松市中央区増楽町,所有権,60,-,18.9,200%,259,2025/4/22,-,-,現況渡し,(株)マストレ,053-448-5656,34.690987,137.6935198
519,-,売地,浜松市中央区高丘北３丁目103-22，103-23,"2,700",浜松市中央区高丘北３丁目103-22，103-23,所有権,60,-,27.3,200%,326.98,2025/4/28,-,-,現況渡し,ＨＥＬＬＯ　ＯＮＥ’Ｓ(株),053-436-6561,34.7649308,137.700293
520,★売主,売地,-,"2,087.25",バス34分 バス停 金田工業 停歩4分,所有権,60,工業地域,32.11,200%,214.9,2025/4/15,-,-,現況渡し,常盤工業(株),053-461-9144,,
521,★売主,売地,-,"2,087.25",バス34分 バス停 金田工業 停歩4分,所有権,60,工業地域,32.17,200%,214.51,2025/4/15,-,-,現況渡し,常盤工業(株),053-461-9144,,
522,一般媒介,売地,浜松市中央区高塚町,450,浜松市中央区高塚町,所有権,60,-,6.96,200%,214,2025/4/15,-,-,現況渡し,センチュリー21中央不動産浜松店,053-584-0021,34.6896781,137.6824383
523,専任媒介,売地,浜松市中央区高塚町4694番5、4694番6,"1,100",浜松市中央区高塚町4694番5、4694番6,所有権,70,-,21.08,200%,172.56,2025/5/8,-,-,現況渡し,(株)アモルテ,053-522-8885,34.6876868,137.6805389
524,媒介,売地,浜松市中央区高塚町1322,"1,400",浜松市中央区高塚町1322,所有権,60,工業地域,23.8,200%,194.48,2025/5/2,-,-,更地渡し,(株)アスティア,053-543-9988,34.6918413,137.67978
525,★売主,売地,-,"1,470",東海道本線 高塚 距離76 0 m,所有権,60,工業地域,37.5,200%,129.61,2025/3/31,-,-,建築条件付,遠州鉄道(株)　遠鉄ホーム　浜松住宅プラザ,053-473-5515,,
526,一般媒介,売地,浜松市中央区高塚町2164-1,"1,900",浜松市中央区高塚町2164-1,所有権,60,工業地域,43.4,200%,144.75,2025/4/8,-,-,更地渡し,(株)ＬＩＦＥＦＵＮＤ,053-488-8912,34.6911453,137.6768158
527,★売主,売地,-,"1,900",バス停 高塚駅 停歩8分,所有権,60,工業地域,43.59,200%,144.11,2025/3/25,-,-,相談,ケイアイスター不動産(株)　浜松営業所,053-489-6686,,
528,★売主,売地,-,"1,900",バス停 高塚駅 停歩8分,所有権,60,工業地域,43.59,200%,144.11,2025/3/25,-,-,相談,ケイアイスター不動産(株)　浜松営業所,053-489-6686,,
529,媒介,売地,浜松市中央区高塚町4667-4,"2,800",浜松市中央区高塚町4667-4,所有権,60,-,29.35,200%,315.46,2025/3/24,-,-,現況渡し,(株)丸玉,053-421-7360,34.6876464,137.6817362
530,一般媒介,売地,浜松市中央区高林１丁目,"3,977.10",浜松市中央区高林１丁目,所有権,70,用途地域,45.0,200%,292.18,2025/4/30,-,-,更地渡し,(株)マストレ　高林支店,053-472-5656,34.7257485,137.731091
531,★売主,売地,浜松市中央区高町107-8，106-8,500,浜松市中央区高町107-8，106-8,所有権,60,-,8.35,200%,198.11,2025/3/25,-,-,現況渡し,マルダイ(株),053-461-7400,34.7102788,137.7207426
532,専任媒介,売地,浜松市中央区田尻町,400,浜松市中央区田尻町,所有権,-,-,6.77,200%,195.38,2025/4/3,-,-,更地渡し,カワイ不動産(有),053-464-8873,34.6671652,137.7230818
533,一般媒介,売地,浜松市中央区田尻町,490,浜松市中央区田尻町,所有権,60,-,6.54,200%,248,2025/5/2,-,-,現況渡し,(株)マストレ,053-448-5656,34.6671652,137.7230818
534,媒介,売地,"浜松市中央区田尻町200,201,202","18,000","浜松市中央区田尻町200,201,202",所有権,60,-,18.95,200%,-,2025/5/8,-,-,更地渡し,-,053-476-3152,34.6791214,137.7239323
535,一般媒介,売地,浜松市中央区立野町,460,浜松市中央区立野町,所有権,60,-,6.7,200%,227,2025/5/2,-,-,現況渡し,あららぎ不動産(株),053-464-5557,34.6868933,137.774855
536,媒介,売地,浜松市中央区立野町358番内（南側）,462,浜松市中央区立野町358番内（南側）,所有権,60,-,5.99,200%,255,2025/5/8,-,-,現況渡し,とぴあ浜松農業協同組合不動産センター有玉店,053-476-3152,34.6868933,137.774855
537,媒介,売地,浜松市中央区立野町,517,浜松市中央区立野町,所有権,60,-,8.51,200%,201,2025/5/7,-,-,更地渡し,(株)山崎不動産,053-463-8713,34.6868933,137.774855
538,一般媒介,売地,浜松市中央区立野町１７６－１,517,浜松市中央区立野町１７６－１,所有権,60,-,8.5,200%,201.1,2025/4/10,-,-,現況渡し,遠州鉄道(株)　浜松店,053-471-0202,34.6868933,137.774855
539,一般媒介,売地,浜松市中央区立野町,520,浜松市中央区立野町,所有権,60,-,5.99,200%,287,2025/3/23,-,-,現況渡し,あららぎ不動産(株),053-464-5557,34.6868933,137.774855
540,媒介,売地,浜松市中央区立野町219番1内（西側）219番2内,627,浜松市中央区立野町219番1内（西側）219番2内,所有権,60,用途地域,5.0,200%,415,2025/5/8,-,-,現況渡し,とぴあ浜松農業協同組合不動産センター有玉店,053-476-3152,34.6851624,137.7737592
541,媒介,売地,浜松市中央区立野町３３６番一部,680,浜松市中央区立野町３３６番一部,所有権,60,-,5.36,200%,419.86,2025/3/13,-,-,現況渡し,とぴあ浜松農業協同組合不動産センター有玉店,053-476-3152,34.6868933,137.774855
542,一般媒介,売地,浜松市中央区立野町,696,浜松市中央区立野町,所有権,60,-,7.0,200%,329,2025/3/29,-,-,現況渡し,あららぎ不動産(株),053-464-5557,34.6868933,137.774855
543,媒介,売地,浜松市中央区立野町,696.64,浜松市中央区立野町,所有権,60,-,6.99,200%,329.49,2025/5/7,-,-,現況渡し,(株)山崎不動産,053-463-8713,34.6868933,137.774855
544,一般媒介,売地,浜松市中央区立野町43,861,浜松市中央区立野町43,所有権,60,-,7.38,200%,386,2025/5/7,-,-,現況渡し,(株)山崎不動産,053-463-8713,34.6868933,137.774855
545,一般媒介,売地,浜松市中央区立野町,880,浜松市中央区立野町,所有権,60,-,7.62,200%,381.96,2025/4/8,-,-,現況渡し,あららぎ不動産(株),053-464-5557,34.6868933,137.774855
546,★売主,売地,-,"1,030",バス停 立野 停歩6分,所有権,60,-,14.49,200%,235,2025/5/7,-,-,現況渡し,(株)山崎不動産,053-463-8713,,
547,媒介,売地,浜松市中央区立野町215-1,"1,100",浜松市中央区立野町215-1,所有権,60,-,7.33,200%,496.67,2025/4/4,-,-,更地渡し,とぴあ浜松農業協同組合不動産センター有玉店,053-476-3152,34.6856664,137.773795
548,一般媒介,売地,浜松市中央区立野町大門西２６０,"1,466.79",浜松市中央区立野町大門西２６０,所有権,70,-,13.0,200%,373,2025/4/6,-,-,現況渡し,(株)不動産のおかもと,053-443-2000,34.6868933,137.774855
549,専任媒介,売地,浜松市中央区田町227-2,"13,000",浜松市中央区田町227-2,所有権,80,商業地域,133.57,200%,321.75,2025/4/28,-,-,現況渡し,しずなび(株)　浜松東店,053-467-6700,34.7096372,137.7316141
550,媒介,売地,浜松市中央区堤町205の一部,570,浜松市中央区堤町205の一部,所有権,60,用途地域,6.96,200%,271,2025/4/24,-,-,現況渡し,とぴあ浜松農業協同組合不動産センター有玉店,053-476-3152,34.671512,137.7052194
551,専任媒介,売地,浜松市中央区坪井町,"1,290",浜松市中央区坪井町,所有権,60,-,16.73,200%,255,2025/3/23,-,-,更地渡し,あららぎ不動産(株),053-464-5557,34.6840832,137.6479775
552,専任媒介,売地,浜松市中央区鶴見町37-1,740,浜松市中央区鶴見町37-1,所有権,60,-,9.99,200%,245,2025/4/2,-,-,現況渡し,(株)東洋エージェンシー,053-421-0700,34.7134546,137.7891046
553,一般媒介,売地,浜松市中央区鶴見町,970.8,浜松市中央区鶴見町,所有権,60,-,10.0,200%,320.95,2025/4/12,-,-,相談,(株)マストレ,053-448-5656,34.7105948,137.7958252
554,★代理,売地,浜松市中央区鶴見町1647-7,"1,127",浜松市中央区鶴見町1647-7,所有権,60,-,18.49,200%,201.58,2025/4/22,-,-,建築条件付,林工住宅(株),053-463-0258,34.7067692,137.7892547
555,一般媒介,売地,浜松市中央区鶴見町,"1,459.20",浜松市中央区鶴見町,所有権,60,-,8.0,200%,603,2025/2/27,-,-,現況渡し,とぴあ浜松農業協同組合不動産センター有玉店,053-476-3152,34.7105948,137.7958252
556,媒介,売地,浜松市中央区寺島町378-17,"1,150",浜松市中央区寺島町378-17,所有権,80,-,54.66,200%,69.56,2025/4/24,-,-,更地渡し,(同)睦不動産,053-581-9623,34.7010782,137.7379223
557,媒介,売地,浜松市中央区寺脇町1585、1586,300,浜松市中央区寺脇町1585、1586,所有権,60,-,4.89,200%,203,2025/5/1,-,-,現況渡し,(株)Ｐａｄｄｌｅ,053-482-7733,34.6799213,137.7477294
558,専任媒介,売地,-,560,バス停 寺脇局 停歩8分,所有権,60,-,8.01,200%,231.31,2025/4/28,-,-,現況渡し,(株)ヤマセ不動産,053-474-2188,,
559,媒介,売地,浜松市中央区寺脇町1455-7,642,浜松市中央区寺脇町1455-7,所有権,70,-,21.97,200%,96.61,2025/5/2,-,-,現況渡し,(有)カミヤプランニングオフィス,053-453-5564,34.6781939,137.7518381
560,一般媒介,売地,浜松市中央区寺脇町,642,浜松市中央区寺脇町,所有権,60,用途地域,21.97,200%,96.61,2025/5/2,-,-,更地渡し,(株)マストレ企画営業所,053-401-3456,34.6799213,137.7477294
561,媒介,売地,浜松市中央区寺脇町1455-7,642,浜松市中央区寺脇町1455-7,所有権,60,-,21.97,200%,96.61,2025/3/12,-,-,更地渡し,(株)プラス,053-478-5511,34.6781939,137.7518381
562,媒介,売地,浜松市中央区寺脇町1527,680,浜松市中央区寺脇町1527,所有権,60,-,6.99,200%,322,2025/5/7,-,-,現況渡し,(株)旭ビジョン,053-458-1355,34.6799213,137.7477294
563,媒介,売地,浜松市中央区寺脇町331-2,990,浜松市中央区寺脇町331-2,所有権,60,-,22.48,200%,145.61,2025/5/2,-,-,更地渡し,(株)アスティア,053-543-9988,34.682643,137.7440508
564,一般媒介,売地,浜松市中央区寺脇町945,"1,100",浜松市中央区寺脇町945,所有権,60,-,21.52,200%,169,2025/5/1,-,-,更地渡し,(株)Ｐａｄｄｌｅ,053-482-7733,34.6794144,137.749068
565,一般媒介,売地,浜松市中央区寺脇町1342,"1,800",浜松市中央区寺脇町1342,所有権,60,-,6.01,200%,991,2025/4/15,-,-,現況渡し,(株)Ｐａｄｄｌｅ,053-482-7733,34.6799213,137.7477294
566,専任媒介,売地,浜松市中央区天神町12-1,750,浜松市中央区天神町12-1,所有権,70,-,32.93,200%,75.31,2025/4/8,-,-,現況渡し,(有)西遠土地建物センター,053-587-7255,34.7110842,137.7516938
567,媒介,売地,浜松市中央区天王町309番5,369.05,浜松市中央区天王町309番5,所有権,60,-,5.01,200%,244,2025/4/7,-,-,現況渡し,とぴあ浜松農業協同組合不動産センター有玉店,053-476-3152,34.7365309,137.7711552
568,媒介,売地,浜松市中央区天王町522-2,450,浜松市中央区天王町522-2,所有権,-,-,4.43,200%,335.88,2025/4/22,-,-,相談,(株)にわとり不動産,053-569-1122,34.7365309,137.7711552
569,媒介,売地,浜松市中央区天王町551,632.22,浜松市中央区天王町551,所有権,-,-,2.0,200%,-,2025/4/19,-,-,現況渡し,-,053-433-4451,34.7365309,137.7711552
570,専任媒介,売地,-,703.3,バス停 与進小 停歩5分,所有権,60,用途地域,5.0,200%,465,2025/4/17,-,-,現況渡し,上島不動産(株),053-473-5000,,
571,媒介,売地,-,755,バス20分 バス停 天王 距離500m,所有権,60,-,7.5,200%,332.96,2025/3/21,-,-,現況渡し,(株)大亜住建,053-436-9115,,
572,専任媒介,売地,浜松市中央区天王町２４番１,"1,220",浜松市中央区天王町２４番１,所有権,60,-,15.96,200%,252.84,2025/4/28,-,-,現況渡し,遠州鉄道(株)　浜北店,053-581-1124,34.7365309,137.7711552
573,媒介,売地,浜松市中央区天王町1810、1811-2,"1,360",浜松市中央区天王町1810、1811-2,所有権,60,-,5.01,200%,899,2025/4/30,-,-,現況渡し,(株)村こし,053-423-2220,34.7365309,137.7711552
574,専任媒介,売地,浜松市中央区天王町１２０１番１,"1,450",浜松市中央区天王町１２０１番１,所有権,60,-,43.94,200%,109.1,2025/5/3,-,-,相談,遠州鉄道(株)　浜松店,053-471-0202,34.7363211,137.7717929
575,媒介,売地,"浜松市中央区天王町836-1,836-2","1,700","浜松市中央区天王町836-1,836-2",所有権,60,-,28.97,200%,194,2025/2/26,-,-,更地渡し,(株)不動産Ｌａｂｏ．,0538-33-6118,34.6710191,137.7979203
576,一般媒介,売地,浜松市中央区天王町734-1,"4,295.20",浜松市中央区天王町734-1,所有権,60,-,35.0,200%,405.71,2025/5/2,-,-,現況渡し,(株)Ｐａｄｄｌｅ,053-482-7733,34.7365309,137.7711552
577,専任媒介,売地,浜松市中央区天王町1830,"6,968",浜松市中央区天王町1830,所有権,60,-,8.0,200%,-,2025/4/17,-,-,現況渡し,-,053-473-5000,34.7365309,137.7711552
578,-,売地,浜松市中央区天龍川町８２４－１,"1,480",浜松市中央区天龍川町８２４－１,所有権,60,-,8.69,200%,563.12,2025/4/25,-,-,相談,遠州鉄道(株)　買取再生グループ,053-488-8807,34.7235289,137.7794628
579,一般媒介,売地,浜松市中央区富塚町２０２－１９,600,浜松市中央区富塚町２０２－１９,所有権,60,-,13.72,200%,144.67,2025/4/9,-,-,更地渡し,(株)アライブ　企画営業部,053-476-7112,34.7202296,137.7110484
580,★売主,売地,浜松市中央区富塚町,700,浜松市中央区富塚町,所有権,50,用途地域,8.98,200%,257.86,2025/4/11,-,-,現況渡し,(株)ＡＦＣスマイルプラス　Ｓｍｉｆｅ浜松西支店,053-449-7111,34.7232056,137.6988992
581,専任媒介,売地,浜松市中央区富塚町,900,浜松市中央区富塚町,所有権,60,-,19.11,200%,155.7,2025/4/8,-,-,更地渡し,あららぎ不動産(株),053-464-5557,34.7232056,137.6988992
582,一般媒介,売地,浜松市中央区富塚町７７０－７６,930,浜松市中央区富塚町７７０－７６,所有権,50,-,13.34,200%,230.47,2025/5/4,-,-,現況渡し,(株)アライブ　企画営業部,053-476-7112,34.7256255,137.7082773
583,専任媒介,売地,浜松市中央区富塚町２２１－８　他,999,浜松市中央区富塚町２２１－８　他,所有権,50,-,17.48,200%,189,2025/4/15,-,-,更地渡し,遠州鉄道(株)　広沢プラザ,053-456-0055,34.7202087,137.7070381
584,媒介,売地,浜松市中央区富塚町,"1,270",浜松市中央区富塚町,所有権,50,-,15.51,200%,270.8,2025/3/4,-,-,現況渡し,(有)カミヤプランニングオフィス,053-453-5564,34.7232056,137.6988992
585,媒介,売地,浜松市中央区富塚町919-260,"1,390",浜松市中央区富塚町919-260,所有権,50,-,21.05,200%,218.3,2025/4/5,-,-,更地渡し,(株)大亜住建,053-436-9115,34.7254834,137.7114868
586,専任媒介,売地,浜松市中央区富塚町１６１８－１２３,"1,580",浜松市中央区富塚町１６１８－１２３,所有権,50,-,16.53,200%,316.16,2025/4/25,-,-,更地渡し,遠州鉄道(株)　浜松店,053-471-0202,34.7308,137.7043534
587,媒介,売地,浜松市中央区富塚町2575,"1,594",浜松市中央区富塚町2575,所有権,40,-,25.99,200%,202.78,2025/3/12,-,-,相談,(株)プラス,053-478-5511,34.7232056,137.6988992
588,★売主,売地,浜松市中央区富塚町1177-20 付近,"1,598",浜松市中央区富塚町1177-20 付近,所有権,50,-,36.0,200%,146.75,2025/4/28,-,-,建築条件付,(株)ベスト・ハウジング,053-474-6252,34.7295337,137.712078
589,媒介,売地,浜松市中央区富塚町2961-17,"1,620",浜松市中央区富塚町2961-17,所有権,60,-,27.69,200%,193.42,2025/5/2,-,-,更地渡し,(株)アスティア,053-543-9988,34.7262083,137.6937093
590,★売主,売地,浜松市中央区富塚町1299-41付近,"1,698",浜松市中央区富塚町1299-41付近,所有権,50,用途地域,31.2,200%,179.92,2025/4/28,-,-,建築条件付,(株)ベスト・ハウジング,053-474-6252,34.7287745,137.7063549
591,★一般媒介,売地,浜松市中央区富塚町２６－１,"1,732.36",浜松市中央区富塚町２６－１,所有権,50,-,28.0,200%,204.54,2025/4/27,-,-,現況渡し,(株)アライブ　企画営業部,053-476-7112,34.7232056,137.6988992
592,一般媒介,売地,浜松市中央区富塚町,"1,732.36",浜松市中央区富塚町,所有権,50,-,28.0,200%,204.54,2025/4/18,-,-,現況渡し,(株)マストレ,053-448-5656,34.7232056,137.6988992
593,★売主,売地,浜松市中央区富塚町1671-4 付近,"1,798",浜松市中央区富塚町1671-4 付近,所有権,50,-,32.6,200%,182.38,2025/4/28,-,-,建築条件付,(株)ベスト・ハウジング,053-474-6252,34.7293732,137.7030885
594,一般媒介,売地,浜松市中央区富塚町,"1,800",浜松市中央区富塚町,所有権,40,-,15.49,200%,384.29,2025/5/5,-,-,相談,(株)マストレ　高林支店,053-472-5656,34.7232056,137.6988992
595,媒介,売地,浜松市中央区富塚町,"1,800",浜松市中央区富塚町,所有権,50,-,31.98,200%,186.12,2025/5/2,-,-,現況渡し,(有)カミヤプランニングオフィス,053-453-5564,34.7232056,137.6988992
596,媒介,売地,浜松市中央区富塚町1749,"1,800",浜松市中央区富塚町1749,所有権,50,-,31.98,200%,186.12,2025/3/12,-,-,現況渡し,(株)プラス,053-478-5511,34.7232056,137.6988992
597,一般媒介,売地,浜松市中央区富塚町3780-166,"1,805.90",浜松市中央区富塚町3780-166,所有権,50,-,10.0,200%,597,2025/5/7,-,-,現況渡し,冨士物産(株)　浜松店,053-411-2223,34.7303722,137.6887189
598,一般媒介,売地,浜松市中央区富塚町2132-187,"1,900",浜松市中央区富塚町2132-187,所有権,60,-,21.69,200%,289.61,2025/5/7,-,-,更地渡し,浜松損害保険サービス(株),053-459-4180,34.7287019,137.6929278
599,一般媒介,売地,浜松市中央区富塚町,"1,970",浜松市中央区富塚町,所有権,50,-,25.98,200%,250.68,2025/3/10,-,-,現況渡し,あららぎ不動産(株),053-464-5557,34.7232056,137.6988992
600,一般媒介,売地,浜松市中央区富塚町,"1,980",浜松市中央区富塚町,所有権,50,用途地域,33.14,200%,197.56,2025/2/28,-,-,更地渡し,あららぎ不動産(株),053-464-5557,34.7232056,137.6988992
601,媒介,売地,浜松市中央区富塚町,"1,990",浜松市中央区富塚町,所有権,50,-,18.66,200%,144.23,2025/4/25,-,-,現況渡し,2月5日,053-488-8912,34.7232056,137.6988992
602,専任媒介,売地,浜松市中央区富塚町2236-1,"1,990",浜松市中央区富塚町2236-1,所有権,50,-,18.66,200%,144.23,2025/4/15,-,-,現況渡し,2月5日,053-414-2100,34.7229588,137.696136
603,★売主,売地,-,"2,031",バス31分 バス停 弥生団地 停歩7分,所有権,50,-,31.5,200%,213.17,2025/4/22,-,-,建築条件付,林工住宅(株),053-463-0258,,
604,媒介,売地,浜松市中央区富塚町字古平2647,"2,135",浜松市中央区富塚町字古平2647,所有権,30,-,7.01,200%,-,2025/4/28,-,-,相談,-,053-437-7330,34.7232056,137.6988992
605,一般媒介,売地,浜松市中央区富塚町2132-151,"2,237.60",浜松市中央区富塚町2132-151,所有権,60,-,27.0,200%,274.01,2025/4/30,-,-,更地渡し,(有)天商,053-436-6708,34.7287019,137.6929278
606,媒介,売地,浜松市中央区富塚町２１３２－１５１外,"2,237.60",浜松市中央区富塚町２１３２－１５１外,所有権,60,-,27.0,200%,274.01,2025/2/26,-,-,相談,(有)天商,053-436-6708,34.7287019,137.6929278
607,一般媒介,売地,浜松市中央区富塚町3013番9,"2,280",浜松市中央区富塚町3013番9,所有権,40,-,21.18,200%,356,2025/3/3,-,-,現況渡し,冨士物産(株)　浜松店,053-411-2223,34.7289864,137.6928038
608,一般媒介,売地,浜松市中央区富塚町3012-3、3012-4,"2,350",浜松市中央区富塚町3012-3、3012-4,所有権,40,-,22.72,200%,342,2025/3/3,-,-,現況渡し,冨士物産(株)　浜松店,053-411-2223,34.7292723,137.6931172
609,媒介,売地,浜松市中央区富塚町１５６３－７,"2,380",浜松市中央区富塚町１５６３－７,所有権,60,-,37.24,200%,211.31,2025/2/25,-,-,現況渡し,(株)インフィルプラス,053-440-0445,34.7332737,137.712132
610,媒介,売地,浜松市中央区富塚町3003番31,"2,400",浜松市中央区富塚町3003番31,所有権,60,用途地域,39.67,200%,200,2025/2/9,-,-,更地渡し,(株)ニイノプラン　第一支店,053-401-2105,34.7296219,137.6909117
611,媒介,売地,浜松市中央区富塚町3412-3,"2,460",浜松市中央区富塚町3412-3,所有権,60,-,25.0,200%,325.31,2025/3/12,-,-,相談,(株)プラス,053-478-5511,34.7277064,137.7010912
612,一般媒介,売地,浜松市中央区富塚町3412-3,"2,460",浜松市中央区富塚町3412-3,所有権,30,-,25.0,200%,325.31,2025/3/3,-,-,相談,(有)カミヤプランニングオフィス,053-453-5564,34.7277064,137.7010912
613,専任媒介,売地,浜松市中央区富塚町,"2,500",浜松市中央区富塚町,所有権,40,-,36.24,200%,228.11,2025/3/27,-,-,更地渡し,(株)豊栄不動産,053-450-5011,34.7232056,137.6988992
614,専任媒介,売地,浜松市中央区富塚町５３４－１３,"2,500",浜松市中央区富塚町５３４－１３,所有権,40,-,36.24,200%,228.11,2025/2/27,-,-,更地渡し,(株)豊栄不動産,053-450-5011,34.7252739,137.7070303
615,一般媒介,売地,浜松市中央区富塚町1220-52/1220-68,"2,650",浜松市中央区富塚町1220-52/1220-68,所有権,50,-,33.63,200%,260.54,2025/5/8,-,-,現況渡し,(株)丸八アセットマネージメント　売買資産活用部 053-450-8008,053-450-8008,34.7232056,137.6988992
616,媒介,売地,-,"2,650",バス停 長坂橋 停歩5分,所有権,50,-,33.63,200%,260.54,2025/4/5,-,-,現況渡し,上島不動産(株),053-473-5000,,
617,専任媒介,売地,浜松市中央区富塚町２１３２－１７５,"2,700",浜松市中央区富塚町２１３２－１７５,所有権,50,-,31.55,200%,282.99,2025/4/20,-,-,更地渡し,遠州鉄道(株)　広沢プラザ,053-456-0055,34.7287346,137.6942636
618,媒介,売地,浜松市中央区富塚町４４００－１他,"2,830",浜松市中央区富塚町４４００－１他,所有権,30,-,35.01,200%,267.23,2025/2/25,-,-,更地渡し,(株)インフィルプラス,053-440-0445,34.715985,137.6981436
619,専任媒介,売地,浜松市中央区富塚町,"3,500",浜松市中央区富塚町,所有権,50,-,37.94,200%,305,2025/3/22,-,-,更地渡し,(株)ニイノプラン　第一支店,053-401-2105,34.7232056,137.6988992
620,専任媒介,売地,浜松市中央区富塚町１１５０－１７,"3,700",浜松市中央区富塚町１１５０－１７,所有権,50,用途地域,25.03,200%,488.71,2025/4/22,-,-,更地渡し,(株)アライブ　企画営業部,053-476-7112,34.7300826,137.7128038
621,一般媒介,売地,浜松市中央区富塚町,"3,789.30",浜松市中央区富塚町,所有権,30,-,34.0,200%,368.46,2025/4/25,-,-,現況渡し,(株)マストレ企画営業所,053-401-3456,34.7232056,137.6988992
622,一般媒介,売地,浜松市中央区富塚町3500-3,"3,789.30",浜松市中央区富塚町3500-3,所有権,30,-,34.0,200%,368.46,2025/3/4,-,-,現況渡し,ゼロ(株),053-482-8777,34.7232056,137.6988992
623,一般媒介,売地,浜松市中央区富塚町4681-9他,"6,500",浜松市中央区富塚町4681-9他,所有権,30,-,49.41,200%,434.94,2025/2/20,-,-,現況渡し,(有)アイ・プラン,053-451-4656,34.7195443,137.7006771
624,専属専任,売地,浜松市中央区豊岡町,700,浜松市中央区豊岡町,所有権,60,-,8.03,200%,288.26,2025/4/16,-,-,相談,(有)ホームズ,053-455-2223,34.7898112,137.7280104
625,専属専任,売地,浜松市中央区豊岡町２７－２６,700,浜松市中央区豊岡町２７－２６,所有権,60,-,8.03,200%,288.26,2025/3/5,-,-,更地渡し,(有)ホームズ,053-455-2223,34.787516,137.722872
626,専任媒介,売地,浜松市中央区豊岡町１０７,"3,500",浜松市中央区豊岡町１０７,所有権,60,-,4.95,200%,-,2025/4/28,-,-,現況渡し,-,053-581-1124,34.7898112,137.7280104
627,媒介,売地,浜松市中央区豊西町520,665.5,浜松市中央区豊西町520,所有権,-,-,5.01,200%,440,2025/3/18,-,-,現況渡し,(株)竹林不動産,053-433-4451,34.759947,137.8155695
628,媒介,売地,浜松市中央区豊西町1059-1・1059-2,"2,000",浜松市中央区豊西町1059-1・1059-2,所有権,60,-,5.0,200%,-,2025/3/3,-,-,現況渡し,-,053-413-2625,34.759947,137.8155695
629,専任媒介,売地,浜松市中央区中郡町1213-1,340,浜松市中央区中郡町1213-1,所有権,60,-,3.17,200%,355,2025/3/6,-,-,現況渡し,アイエス宅建,053-434-6810,34.772575,137.7810219
630,媒介,売地,浜松市中央区中郡町1423-1,390,浜松市中央区中郡町1423-1,所有権,60,用途地域,2.72,200%,474,2025/2/18,-,-,現況渡し,(株)エステート・パートナー,053-443-8856,34.772575,137.7810219
631,専任媒介,売地,浜松市中央区中郡町1945の一部,406.86,浜松市中央区中郡町1945の一部,所有権,60,-,5.0,200%,269,2025/4/22,-,-,現況渡し,アイエス宅建,053-434-6810,34.772575,137.7810219
632,★売主,売地,-,430,遠州鉄道 遠州西ヶ崎 徒歩11分,所有権,60,-,5.23,200%,272,2025/2/24,-,-,建築条件付,(株)セイケンハウス工業,053-597-1011,,
633,一般媒介,売地,浜松市中央区中郡町1495番3の一部,461.63,浜松市中央区中郡町1495番3の一部,所有権,60,-,7.5,200%,203.5,2025/4/28,-,-,現況渡し,アイエス宅建,053-434-6810,34.7733024,137.7808634
634,媒介,売地,浜松市中央区中郡町１４９５番３内（北側）,492,浜松市中央区中郡町１４９５番３内（北側）,所有権,60,-,8.0,200%,203.34,2025/2/27,-,-,相談,とぴあ浜松農業協同組合不動産センター有玉店,053-476-3152,34.7733024,137.7808634
635,専任媒介,売地,浜松市中央区中郡町38番の一部,576,浜松市中央区中郡町38番の一部,所有権,60,-,6.62,200%,288,2025/3/24,-,-,現況渡し,アイエス宅建,053-434-6810,34.772575,137.7810219
636,一般媒介,売地,-,580,遠州鉄道 遠州西ヶ崎 徒歩10 分,所有権,60,-,5.4,200%,355.55,2025/5/5,-,-,現況渡し,(株)アランアール,053-488-5590,,
637,媒介,売地,浜松市中央区中郡町１９３０,583.2,浜松市中央区中郡町１９３０,所有権,60,-,8.0,200%,241,2025/2/27,-,-,現況渡し,とぴあ浜松農業協同組合不動産センター有玉店,053-476-3152,34.772575,137.7810219
638,-,売地,-,650,遠州鉄道 遠州西ヶ崎 徒歩11分,所有権,60,-,5.81,200%,370,2025/3/31,-,-,建築条件付,(株)セイケンハウス工業,053-597-1011,,
639,一般媒介,売地,浜松市中央区中郡町1699番,680,浜松市中央区中郡町1699番,所有権,60,-,3.32,200%,678,2025/3/4,-,-,現況渡し,浜日商事(株),053-545-5488,34.772575,137.7810219
640,専任媒介,売地,浜松市中央区中郡町1396-1の一部,723.52,浜松市中央区中郡町1396-1の一部,所有権,60,用途地域,8.0,200%,298.98,2025/4/22,-,-,現況渡し,アイエス宅建,053-434-6810,34.772575,137.7810219
641,-,売地,浜松市中央区中郡町1921-1　の一部,750,浜松市中央区中郡町1921-1　の一部,所有権,60,-,5.45,200%,455,2025/3/8,-,-,相談,(株)ｉｎｓｔ．,053-555-1321,34.772575,137.7810219
642,-,売地,浜松市中央区中郡町1921-1　の一部、1921-2,750,浜松市中央区中郡町1921-1　の一部、1921-2,所有権,60,-,4.6,200%,539,2025/3/8,-,-,相談,(株)ｉｎｓｔ．,053-555-1321,34.772575,137.7810219
643,★売主,売地,-,770,遠州鉄道 遠州西ヶ崎 徒歩11分,所有権,70,-,10.04,200%,253.75,2025/4/17,-,-,現況渡し,(株)セイケンハウス工業,053-597-1011,,
644,一般媒介,売地,浜松市中央区中郡町,780,浜松市中央区中郡町,所有権,60,-,9.05,200%,285.2,2025/4/28,-,-,現況渡し,(株)マストレ,053-448-5656,34.772575,137.7810219
645,一般媒介,売地,-,800,遠州鉄道 遠州西ヶ崎 徒歩10 分,所有権,60,-,9.04,200%,292.83,2025/5/5,-,-,相談,(株)アランアール,053-488-5590,,
646,一般媒介,売地,浜松市中央区中郡町,847,浜松市中央区中郡町,所有権,60,-,10.01,200%,280,2025/5/4,-,-,更地渡し,(株)マストレ　高林支店,053-472-5656,34.772575,137.7810219
647,媒介,売地,浜松市中央区中郡町273番内、276番内,857,浜松市中央区中郡町273番内、276番内,所有権,60,-,7.5,200%,378,2025/2/27,-,-,現況渡し,とぴあ浜松農業協同組合不動産センター有玉店,053-476-3152,34.772575,137.7810219
648,★売主,売地,浜松市中央区中郡町31-3,865,浜松市中央区中郡町31-3,所有権,60,-,5.82,200%,491.48,2025/5/2,-,-,現況渡し,(有)ステップワーク,053-420-0666,34.772575,137.7810219
649,専任媒介,売地,-,938,遠州鉄道 遠州西ヶ崎 徒歩11分,所有権,60,-,9.61,200%,322.82,2025/3/25,-,-,現況渡し,アースデイ不動産,053-441-2103,,
650,一般媒介,売地,浜松市中央区中郡町,"1,150",浜松市中央区中郡町,所有権,60,用途地域,7.61,200%,499.99,2025/5/5,-,-,現況渡し,(株)マストレ　高林支店,053-472-5656,34.772575,137.7810219
651,一般媒介,売地,浜松市中央区中郡町1991-3,"1,250",浜松市中央区中郡町1991-3,所有権,60,-,11.02,200%,375,2025/4/28,-,-,現況渡し,とぴあ浜松農業協同組合不動産センター有玉店,053-476-3152,34.7692382,137.7796134
652,媒介,売地,浜松市中央区中里町1014番1,777.4,浜松市中央区中里町1014番1,所有権,60,-,10.0,200%,257,2025/5/1,-,-,現況渡し,とぴあ浜松農業協同組合不動産センター有玉店,053-476-3152,34.7372952,137.797059
653,専任媒介,売地,浜松市中央区中里町９５４－１,860,浜松市中央区中里町９５４－１,所有権,60,-,9.81,200%,290,2025/4/25,-,-,現況渡し,遠州鉄道(株)　浜北店,053-581-1124,34.7372952,137.797059
654,一般媒介,売地,浜松市中央区中里町721,"1,125",浜松市中央区中里町721,所有権,60,-,10.0,200%,372,2025/5/1,-,-,現況渡し,ＳＭＤ不動産(株),053-401-4235,34.7372952,137.797059
655,★売主,売地,浜松市中央区中沢町364番70,840,浜松市中央区中沢町364番70,所有権,60,-,25.26,200%,109.95,2025/3/4,-,-,建築条件付,浜松太陽住宅(株),053-437-6030,34.7203681,137.7304748
656,専任媒介,売地,浜松市中央区中沢町76-23,990,浜松市中央区中沢町76-23,所有権,80,-,15.2,200%,215.43,2025/5/3,-,-,現況渡し,しずなび(株)　藤枝店,054-639-9816,34.721954,137.7319214
657,-,売地,浜松市中央区中沢町68‐16,"3,234",浜松市中央区中沢町68‐16,所有権,80,商業地域,42.02,200%,254.47,2025/4/14,-,-,現況渡し,都市開発(株),053-488-6868,34.7211933,137.7323207
658,専任媒介,売地,浜松市中央区中島１丁目,480,浜松市中央区中島１丁目,所有権,80,-,28.87,200%,54.97,2025/5/2,-,-,相談,あららぎ不動産(株),053-464-5557,34.7047384,137.7458804
659,一般媒介,売地,浜松市中央区中島１丁目,750,浜松市中央区中島１丁目,所有権,80,-,35.72,200%,69.42,2025/3/23,-,-,更地渡し,西村建設(株),0533-66-3221,34.7047384,137.7458804
660,一般媒介,売地,浜松市中央区中島２丁目,"1,400",浜松市中央区中島２丁目,所有権,60,用途地域,22.25,200%,208.04,2025/4/21,-,-,更地渡し,あららぎ不動産(株),053-464-5557,34.7018492,137.747113
661,一般媒介,売地,浜松市中央区中島２丁目928-2,"1,400",浜松市中央区中島２丁目928-2,所有権,60,-,22.25,200%,208.04,2025/4/11,-,-,更地渡し,しずなび(株)　浜松東店,053-467-6700,34.7018492,137.747113
662,★売主,売地,浜松市中央区中島２丁目12-12,"1,755",浜松市中央区中島２丁目12-12,所有権,60,-,39.08,200%,148.49,2025/3/16,-,-,更地渡し,(株)スズキビジネス,053-451-3900,34.7001652,137.7476603
663,媒介,売地,浜松市中央区中島２丁目1-2,"2,220",浜松市中央区中島２丁目1-2,所有権,60,-,38.95,200%,188.42,2025/5/2,-,-,更地渡し,(株)アスティア,053-543-9988,34.7032901,137.7453494
664,一般媒介,売地,浜松市中央区中島３丁目23-6,"2,300",浜松市中央区中島３丁目23-6,所有権,60,-,33.84,200%,224.72,2025/4/3,-,-,更地渡し,西村建設(株),0533-66-3221,34.6990795,137.7488273
665,専任媒介,売地,浜松市中央区中島４丁目２０１,"1,118.04",浜松市中央区中島４丁目２０１,所有権,70,-,33.01,200%,112,2025/4/21,-,-,現況渡し,遠州鉄道(株)　事業用不動産流通グループ,053-488-8811,34.6965755,137.7474212
666,-,売地,浜松市中央区中島４丁目23-8,"2,964",浜松市中央区中島４丁目23-8,所有権,60,-,33.0,200%,296.98,2025/3/12,-,-,相談,(株)プラス,053-478-5511,34.6952792,137.7495492
667,媒介,売地,浜松市中央区中田島町868-1,60,浜松市中央区中田島町868-1,所有権,-,-,1.0,200%,199,2025/3/12,-,-,相談,(株)プラス,053-478-5511,34.6647823,137.7415664
668,媒介,売地,浜松市中央区中田島町820,229,浜松市中央区中田島町820,所有権,-,-,1.01,200%,756,2025/3/12,-,-,相談,(株)プラス,053-478-5511,34.6647823,137.7415664
669,媒介,売地,浜松市中央区中田島町851,261,浜松市中央区中田島町851,所有権,-,-,1.0,200%,863,2025/3/12,-,-,相談,(株)プラス,053-478-5511,34.6647823,137.7415664
670,一般媒介,売地,浜松市中央区中田島町１３８９,600,浜松市中央区中田島町１３８９,所有権,60,用途地域,7.94,200%,250,2025/5/1,-,-,現況渡し,サーラ不動産(株)　浜松仲介チーム,053-464-6105,34.6647823,137.7415664
671,媒介,売地,浜松市中央区中田島町854,743,浜松市中央区中田島町854,所有権,-,-,1.01,200%,-,2025/3/12,-,-,相談,-,053-478-5511,34.6647823,137.7415664
672,専任媒介,売地,浜松市中央区中田島町,"1,000",浜松市中央区中田島町,所有権,60,-,13.23,200%,250,2025/4/4,-,-,現況渡し,とぴあ浜松農業協同組合不動産センター有玉店,053-476-3152,34.6647823,137.7415664
673,専任媒介,売地,浜松市中央区中田島町,"1,200",浜松市中央区中田島町,所有権,60,-,11.92,200%,333.05,2025/5/1,-,-,更地渡し,(株)マストレ,053-448-5656,34.6647823,137.7415664
674,一般媒介,売地,浜松市中央区中田島町6-1,"1,689",浜松市中央区中田島町6-1,所有権,60,-,7.0,200%,798,2025/5/1,-,-,現況渡し,ＳＭＤ不動産(株),053-401-4235,34.6647823,137.7415664
675,一般媒介,売地,浜松市中央区中田町364-1,580,浜松市中央区中田町364-1,所有権,60,-,9.99,200%,192,2025/3/24,-,-,現況渡し,(有)オカベ,053-545-7062,34.7364528,137.7575916
676,一般媒介,売地,浜松市中央区中田町,"2,150",浜松市中央区中田町,所有権,60,-,7.95,200%,895,2025/5/7,-,-,現況渡し,浜松損害保険サービス(株),053-459-4180,34.7364528,137.7575916
677,一般媒介,売地,浜松市中央区中田町284-2・284-1・283,"3,466.60",浜松市中央区中田町284-2・284-1・283,所有権,60,-,10.0,200%,-,2025/5/8,-,-,更地渡し,-,053-476-3152,34.7364528,137.7575916
678,一般媒介,売地,浜松市中央区中田町288-1,"4,410",浜松市中央区中田町288-1,所有権,60,-,10.0,200%,-,2025/3/24,-,-,現況渡し,-,053-545-7062,34.7364528,137.7575916
679,一般媒介,売地,浜松市中央区長田町,300,浜松市中央区長田町,所有権,60,-,2.09,200%,475,2025/5/8,-,-,相談,あららぎ不動産(株),053-464-5557,34.6694186,137.7779383
680,媒介,売地,浜松市中央区長鶴町70-10,600,浜松市中央区長鶴町70-10,所有権,60,工業地域,19.0,200%,104.4,2025/5/2,-,-,現況渡し,(株)丸玉,053-421-7360,34.714334,137.7786032
681,一般媒介,売地,浜松市中央区中野町3054番1,600,浜松市中央区中野町3054番1,所有権,60,-,5.82,200%,341,2025/5/1,-,-,現況渡し,センチュリー21中央不動産磐田店,0538-39-0500,34.7390533,137.8013408
682,一般媒介,売地,浜松市中央区中野町3054番1,600,浜松市中央区中野町3054番1,所有権,60,-,5.82,200%,341,2025/5/1,-,-,現況渡し,センチュリー21中央不動産浜松店,053-584-0021,34.7390533,137.8013408
683,専任媒介,売地,浜松市中央区中野町２３４６番、２３６１番,"1,600",浜松市中央区中野町２３４６番、２３６１番,所有権,60,-,3.49,200%,-,2025/3/14,-,-,現況渡し,-,053-581-9801,34.7375483,137.8056964
684,-,売地,-,"1,060",バス停 遠鉄バス　名塚西 停歩2分,所有権,60,-,29.89,200%,117.24,2025/4/14,-,-,建築条件付,なごみ住宅(株),053-415-9370,,
685,-,売地,-,"1,360",バス停 遠鉄バス　名塚西 停歩2分,所有権,60,-,36.13,200%,124.45,2025/4/14,-,-,建築条件付,なごみ住宅(株),053-415-9370,,
686,-,売地,-,"1,410",バス停 遠鉄バス　名塚西 停歩2分,所有権,60,-,37.04,200%,125.86,2025/4/14,-,-,建築条件付,なごみ住宅(株),053-415-9370,,
687,専属専任,売地,浜松市中央区名塚町154-1，154-2,"1,900",浜松市中央区名塚町154-1，154-2,所有権,80,-,25.05,200%,250.77,2025/4/19,-,-,現況渡し,川井建設(株),053-461-9491,34.7021665,137.755569
688,媒介,売地,浜松市中央区西伊場町2392-1,"1,600",浜松市中央区西伊場町2392-1,所有権,60,-,42.4,200%,124.76,2025/4/19,-,-,相談,(株)ニイノプラン,053-485-7700,34.700781,137.7058353
689,一般媒介,売地,浜松市中央区西伊場町,"6,281",浜松市中央区西伊場町,所有権,60,-,45.0,200%,461.46,2025/4/24,-,-,相談,(株)マストレ　高林支店,053-472-5656,34.700781,137.7058353
690,一般媒介,売地,浜松市中央区西丘町,625,浜松市中央区西丘町,所有権,60,用途地域,4.98,200%,415,2025/5/7,-,-,更地渡し,浜松損害保険サービス(株),053-459-4180,34.7711782,137.6922884
691,専任媒介,売地,浜松市中央区西丘町７８３,"2,200",浜松市中央区西丘町７８３,所有権,60,-,7.92,200%,919,2025/4/21,-,-,相談,遠州鉄道(株)　高台店,053-437-1976,34.7711782,137.6922884
692,媒介,売地,浜松市中央区西丘町376,"7,422",浜松市中央区西丘町376,所有権,60,-,6.0,200%,-,2025/2/15,-,-,建築条件付,-,053-424-5000,34.7711782,137.6922884
693,一般媒介,売地,浜松市中央区西ケ崎町３４４‐１,400,浜松市中央区西ケ崎町３４４‐１,所有権,60,-,4.1,200%,323,2025/4/28,-,-,更地渡し,遠州鉄道(株)　浜北店,053-581-1124,34.7747678,137.7674557
694,媒介,売地,浜松市中央区西ケ崎町344-1,400,浜松市中央区西ケ崎町344-1,所有権,60,-,4.1,200%,323,2025/3/4,-,-,現況渡し,(株)アスティア,053-543-9988,34.7747678,137.7674557
695,媒介,売地,浜松市中央区西ケ崎町1022外2筆,514.6,浜松市中央区西ケ崎町1022外2筆,所有権,60,-,5.07,200%,336,2025/4/30,-,-,更地渡し,(有)天商,053-436-6708,34.7747678,137.7674557
696,媒介,売地,"浜松市中央区西ケ崎町1020-3,1021-3外2筆",577.7,"浜松市中央区西ケ崎町1020-3,1021-3外2筆",所有権,60,-,5.0,200%,382,2025/4/30,-,-,更地渡し,(有)天商,053-436-6708,34.7747678,137.7674557
697,媒介,売地,浜松市中央区西ケ崎町370番内,668,浜松市中央区西ケ崎町370番内,所有権,60,-,5.5,200%,402,2025/4/4,-,-,現況渡し,とぴあ浜松農業協同組合不動産センター有玉店,053-476-3152,34.7747678,137.7674557
698,専任媒介,売地,浜松市中央区西ケ崎町,780,浜松市中央区西ケ崎町,所有権,60,-,21.09,200%,122.27,2025/4/15,-,-,更地渡し,センチュリー21中央不動産浜松店,053-584-0021,34.7747678,137.7674557
699,媒介,売地,浜松市中央区西ケ崎町939-1,816,浜松市中央区西ケ崎町939-1,所有権,60,-,7.01,200%,385,2025/4/12,-,-,現況渡し,(有)弥生不動産,053-587-0030,34.7806966,137.7660445
700,一般媒介,売地,浜松市中央区西ケ崎町字カミ370番一部,851.2,浜松市中央区西ケ崎町字カミ370番一部,所有権,60,用途地域,7.0,200%,402,2025/4/28,-,-,現況渡し,(株)ヤマセ不動産,053-474-2188,34.7747678,137.7674557
701,媒介,売地,浜松市中央区西ケ崎町437-4,872,浜松市中央区西ケ崎町437-4,所有権,60,-,12.02,200%,240,2025/3/14,-,-,現況渡し,古田不動産(株),053-581-9801,34.7747678,137.7674557
702,★売主,売地,浜松市中央区西ケ崎町869 付近,"1,498",浜松市中央区西ケ崎町869 付近,所有権,60,-,27.02,200%,183.29,2025/4/28,-,-,建築条件付,(株)ベスト・ハウジング,053-474-6252,34.7775483,137.7687366
703,専属専任,売地,浜松市中央区西ケ崎町1311-1,"1,999",浜松市中央区西ケ崎町1311-1,所有権,60,-,13.3,200%,497,2025/3/24,-,-,現況渡し,アイエス宅建,053-434-6810,34.7747678,137.7674557
704,専任媒介,売地,浜松市中央区西ケ崎町７４５－１,"2,010",浜松市中央区西ケ崎町７４５－１,所有権,60,-,12.0,200%,553.91,2025/5/9,-,-,更地渡し,遠州鉄道(株)　浜松店,053-471-0202,34.7767324,137.7722973
705,媒介,売地,浜松市中央区西ケ崎町1062,"2,961.50",浜松市中央区西ケ崎町1062,所有権,60,-,10.01,200%,979,2025/5/7,-,-,現況渡し,上島不動産(株),053-473-5000,34.7747678,137.7674557
706,媒介,売地,浜松市中央区西ケ崎町441,"3,164.15",浜松市中央区西ケ崎町441,所有権,60,-,10.01,200%,-,2025/3/2,-,-,現況渡し,-,053-473-5000,34.7747678,137.7674557
707,一般媒介,売地,浜松市中央区西島町,350,浜松市中央区西島町,所有権,60,-,2.32,200%,499.77,2025/5/8,-,-,更地渡し,あららぎ不動産(株),053-464-5557,34.6609828,137.7674557
708,一般媒介,売地,浜松市中央区西島町,600,浜松市中央区西島町,所有権,60,-,3.99,200%,497.63,2025/4/24,-,-,現況渡し,(株)マストレ,053-448-5656,34.6609828,137.7674557
709,一般媒介,売地,浜松市中央区西島町,"1,200",浜松市中央区西島町,所有権,60,-,4.15,200%,956,2025/4/24,-,-,現況渡し,(株)マストレ,053-448-5656,34.6609828,137.7674557
710,一般媒介,売地,浜松市中央区西島町,"3,500",浜松市中央区西島町,所有権,60,用途地域,14.19,200%,815.94,2025/4/16,-,-,現況渡し,(株)マストレ,053-448-5656,34.6609828,137.7674557
711,媒介,売地,浜松市中央区西町513,472,浜松市中央区西町513,所有権,60,-,5.01,200%,312,2025/5/7,-,-,現況渡し,(株)山崎不動産,053-463-8713,34.6844349,137.7797884
712,一般媒介,売地,浜松市中央区西町,590,浜松市中央区西町,所有権,60,-,4.25,200%,459.24,2025/4/19,-,-,現況渡し,(株)マストレ　高林支店,053-472-5656,34.6844349,137.7797884
713,一般媒介,売地,浜松市中央区西町４８－２,590,浜松市中央区西町４８－２,所有権,60,-,4.25,200%,459,2025/4/13,-,-,現況渡し,遠州鉄道(株)　高台店,053-437-1976,34.6844349,137.7797884
714,媒介,売地,浜松市中央区西町8,692.37,浜松市中央区西町8,所有権,60,-,7.0,200%,327,2025/3/19,-,-,現況渡し,(株)カーム,053-457-3332,34.6844349,137.7797884
715,媒介,売地,浜松市中央区西町,778.59,浜松市中央区西町,所有権,60,-,9.0,200%,286,2025/2/27,-,-,現況渡し,とぴあ浜松農業協同組合不動産センター有玉店,053-476-3152,34.6844349,137.7797884
716,一般媒介,売地,浜松市中央区西町,860,浜松市中央区西町,所有権,60,-,5.78,200%,492,2025/4/1,-,-,現況渡し,あららぎ不動産(株),053-464-5557,34.6844349,137.7797884
717,媒介,売地,浜松市中央区西町494番1,"1,300",浜松市中央区西町494番1,所有権,-,-,9.88,200%,435,2025/4/24,-,-,現況渡し,(同)睦不動産,053-581-9623,34.6848746,137.7839148
718,一般媒介,売地,浜松市中央区西山町2354-1,580,浜松市中央区西山町2354-1,所有権,60,-,7.99,200%,240,2025/4/12,-,-,現況渡し,ＳＭＤ不動産(株),053-401-4235,34.7411542,137.6884973
719,一般媒介,売地,浜松市中央区西山町,690,浜松市中央区西山町,所有権,60,-,9.09,200%,251,2025/4/24,-,-,現況渡し,(株)マストレ,053-448-5656,34.7411542,137.6884973
720,一般媒介,売地,浜松市中央区西山町,750,浜松市中央区西山町,所有権,60,用途地域,5.87,200%,423,2025/4/24,-,-,現況渡し,(株)マストレ,053-448-5656,34.7411542,137.6884973
721,専任媒介,売地,浜松市中央区西山町223-1　223-4,834.26,浜松市中央区西山町223-1　223-4,所有権,60,-,7.0,200%,394,2025/4/28,-,-,更地渡し,(株)吉田不動産,053-592-3131,34.708498,137.7290402
722,一般媒介,売地,浜松市中央区西山町２４５５－５、２４５５－７,875,浜松市中央区西山町２４５５－５、２４５５－７,所有権,60,-,7.68,200%,377,2025/4/18,-,-,相談,(株)アライブ　企画営業部,053-476-7112,34.7411542,137.6884973
723,一般媒介,売地,浜松市中央区西山町,875,浜松市中央区西山町,所有権,60,-,7.68,200%,377,2025/4/10,-,-,現況渡し,(株)マストレ企画営業所,053-401-3456,34.7411542,137.6884973
724,一般媒介,売地,浜松市中央区西山町2455番3,875,浜松市中央区西山町2455番3,所有権,60,-,7.65,200%,378.12,2025/2/24,-,-,建築条件付,(株)セイケンハウス工業,053-597-1011,34.7411542,137.6884973
725,-,売地,浜松市中央区西山町2029-1,913,浜松市中央区西山町2029-1,所有権,60,-,10.0,200%,301.89,2025/3/5,-,-,現況渡し,ＳＭＤ不動産(株),053-401-4235,34.7414805,137.6846506
726,専任媒介,売地,浜松市中央区西山町,"1,050",浜松市中央区西山町,所有権,60,-,19.4,200%,178.99,2025/4/15,-,-,相談,(株)ニイノプラン,053-485-7700,34.7411542,137.6884973
727,-,売地,浜松市中央区西山町2043-42,"1,600",浜松市中央区西山町2043-42,所有権,60,-,17.31,200%,305.6,2025/4/4,-,-,更地渡し,(株)幹工務店,053-453-0719,34.7401968,137.6868052
