No,取引態様,物件種目,住所,登録価格（万円）,交通,土地権利,建ぺい率,用途地域,坪単価（万円）,容積率,土地面積（㎡）,公開日,私道面積,私道持分,条件等,登録会員,TEL,latitude,longitude
199,一般,売地,周智郡森町一宮,291,徒歩3分,所有権,60,無指定,3.37,200,285,2025/7/10,-,-,現況渡し,(株)マストレ,053-448-5656,34.8311135,137.8921477
204,専任,売地,周智郡森町一宮1866番1,301,-,所有権,60,無指定,4.49,200,221,2025/7/2,-,-,現況渡し,センチュリー21中央不動産磐田店,0538-39-0500,34.8242865,137.8912494
200,専任,売地,周智郡森町一宮3031-16,2202,徒歩10分,所有権,60,無指定,5.51,200,1321,2025/7/22,-,-,更地渡し,小林不動産,0538-85-1050,34.8206131,137.8936074
522,媒介,売地,周智郡森町一宮3498-2、3498-3、3499-7,1672,天竜浜名湖鉄道 円田 徒歩2233分,所有権,60,無指定,6.8,200,814,2025/5/20,-,-,現況渡し,さくら不動産販売(株),0538-24-7772,34.8297407,137.8981611
802,専任,売地,周智郡森町一宮６３３２－２,480,徒歩25分,所有権,60,無指定,1.94,200,818,2025/6/25,-,-,現況渡し,(株)アライブ　中東遠支店,0538-36-8851,34.8311135,137.8921477
204,専任,売地,周智郡森町中川,2002,バス海30道分本バス線停静袋鉄井秋葉バス中川停車場停歩3分,所有権,60,無指定,7.04,200,940,2025/7/22,-,-,現況渡し,小林不動産,0538-85-1050,34.8025702,137.8946198
94,一般,売地,周智郡森町中川365-1,780,-,所有権,60,無指定,5.35,200,482,2025/6/5,-,-,更地渡し,センチュリー21中央不動産磐田店,0538-39-0500,34.8025702,137.8946198
95,一般,売地,周智郡森町中川365-2,781,-,所有権,60,無指定,5.39,200,479,2025/6/5,-,-,更地渡し,センチュリー21中央不動産磐田店,0538-39-0500,34.8025702,137.8946198
526,媒介,売地,周智郡森町中川508、510-1,360,"東海道本線 袋井 距離77,000000m",所有権,60,無指定,3.01,200,396,2025/5/16,-,-,更地渡し,(株)新栄,0538-85-4690,34.7976014,137.9026066
203,一般,売地,周智郡森町中川２５５－１,1851,徒歩32分,所有権,60,無指定,4.16,200,1471,2025/7/6,-,-,更地渡し,遠州鉄道(株)　袋井店,0538-31-8711,34.8021932,137.8961503
201,専任,売地,"周智郡森町円田1424-1,-2,-3",792,徒歩8分,所有権,60,無指定,4.62,200,566,2025/6/29,-,-,現況渡し,アースデイ不動産,053-441-2103,34.8165648,137.9066048
806,専任,売地,周智郡森町円田465-3,550,徒歩19分,所有権,60,無指定,5.97,200,305,2025/6/2,-,-,更地渡し,(株)不動産Ｌａｂｏ．,0538-33-6118,34.816131,137.9172795
805,専任,売地,周智郡森町円田465-4,401,徒歩19分,所有権,60,無指定,4.96,200,267,2025/6/2,-,-,更地渡し,(株)不動産Ｌａｂｏ．,0538-33-6118,34.816131,137.9172795
804,媒介,売地,周智郡森町円田543-1,281,徒歩13分,所有権,60,無指定,3.12,200,297,2025/6/4,-,-,更地渡し,(株)新栄,0538-85-4690,34.8193514,137.9196254
524,媒介,売地,周智郡森町円田543-1,330,天竜浜名湖鉄道 森町病院前 徒歩1133分,所有権,60,無指定,3.67,200,297,2025/5/20,-,-,現況渡し,さくら不動産販売(株),0538-24-7772,34.8193514,137.9196254
206,媒介,売地,周智郡森町向天方875-2,346,徒歩17分,所有権,60,無指定,3.01,200,380,2025/7/16,-,-,現況渡し,(株)イイダ開発,0538-31-2708,34.8398783,137.9391828
808,一般,売地,周智郡森町城下５８１－１,502,バス停天の宮停歩3分,所有権,60,1種中高,3.14,150,528,2025/6/20,-,-,現況渡し,遠州鉄道(株)　袋井店,0538-31-8711,34.8526725,137.9403742
807,専属専任,売地,周智郡森町大鳥居12-2,750,徒歩4分,所有権,60,無指定,8.19,200,303,2025/6/16,-,-,現況渡し,アイエス宅建,053-434-6810,34.8587964,137.938868
192,一般,売地,周智郡森町天宮,1586,徒歩21分,所有権,50,1種中高,7,150,749,2025/7/22,-,-,相談,小林不動産,0538-85-1050,34.849099,137.9292411
199,一般,売地,周智郡森町天宮1389-1,450,徒歩19分,所有権,60,1種中高,6.1,150,244,2025/7/13,-,-,現況渡し,小林不動産,0538-85-1050,34.8417069,137.930436
190,専任,売地,周智郡森町天宮1413-2,551,徒歩25分,所有権,50,1種低層,5.03,80,362,2025/7/22,-,-,現況渡し,小林不動産,0538-85-1050,34.8437648,137.9309716
520,媒介,売地,周智郡森町天宮1564,719,天竜浜名湖鉄道 遠州森 徒歩2266分,所有権,50,１種低層,8.01,80,297,2025/5/20,-,-,現況渡し,さくら不動産販売(株),0538-24-7772,34.8447643,137.9292802
797,専任,売地,周智郡森町天宮722,540,徒歩16分,所有権,80,近隣商業,7,200,255,2025/6/9,-,-,更地渡し,(株)クレセント若月,053-449-4711,34.840554,137.9327296
191,一般,売地,周智郡森町天宮885-3,790,徒歩24分,所有権,60,無指定,7,200,373,2025/7/15,-,-,現況渡し,岡野建設(株),0538-85-2197,34.845721,137.9306634
529,一般媒介,売地,周智郡森町森,880,天竜浜名湖鉄道 遠州森 徒歩1111分,所有権,60,１種中高,14.42,100,202,2025/5/20,-,-,現況渡し,遠州鉄道(株)　袋井店,0538-31-8711,34.8333467,137.9242939
212,一般,売地,周智郡森町森,2292,徒歩7分,所有権,60,2種中高,10.01,150,757,2025/7/22,-,-,相談,小林不動産,0538-85-1050,34.8333467,137.9242939
528,専任媒介,売地,周智郡森町森,500,天竜浜名湖鉄道 戸綿 徒歩77分,所有権,60,１種住居,9.67,200,171,2025/5/17,-,-,現況渡し,(株)トダックス,0537-26-2161,34.8333467,137.9242939
208,一般,売地,"周智郡森町森1403-1,1403-11",551,徒歩3分,所有権,60,1種住居,3.71,200,491,2025/7/23,-,-,現況渡し,(株)新栄,0538-85-4690,34.8298278,137.9231047
214,媒介,売地,周智郡森町森1702-1，1702-5,790,-,所有権,60,2種中高,12.07,150,216,2025/7/1,-,-,現況渡し,(株)丸玉,053-421-7360,34.8341749,137.92298
210,売主,売地,周智郡森町森1952-5,751,徒歩8分,所有権,70,2種中高,9.83,150,252,2025/7/22,-,-,現況渡し,(株)新栄,0538-85-4690,34.8354737,137.9228392
209,媒介,売地,周智郡森町森2337-2、2339,690,徒歩14分,所有権,60,1種中高,8.47,150,269,2025/7/1,-,-,現況渡し,(株)丸玉,053-421-7360,34.8333467,137.9242939
98,一般,売地,周智郡森町森１０５３－５，１０５３－６,970,徒歩4分,所有権,60,1種住居,11.97,200,268,2025/6/1,-,-,相談,遠州鉄道(株)　袋井店,0538-31-8711,34.8318596,137.9262926
211,専任,売地,周智郡森町森１２０６－１７,990,徒歩2分,所有権,60,1種住居,11.45,200,286,2025/7/3,-,-,現況渡し,遠州鉄道(株)　袋井店,0538-31-8711,34.8299475,137.9238551
100,一般,売地,周智郡森町森１７０１－２,1390,徒歩14分,所有権,60,2種中高,14.01,150,328,2025/6/25,-,-,更地渡し,遠州鉄道(株)　袋井店,0538-31-8711,34.8343002,137.9234233
101,一般,売地,周智郡森町森２１１７－４,1490,徒歩1分,所有権,60,1種住居,11.93,200,413,2025/6/25,-,-,現況渡し,遠州鉄道(株)　袋井店,0538-31-8711,34.8347129,137.926781
2379,専任媒介,売地,周智郡森町森２２３１番１・２２３１番２,850,周智郡森町森２２３１番１・２２３１番２,所有権,50,-,14.83,2,190,2025/5/1,-,-,更地渡し,遠州鉄道(株)　袋井店,0538-31-8711,34.8377789,137.9253839
523,一般媒介,売地,周智郡森町牛飼282-5,350,バス停 秋葉バス牛飼 停歩1分,所有権,60,無指定,6.41,200,181,2025/5/21,-,-,現況渡し,遠州トラック(株)不動産営業所,0538-42-0001,34.7954904,137.8997258
207,専任,売地,周智郡森町睦実,581,徒歩24分,所有権,60,無指定,5.27,200,364,2025/7/10,-,-,更地渡し,(株)ｉｌｌ企画,053-544-6868,34.8315591,137.9302852
527,★売主,売地,周智郡森町睦実３７５－１他,17924,天竜浜名湖鉄道 戸綿 徒歩1155分,所有権,60,-,10.01,200,5925,2025/5/20,-,-,相談,さくら不動産販売(株),0538-24-7772,34.8315591,137.9302852
202,専任,売地,周智郡森町草ケ谷２２６－２,680,バス停草ケ谷（森町）停歩2分,所有権,60,1種住居,7.57,200,297,2025/6/30,-,-,更地渡し,遠州鉄道(株)　袋井店,0538-31-8711,34.8254651,137.9158557
205,一般,売地,周智郡森町西俣１,301,バス停黒石上停歩9分,所有権,60,無指定,2.28,200,436,2025/7/20,-,-,現況渡し,(株)エフエフ住宅,0537-23-2265,34.8750926,137.9471117
800,専任,売地,周智郡森町飯田,581,"バス海2道0本分線バス袋停井秋距葉離バ8ス,15飯0田m停歩5分",所有権,60,無指定,5.73,200,335,2025/6/9,-,-,現況渡し,栄和ハウジング,0538-43-0821,34.806392,137.9144007
197,一般,売地,周智郡森町飯田,1480,バス海2道0本分線バス袋停井市場停歩7分,所有権,60,無指定,2.18,200,2245,2025/7/14,-,-,現況渡し,(株)マストレ,053-448-5656,34.806392,137.9144007
193,一般,売地,周智郡森町飯田148-1,200,徒歩20分,所有権,60,-,1.82,200,364,2025/7/15,-,-,現況渡し,岡野建設(株),0538-85-2197,34.814952,137.9172097
2332,媒介,売地,周智郡森町飯田2047-1、2051-2,572,周智郡森町飯田2047-1、2051-2,所有権,60,-,5,2,378,2025/5/1,-,-,現況渡し,こみき不動産,053-421-5521,34.806392,137.9144007
521,★売主,売地,周智郡森町飯田2104-2,398,"天竜浜名湖鉄道 円田 距離33,660000m",所有権,60,-,8.03,200,164,2025/5/20,-,-,現況渡し,さくら不動産販売(株),0538-24-7772,34.7965316,137.911704
198,専任,売地,周智郡森町飯田2885-1,2002,徒歩36分,所有権,60,無指定,5.33,200,1242,2025/7/16,-,-,相談,(株)イイダ開発,0538-31-2708,34.8061277,137.9214049
195,専任,売地,周智郡森町飯田3257-3他,1022,徒歩34分,所有権,60,無指定,3.73,200,906,2025/7/16,-,-,現況渡し,(株)イイダ開発,0538-31-2708,34.806392,137.9144007
799,媒介,売地,周智郡森町飯田3522-1,125,徒歩36分,所有権,60,無指定,6.36,200,65,2025/6/10,-,-,-,(株)創建,0538-42-5550,34.8100546,137.9270008
194,媒介,売地,周智郡森町飯田4069-1,964,徒歩21分,所有権,60,無指定,6,200,531,2025/7/16,-,-,現況渡し,(株)イイダ開発,0538-31-2708,34.806392,137.9144007
196,専任,売地,"周智郡森町飯田4076-1,4075-7",1247,徒歩24分,所有権,60,無指定,6,200,687,2025/7/16,-,-,現況渡し,(株)イイダ開発,0538-31-2708,34.8117308,137.9176199
654,一般,売地,掛川市三俣,401,-,所有権,60,2種住居,3.63,200,365,2025/6/4,-,-,相談,(株)アーガス,0537-21-7777,34.6660952,138.0493528
876,専任,売地,掛川市三俣2-6,361,-,所有権,60,無指定,3,200,398,2025/6/30,-,-,更地渡し,(有)ワクダ総合企画,0537-72-6044,34.6665695,138.0498845
769,売主,売地,掛川市上内田1227-1他,651,-,所有権,60,無指定,3.99,200,539,2025/7/12,-,-,現況渡し,(有)サンケイ開発,0537-22-0366,34.7488787,138.0481132
788,売主,売地,掛川市上内田1235-7,651,-,所有権,60,-,3.99,200,539,2025/7/23,-,-,現況渡し,(有)サンケイ開発,0537-22-0366,34.7488787,138.0481132
583,専属専任,売地,掛川市上内田20-1,1160,-,所有権,60,無指定,7.99,200,480,2025/6/23,-,-,現況渡し,(株)Ｅａｒｎｅｓｔ,053-544-7344,34.7488787,138.0481132
790,専任,売地,掛川市上内田841-1、848-1,1001,-,所有権,60,-,5.63,200,588,2025/7/20,-,-,現況渡し,しずなび(株)　浜松東店,053-467-6700,34.7461255,138.042632
789,専任,売地,掛川市上内田892,653,-,所有権,60,無指定,7.5,200,288,2025/7/12,-,-,更地渡し,(有)サンケイ開発,0537-22-0366,34.7488787,138.0481132
637,一般,売地,掛川市上土方落合,1300,バス停落合下停歩2分,所有権,60,無指定,2.28,200,1885,2025/6/4,-,-,更地渡し,(株)アーガス,0537-21-7777,34.7191828,138.034479
857,専任,売地,掛川市上土方落合,318,バス停落合下停歩2分,所有権,60,無指定,3.25,200,323,2025/7/21,-,-,現況渡し,(株)アーガス,0537-21-7777,34.7191828,138.034479
858,専任,売地,掛川市上土方落合,369,バス停落合停歩4分,所有権,60,無指定,2.95,200,413,2025/7/2,-,-,現況渡し,(株)アーガス,0537-21-7777,34.7191828,138.034479
1874,専任媒介,売地,掛川市上張,660,掛川市上張,所有権,60,-,20.4,2,107,2025/5/7,-,-,相談,(株)アーガス,0537-21-7777,34.7595854,138.0220874
791,専任,売地,掛川市上西郷,701,-,所有権,60,無指定,6.48,180,357,2025/7/23,-,-,相談,(株)アーガス,0537-21-7777,34.7923626,138.0127594
792,媒介,売地,掛川市上西郷433-5,20003,徒歩28分,所有権,60,2種住居,23.94,200,2762,2025/7/2,-,-,現況渡し,URE,0778-67-6051,34.7923626,138.0127594
585,一般,売地,掛川市上西郷１７９３－２,1200,バス停花屋敷入口停歩2分,所有権,60,無指定,15.39,200,258,2025/6/21,-,-,更地渡し,遠州鉄道(株)　掛川店・掛川住宅プラザ,0537-23-5103,34.7981396,138.0123504
1905,一般媒介,売地,掛川市上西郷２５７８番３,490,掛川市上西郷２５７８番３,所有権,60,-,6.75,2,240,2025/5/3,-,-,現況渡し,遠州鉄道(株)　掛川店・掛川住宅プラザ,0537-23-5103,34.8050471,138.011671
805,専任,売地,掛川市下俣458,1122,-,所有権,60,工業専用,10.01,200,371,2025/7/12,-,-,現況渡し,(有)サンケイ開発,0537-22-0366,34.7535103,138.0022667
806,一般,売地,掛川市下俣577-1,7003,徒歩5分,所有権,60,工業専用,10,200,2315,2025/7/14,-,-,相談,大河原建設,0547-36-2766,34.768953,138.0030163
413,★売主,売地,掛川市下俣南１丁目52-1,1490,東海道本線 掛川 徒歩1144分,所有権,60,２種中高,30.29,150,163,2025/5/17,-,-,建築条件付,山口建設(株),0538-32-0161,34.7657417,138.002886
640,一般,売地,掛川市下土方,301,バス停土方停歩8分,所有権,60,無指定,2.38,200,418,2025/6/4,-,-,相談,(株)アーガス,0537-21-7777,34.6965902,138.0431549
639,専任,売地,掛川市下土方,300,バス停土方停歩4分,所有権,60,無指定,3.14,200,316,2025/6/12,-,-,相談,(株)アーガス,0537-21-7777,34.6965902,138.0431549
860,専任,売地,掛川市下土方,680,-,所有権,60,無指定,4.34,200,518,2025/7/16,-,-,相談,(株)アーガス,0537-21-7777,34.6965902,138.0431549
861,専任,売地,掛川市下土方,750,-,所有権,60,無指定,1.84,200,1348,2025/7/2,-,-,相談,(株)アーガス,0537-21-7777,34.6965902,138.0431549
418,専任媒介,売地,掛川市下土方1415-10,298,"東海道本線 掛川 距離99,990000m",,,,,,,,,,,,,,
859,媒介,売地,"掛川市下土方1612-1,1612-2,1612-3",301,-,所有権,60,無指定,2.38,200,418,2025/7/16,-,-,現況渡し,(株)ライフイン企画,0537-73-6262,34.6965902,138.0431549
787,専任,売地,掛川市下垂木,1180,バス海1道4本分線バス掛停川秋葉路入口停歩18分,所有権,50,1種低層,18,80,217,2025/7/11,-,-,更地渡し,(株)マストレ,053-448-5656,34.7876715,137.9857685
788,専任,売地,掛川市下垂木,1200,-,所有権,50,1種低層,19.36,80,205,2025/7/2,-,-,相談,(株)アーガス,0537-21-7777,34.7876715,137.9857685
781,専任,売地,掛川市下垂木,345,-,所有権,40,1種低層,13.22,60,86,2025/7/13,-,-,-,(株)アーガス,0537-21-7777,34.7876715,137.9857685
784,専任,売地,掛川市下垂木,890,徒歩17分,所有権,60,1種低層,14.32,80,206,2025/7/12,-,-,相談,(株)アーガス,0537-21-7777,34.7876715,137.9857685
804,専任,売地,掛川市下垂木,2499,徒歩6分,所有権,60,1種中高,11,150,751,2025/7/11,-,-,相談,(株)アーガス,0537-21-7777,34.7876715,137.9857685
782,専任,売地,掛川市下垂木,126,-,所有権,40,1種低層,13.23,60,31,2025/7/13,-,-,-,(株)アーガス,0537-21-7777,34.7876715,137.9857685
803,専任,売地,掛川市下垂木1360-15,1081,"バス海停道掛川本バ線ス掛桜木川線バ距ス停離「4田中,7」0停0歩m2分",所有権,60,無指定,7.24,200,494,2025/6/29,-,-,更地渡し,しずなび(株)　浜松東店,053-467-6700,34.7918224,137.9851518
785,売主,売地,掛川市下垂木578-18,972,-,所有権,60,無指定,15,200,214,2025/7/13,-,-,現況渡し,(株)スエヒロ産業,0536-32-0506,34.7876715,137.9857685
802,専任,売地,掛川市下垂木１０６７－１,890,徒歩20分,所有権,40,1種低層,10.39,60,283,2025/7/13,-,-,更地渡し,遠州鉄道(株)　袋井店,0538-31-8711,34.7839206,137.9859937
405,一般媒介,売地,掛川市下垂木２００８－３７,950,天竜浜名湖鉄道 桜木 徒歩1144分,所有権,50,１種低層,16.4,80,192,2025/5/19,-,-,更地渡し,遠州鉄道(株)　掛川店・掛川住宅プラザ,0537-23-5103,34.7816411,137.980551
590,専任,売地,掛川市下垂木２１９２－２７,1300,徒歩12分,所有権,50,1種低層,15.15,80,284,2025/6/25,-,-,更地渡し,(株)アライブ　中東遠支店,0538-36-8851,34.7801676,137.9798797
847,一般,売地,掛川市中2787-1,316,-,所有権,60,無指定,4.83,200,216,2025/6/30,-,-,更地渡し,(有)ワクダ総合企画,0537-72-6044,34.6866704,138.0629907
645,一般,売地,掛川市中819,756,-,所有権,60,無指定,4.99,200,501,2025/6/12,-,-,現況渡し,(株)金田工務店,0537-22-9883,34.6866704,138.0629907
647,媒介,売地,"掛川市中880-1,881-11",1100,-,所有権,60,-,4.39,200,829,2025/6/23,-,-,相談,戸塚建設(株)　駅南センターアーバンクリエイト,0537-21-5588,34.6806624,138.0631331
864,媒介,売地,掛川市中935-1,771,-,所有権,60,無指定,5,200,510,2025/6/30,-,-,現況渡し,島田掛川パートナーズ(株)　掛川支社,0537-25-7211,34.6814212,138.0648174
866,売主,売地,掛川市中方2402-1,1750,バス海2道1分,所有権,60,無指定,5.91,200,979,2025/7/5,-,-,更地渡し,(有)ワクダ総合企画,0537-72-6044,34.7072385,138.0581666
865,一般,売地,掛川市中２７７２－２,801,バス停三本松停歩7分,所有権,60,無指定,5.33,200,497,2025/7/20,-,-,現況渡し,遠州鉄道(株)　掛川店・掛川住宅プラザ,0537-23-5103,34.6866704,138.0629907
832,専任,売地,掛川市久保２丁目,1891,徒歩14分,所有権,60,1種住居,21.12,200,296,2025/7/16,-,-,相談,(株)アーガス,0537-21-7777,34.7637933,138.0090793
833,専任,売地,掛川市久保２丁目,2621,徒歩13分,所有権,60,1種住居,25.14,200,345,2025/7/2,-,-,相談,(株)アーガス,0537-21-7777,34.7637933,138.0090793
620,一般,売地,掛川市久保２丁目22-2,1951,バス海停道県本営線住掛宅川前徒停歩21分,所有権,60,1種住居,24.98,200,258,2025/6/17,-,-,更地渡し,アースデイ不動産,053-441-2103,34.7626774,138.0076832
834,一般,売地,掛川市久保２丁目１７,3481,バス停亀の甲二丁目停歩2分,所有権,60,工業地域,23.98,200,480,2025/7/9,-,-,現況渡し,遠州鉄道(株)　高台店,053-437-1976,34.7652127,138.007376
839,一般,売地,掛川市二瀬川,5005,徒歩10分,所有権,60,準工業,10.01,200,1653,2025/7/8,-,-,現況渡し,浜松損害保険サービス(株),053-459-4180,34.7766181,138.0016474
623,専任,売地,掛川市二瀬川,601,バス停二瀬川東距離240m-更地渡し転載不可万円所有権50%１種低層専任媒介251.95㎡(株)アーガス0537-21-7.8万円80%‐164236907売地掛川市二瀬川16-4A2025/06/06460天竜浜名湖鉄道西掛川徒歩13分,所有権,50,1種低層,7.88,80,252,2025/6/23,-,-,更地渡し,(株)アーガス,0537-21-7777,34.7766181,138.0016474
837,一般,売地,掛川市二瀬川,801,-,所有権,50,1種低層,4.95,80,535,2025/7/2,-,-,相談,(株)アーガス,0537-21-7777,34.7766181,138.0016474
838,一般,売地,掛川市二瀬川１２１０,5004,バス停二瀬川東停歩5分,所有権,60,準工業,9.69,200,1707,2025/7/20,-,-,相談,遠州鉄道(株)　掛川店・掛川住宅プラザ,0537-23-5103,34.7766181,138.0016474
798,売主,売地,掛川市五明407-2,977,-,所有権,60,無指定,4.74,200,681,2025/7/12,-,-,更地渡し,(有)サンケイ開発,0537-22-0366,34.803419,138.0060788
814,専任,売地,掛川市伊達方1183-1,936,-,所有権,60,無指定,9.77,200,317,2025/7/12,-,-,現況渡し,(有)サンケイ開発,0537-22-0366,34.7817183,138.0598715
599,専任,売地,掛川市伊達方553-1,559,バス海2道0本分線バス掛停川東山口小学校停歩4分,所有権,60,無指定,6,200,308,2025/6/5,-,-,現況渡し,すぎやま不動産株式会社,0537-28-9901,34.7800404,138.0679507
812,一般,売地,掛川市伊達方553-1,559,-,所有権,60,無指定,6,200,308,2025/7/12,-,-,現況渡し,(有)サンケイ開発,0537-22-0366,34.7800404,138.0679507
813,専任,売地,掛川市伊達方１３１１番２,851,バス停本所（静岡県）停歩3分,所有権,60,無指定,5.4,200,521,2025/7/19,-,-,更地渡し,遠州鉄道(株)　掛川店・掛川住宅プラザ,0537-23-5103,34.7844289,138.0579232
795,専任,売地,掛川市倉真300,281,-,所有権,60,-,1.98,200,469,2025/7/12,-,-,現況渡し,(有)サンケイ開発,0537-22-0366,34.8434121,138.0505925
820,一般,売地,掛川市初馬868-7,1212,バス停初馬停歩1分,所有権,60,無指定,15,200,267,2025/7/1,-,-,現況渡し,丸友開発(株),053-454-8118,34.7963839,138.0266648
835,専任,売地,掛川市南２丁目,300,徒歩10分,所有権,60,2種住居,3.14,200,316,2025/7/6,-,-,現況渡し,(株)アーガス,0537-21-7777,34.766309,138.017751
836,一般,売地,掛川市南２丁目２４－３,300,徒歩9分,所有権,60,1種住居,3.48,200,285,2025/7/5,-,-,現況渡し,遠州鉄道(株)　掛川店・掛川住宅プラザ,0537-23-5103,34.7667071,138.0196675
782,専任,売地,掛川市印内19-1,1400,-,所有権,60,1種住居,12.02,200,385,2025/7/12,-,-,現況渡し,(有)サンケイ開発,0537-22-0366,34.7754204,138.0309162
577,専任,売地,掛川市各和,300,徒歩23分,所有権,60,無指定,2.59,200,383,2025/6/12,-,-,現況渡し,(株)アーガス,0537-21-7777,34.7751117,137.9589345
764,売主,売地,掛川市各和,580,徒歩2分,所有権,60,無指定,9.31,200,206,2025/7/12,-,-,相談,(株)アーガス,0537-21-7777,34.7751117,137.9589345
578,一般,売地,掛川市各和1712-1,641,徒歩39分,所有権,60,無指定,5.62,200,377,2025/6/12,-,-,現況渡し,(株)金田工務店,0537-22-9883,34.7751117,137.9589345
580,専任,売地,掛川市各和614－5,851,バス停各和公民館南停歩13分,所有権,60,無指定,6.54,200,430,2025/6/4,-,-,相談,(株)アーガス,0537-21-7777,34.7704707,137.9675032
579,一般,売地,掛川市各和815-1,781,徒歩29分,所有権,60,無指定,5.13,200,503,2025/6/12,-,-,現況渡し,(株)金田工務店,0537-22-9883,34.7640246,137.9635056
786,専任,売地,掛川市各和876,871,徒歩24分,所有権,60,無指定,7.78,200,370,2025/7/25,-,-,現況渡し,トダックスアパマン掛川,0537-23-6700,34.764336,137.9657318
614,専任,売地,掛川市吉岡,590,徒歩14分,所有権,60,無指定,6.24,200,313,2025/6/2,-,-,現況渡し,栄和ハウジング,0538-43-0821,34.793712,137.9490349
2001,専任媒介,売地,掛川市吉岡,1332,掛川市吉岡,所有権,60,-,6,2,734,2025/5/7,-,-,相談,(株)アーガス,0537-21-7777,34.793712,137.9490349
810,売主,売地,掛川市吉岡1139-1.1141-1.1141-4,495,-,所有権,60,無指定,6.6,200,248,2025/7/12,-,-,更地渡し,(有)サンケイ開発,0537-22-0366,34.793712,137.9490349
829,専任,売地,掛川市吉岡774,435,-,所有権,60,無指定,4.78,200,301,2025/7/12,-,-,現況渡し,(有)サンケイ開発,0537-22-0366,34.793712,137.9490349
830,一般,売地,掛川市吉岡７７４,435,徒歩18分,所有権,60,無指定,4.78,200,301,2025/6/30,-,-,現況渡し,遠州鉄道(株)　掛川店・掛川住宅プラザ,0537-23-5103,34.793712,137.9490349
426,一般媒介,売地,掛川市和光２丁目,1376,バス停 戸塚橋 距離480m,所有権,50,１種低層,18.9,80,241,2025/5/18,-,-,建築条件付,(株)アーガス,0537-21-7777,34.7843119,138.0090793
886,専任,売地,掛川市和光２丁目３－１０,1650,徒歩27分,所有権,50,1種中高,19.14,100,285,2025/6/30,-,-,更地渡し,遠州鉄道(株)　掛川店・掛川住宅プラザ,0537-23-5103,34.7843119,138.0090793
2060,専任媒介,売地,掛川市国安,150,掛川市国安,所有権,50,-,2.48,2,200,2025/5/2,-,-,相談,(株)アーガス,0537-21-7777,34.6574061,138.0667107
616,媒介,売地,掛川市城北１丁目,780,バス停中宿停歩4分,所有権,50,1種低層,10.25,80,252,2025/6/14,-,-,更地渡し,(有)Ｋ・Ｈ・Ｌ,054-259-9671,34.7786127,138.0090793
831,媒介,売地,掛川市城北１丁目,780,徒歩20分,所有権,50,1種低層,10.25,80,252,2025/6/30,-,-,現況渡し,(株)トダックス,0537-26-2161,34.7786127,138.0090793
812,専任,売地,掛川市城北２丁目,998,-,所有権,50,1種低層,14.41,80,229,2025/6/28,-,-,相談,(株)アーガス,0537-21-7777,34.778031,138.0056729
822,媒介,売地,掛川市大坂,290,-,所有権,70,1種中高,4.7,100,204,2025/6/30,-,-,相談,（株）JINハウス,0537-28-9583,34.6698829,138.0454266
848,専任,売地,掛川市大坂,800,-,所有権,50,1種低層,6.36,80,416,2025/6/30,-,-,現況渡し,(株)アーガス,0537-21-7777,34.6698829,138.0454266
845,専任,売地,掛川市大坂1027-3,606,-,所有権,60,1種住居,5.01,200,400,2025/6/30,-,-,現況渡し,(有)ワクダ総合企画,0537-72-6044,34.6692494,138.0451885
2036,一般媒介,売地,掛川市大坂1573-2,728,掛川市大坂1573-2,所有権,60,-,6,2,401,2025/5/1,-,-,現況渡し,ＳＭＤ不動産(株),053-401-4235,34.6700474,138.0393003
840,一般,売地,掛川市大坂1580-31,212,バス海2道5分,所有権,60,2種中高,1.24,150,564,2025/6/30,-,-,現況渡し,(有)ワクダ総合企画,0537-72-6044,34.6697827,138.0394171
843,専任,売地,掛川市大坂1892-1,451,バス海2道5分,所有権,60,無指定,4.44,200,336,2025/6/30,-,-,現況渡し,(有)ワクダ総合企画,0537-72-6044,34.6698563,138.0357765
842,専任,売地,掛川市大坂2049-1,400,-,所有権,60,無指定,3.52,200,376,2025/6/30,-,-,現況渡し,(有)ワクダ総合企画,0537-72-6044,34.6698829,138.0454266
844,一般,売地,掛川市大坂2698,550,バス海2道5分,所有権,60,無指定,6.25,200,291,2025/6/30,-,-,現況渡し,(有)ワクダ総合企画,0537-72-6044,34.6698829,138.0454266
846,媒介,売地,掛川市大坂2998-1,651,-,所有権,60,無指定,3.9,200,552,2025/6/30,-,-,現況渡し,島田掛川パートナーズ(株)　掛川支社,0537-25-7211,34.6698829,138.0454266
841,一般,売地,掛川市大坂5261-1,401,-,所有権,60,無指定,1,200,1326,2025/7/5,-,-,現況渡し,(有)ワクダ総合企画,0537-72-6044,34.6698829,138.0454266
849,一般,売地,掛川市大坂5629-1,1805,バス海2道5分,所有権,60,無指定,2.05,200,2910,2025/6/30,-,-,現況渡し,(有)ワクダ総合企画,0537-72-6044,34.6698829,138.0454266
415,専任媒介,売地,掛川市大坂5759-1,450,"東海道本線 掛川 距離1100,000000m",所有権,60,-,8.52,200,175,2025/5/19,-,-,現況渡し,(有)サンケイ開発,0537-22-0366,34.6698829,138.0454266
847,一般,売地,掛川市大坂6708-3,781,バス海3道3分,所有権,60,無指定,6.49,200,398,2025/6/30,-,-,更地渡し,中部ガス不動産（株）浜松中央支店,053-451-0525,34.6763043,138.0507668
823,専任,売地,掛川市大坂706-8,365,バス海2道5分,所有権,60,1種住居,5,200,241,2025/6/30,-,-,現況渡し,(有)ワクダ総合企画,0537-72-6044,34.6704957,138.042448
828,売主,売地,掛川市大坂903-1,601,バス海3道2分,所有権,60,2種中高,9.22,150,215,2025/6/30,-,-,現況渡し,(有)ワクダ総合企画,0537-72-6044,34.6696437,138.0429031
850,一般,売地,掛川市大坪台５９,1200,バス停土方小学校前停歩4分,所有権,60,無指定,15.54,200,255,2025/7/25,-,-,現況渡し,遠州鉄道(株)　掛川店・掛川住宅プラザ,0537-23-5103,34.7099172,138.0416055
1887,一般媒介,売地,掛川市大多郎126-1,1100,掛川市大多郎126-1,所有権,60,-,9.7,2,375,2025/5/2,-,-,現況渡し,ランドデザイン(株),0537-29-6585,34.7860372,138.0268755
400,専任媒介,売地,掛川市大池,380,天竜浜名湖鉄道 西掛川 徒歩1100分,所有権,60,１種住居,8.37,200,150,2025/5/20,-,-,現況渡し,(株)トダックス,0537-26-2161,34.7760715,137.9935975
401,専任媒介,売地,掛川市大池２１２６,750,天竜浜名湖鉄道 西掛川 徒歩1122分,所有権,40,無指定,14.25,60,174,2025/5/21,-,-,相談,遠州鉄道(株)　事業用不動産流通グループ,053-488-8811,34.7760715,137.9935975
784,専任,売地,掛川市大池２１２６,751,徒歩12分,所有権,40,1種低層,9.58,60,259,2025/7/10,-,-,相談,遠州鉄道(株)　事業用不動産流通グループ,053-488-8811,34.7760715,137.9935975
852,一般,売地,掛川市大渕,491,バス海3道2分,所有権,60,無指定,4.77,200,340,2025/7/13,-,-,更地渡し,(株)マストレ,053-448-5656,34.6832229,138.0059825
835,専任,売地,掛川市大渕,321,-,所有権,60,無指定,4.31,200,246,2025/7/7,-,-,更地渡し,(株)アーガス,0537-21-7777,34.6832229,138.0059825
417,専任媒介,売地,掛川市大渕,304,東海道本線 愛野,,,,,,,,,,,,,,
855,専任,売地,掛川市大渕,106,-,所有権,60,無指定,4.35,200,81,2025/7/24,-,-,-,(株)日成,0538-23-2850,34.6832229,138.0059825
634,一般,売地,掛川市大渕10430-26,500,バス海3道0本分線バス袋停井野徒中歩西4停0歩分4分,所有権,60,無指定,4.77,200,347,2025/6/5,-,-,現況渡し,すぎやま不動産株式会社,0537-28-9901,34.6797063,137.9972392
416,一般媒介,売地,掛川市大渕10483-18,200,東海道本線 袋井,,,,,,,,,,,,,,
834,売主,売地,掛川市大渕439-1,120,"バス海3道6本分線バス袋停井野距賀離停1歩3,27分",所有権,60,無指定,1.94,200,205,2025/6/30,-,-,現況渡し,(有)ワクダ総合企画,0537-72-6044,34.669583,138.0292072
851,専任,売地,掛川市大渕5615,450,バス海4道4本分線バス掛停川アイク前停歩8分,所有権,60,無指定,5.44,200,274,2025/7/14,-,-,現況渡し,合同フリーダムソリューションズ,0537-28-8604,34.6713628,138.0139497
853,専任,売地,掛川市大渕5652,495,-,所有権,60,無指定,4.56,200,359,2025/7/12,-,-,現況渡し,(有)サンケイ開発,0537-22-0366,34.6832229,138.0059825
854,専任,売地,掛川市大渕5652-1,515,-,所有権,60,無指定,5.19,200,328,2025/7/12,-,-,現況渡し,(有)サンケイ開発,0537-22-0366,34.6832229,138.0059825
2051,専任媒介,売地,掛川市大渕字野中10318番1,1180,掛川市大渕字野中10318番1,所有権,60,-,8.44,2,462,2025/5/7,-,-,更地渡し,(有)東邦宅建,053-434-8339,34.6758401,138.0024127
797,専任,売地,掛川市子隣175-18,686,-,所有権,60,無指定,6.85,200,331,2025/7/22,-,-,現況渡し,(有)サンケイ開発,0537-22-0366,34.7408526,138.040669
570,一般,売地,掛川市安養寺2-1,801,-,所有権,30,1種低層,6.79,50,390,2025/6/14,-,-,相談,(有)マイスター工房,0537-37-2811,34.7896402,138.0372676
780,媒介,売地,掛川市安養寺46番1 外5筆,1362,-,所有権,60,無指定,2.55,200,1766,2025/7/22,-,-,相談,(有)マイスター工房,0537-37-2811,34.7896402,138.0372676
824,一般,売地,掛川市宮脇,701,バス停成滝東停歩10分,所有権,60,1種中高,3.73,150,621,2025/7/21,-,-,現況渡し,(株)アーガス,0537-21-7777,34.7842856,138.0320005
412,一般媒介,売地,掛川市宮脇,1180,東海道本線 掛川 徒歩3344分,所有権,60,１種中高,14.46,150,270,2025/5/17,-,-,相談,(株)トダックス,0537-26-2161,34.7842856,138.0320005
610,専任,売地,掛川市宮脇,980,-,所有権,30,1種低層,10.66,50,304,2025/6/25,-,-,更地渡し,(株)アーガス,0537-21-7777,34.7842856,138.0320005
611,専任,売地,掛川市宮脇1-1,85,バス海1道0本分線バス掛停川宮脇東停歩9分,所有権,60,1種住居,9.66,200,29,2025/6/14,-,-,-,トヨタホームふじ,055-929-8855,34.7844574,138.036
827,売主,売地,掛川市宮脇1161-1,1351,-,所有権,30,1種低層,13.38,50,334,2025/7/3,-,-,更地渡し,(有)マイスター工房,0537-37-2811,34.7842856,138.0320005
825,売主,売地,掛川市宮脇1161-7,1171,-,所有権,30,1種低層,15.48,50,250,2025/7/3,-,-,相談,(有)マイスター工房,0537-37-2811,34.7842856,138.0320005
828,媒介,売地,掛川市宮脇1181-1他８筆,3558,バス海2道2分,所有権,60,無指定,4.01,200,2933,2025/7/9,-,-,現況渡し,ジーティーシー,053-477-5900,34.7842856,138.0320005
826,専任,売地,掛川市宮脇910-7,1195,徒歩34分,所有権,30,1種低層,12.01,50,329,2025/7/12,-,-,現況渡し,(有)サンケイ開発,0537-22-0366,34.7848379,138.0306402
759,一般,売地,掛川市家代301-7,600,-,所有権,60,無指定,9.07,200,219,2025/7/8,-,-,現況渡し,ウイングホーム(株),0537-36-3425,34.7957595,137.9838834
781,専属専任,売地,掛川市家代63,1150,徒歩23分,所有権,60,無指定,9.21,200,413,2025/7/10,-,-,現況渡し,不動産ショップあさい(株),0586-85-8851,34.7886627,137.9833831
816,専任,売地,掛川市富部,501,徒歩6分,所有権,60,1種中高,3.47,150,477,2025/7/8,-,-,更地渡し,(株)アーガス,0537-21-7777,34.7809559,137.9700737
818,専任,売地,掛川市富部,1251,徒歩5分,所有権,60,1種中高,6,150,690,2025/7/21,-,-,相談,(株)アーガス,0537-21-7777,34.7809559,137.9700737
817,専任,売地,掛川市富部,681,-,所有権,40,1種低層,7.76,60,290,2025/7/24,-,-,更地渡し,(株)アーガス,0537-21-7777,34.7809559,137.9700737
1959,専任媒介,売地,掛川市富部,600,掛川市富部,所有権,60,-,10.96,2,181,2025/5/5,-,-,相談,(株)アーガス,0537-21-7777,34.7809559,137.9700737
815,一般,売地,掛川市富部,331,徒歩3分,所有権,60,工業地域,2.61,200,419,2025/7/2,-,-,相談,(株)アーガス,0537-21-7777,34.7809559,137.9700737
819,専任,売地,掛川市富部745-1,2501,徒歩5分,所有権,60,1種中高,10.88,150,760,2025/7/19,-,-,現況渡し,(株)泰平不動産,0538-45-3766,34.7809559,137.9700737
856,専任,売地,掛川市小貫1498-1,661,徒歩5分,所有権,60,無指定,6.89,200,317,2025/6/30,-,-,更地渡し,(有)ワクダ総合企画,0537-72-6044,34.7187928,138.0443944
877,一般,売地,掛川市山崎,481,-,所有権,60,無指定,4.67,200,340,2025/7/2,-,-,更地渡し,(株)アーガス,0537-21-7777,34.7013986,137.9787391
785,代理,売地,掛川市岡津356,128,-,所有権,60,無指定,4.22,200,100,2025/7/22,-,-,-,ウイングホーム(株),0537-36-3425,34.7718403,137.9700737
626,専任,売地,掛川市岩滑１２７７－１,351,バス停稲荷部公会堂停歩19分,所有権,60,無指定,2,200,580,2025/6/8,-,-,現況渡し,遠州鉄道(株)　掛川店・掛川住宅プラザ,0537-23-5103,34.7041166,138.0691908
605,一般,売地,掛川市成滝,1895,バス停成滝停歩3分,所有権,60,1種住居,12,200,522,2025/6/12,-,-,現況渡し,(株)アーガス,0537-21-7777,34.7784893,138.034479
787,専任,売地,掛川市掛川1035-7,901,-,所有権,80,2種低層,10.47,200,284,2025/7/12,-,-,現況渡し,(有)サンケイ開発,0537-22-0366,34.7765961,138.0193128
2008,専任媒介,売地,掛川市旭ケ丘１丁目,1600,掛川市旭ケ丘１丁目,所有権,50,-,22.09,2,240,2025/5/8,-,-,更地渡し,(株)トダックス,0537-26-2161,34.7820786,138.0227069
618,媒介,売地,掛川市旭ケ丘２丁目1番2、1番3 計2筆,4522,-,所有権,60,1種中高,18.94,150,789,2025/6/5,-,-,相談,(株)金田組,0537-22-7158,43.0404095,141.3210684
606,一般,売地,掛川市本郷1449-10,981,徒歩3分,所有権,60,無指定,7.68,200,422,2025/6/12,-,-,更地渡し,(株)金田工務店,0537-22-9883,34.8098636,137.9556279
1975,専任媒介,売地,掛川市本郷22-11,566,掛川市本郷22-11,所有権,60,-,11.01,2,170,2025/5/1,-,-,更地渡し,朝日住宅(株),0538-35-3500,34.8070354,137.9561434
821,専任,売地,掛川市本郷730,1969,-,所有権,60,無指定,10,200,651,2025/7/12,-,-,現況渡し,(有)サンケイ開発,0537-22-0366,34.8070079,137.9589345
822,専任,売地,掛川市本郷861-1,3745,徒歩7分,所有権,60,無指定,5.07,200,2442,2025/7/25,-,-,現況渡し,トダックスアパマン掛川,0537-23-6700,34.8070079,137.9589345
593,一般,売地,掛川市杉谷,1001,-,所有権,60,無指定,7.01,200,472,2025/6/19,-,-,更地渡し,(株)アーガス,0537-21-7777,34.7651156,138.0338594
807,専任,売地,掛川市杉谷414-7,1001,徒歩3分,所有権,60,-,7.01,200,472,2025/7/9,-,-,現況渡し,（株）丸久不動産,053-543-9000,34.7627164,138.0359681
884,専任,売地,掛川市杉谷南１丁目,1143,-,所有権,60,1種住居,14,200,270,2025/6/30,-,-,相談,(株)アーガス,0537-21-7777,34.7625051,138.0276633
425,専任媒介,売地,掛川市杉谷南１丁目22番6、22番7、22番8、22番15,2700,ＪＲ東海道新幹線 掛川 徒歩2233分,所有権,60,準工業,9.7,200,914,2025/5/16,-,-,現況渡し,トダックスアパマン掛川,0537-23-6700,35.6142488,139.6877873
866,一般,売地,掛川市杉谷南２丁目,980,-,所有権,60,1種中高,13.91,150,233,2025/7/12,-,-,相談,(株)アーガス,0537-21-7777,34.7629311,138.0313809
885,売主,売地,掛川市杉谷南２丁目23番2,781,徒歩24分,所有権,60,準工業,7.41,200,348,2025/7/11,-,-,相談,グッド不動産売買,053-488-9440,34.7654136,138.0191425
2119,媒介,売地,掛川市杉谷南２丁目3-6,980,掛川市杉谷南２丁目3-6,所有権,60,-,13.91,2,233,2025/5/8,-,-,現況渡し,戸塚建設(株)　駅南センターアーバンクリエイト,0537-21-5588,34.7647478,138.0157378
808,専任,売地,掛川市杉谷２丁目390,3552,-,所有権,60,1種住居,17.99,200,653,2025/7/12,-,-,現況渡し,(有)サンケイ開発,0537-22-0366,34.7656377,138.0350987
783,専任,売地,掛川市梅橋,6509,徒歩17分,所有権,60,無指定,5.08,200,4236,2025/7/17,-,-,更地渡し,(株)アーガス,0537-21-7777,34.7560749,137.9651226
883,一般,売地,掛川市横須賀,1001,-,所有権,60,1種住居,5.12,200,646,2025/7/24,-,-,更地渡し,(株)日成,0538-23-2850,34.7026758,137.9898825
879,専任,売地,掛川市横須賀,360,-,所有権,60,2種住居,3.98,200,299,2025/7/5,-,-,相談,(株)アーガス,0537-21-7777,34.7026758,137.9898825
878,専任,売地,掛川市横須賀,301,バス停横高入口停歩3分,所有権,80,近隣商業,3.95,200,252,2025/7/21,-,-,相談,(株)アーガス,0537-21-7777,34.7026758,137.9898825
882,一般,売地,掛川市横須賀,850,-,所有権,60,1種住居,4.35,200,646,2025/7/15,-,-,現況渡し,(株)ＡＦＣスマイルプラス　Ｓｍｉｆｅ浜松東店,053-423-4690,34.7026758,137.9898825
881,媒介,売地,掛川市横須賀1038-3,500,-,所有権,60,1種中高,6.38,100,259,2025/7/1,-,-,現況渡し,(株)丸玉,053-421-7360,34.6849699,137.9870094
880,一般,売地,掛川市横須賀1183-2,398,バス停秋葉中遠線停歩7分,所有権,60,2種中高,5.23,100,252,2025/7/14,-,-,現況渡し,(株)ザ・トーカイ　不動産部,054-273-4805,34.6799372,137.9771104
658,一般,売地,掛川市横須賀1401-6,651,-,所有権,60,無指定,4.08,200,527,2025/6/12,-,-,現況渡し,ＬＵＣＫＹ　ＨＯＭＥ(株),054-202-8166,34.6805197,137.9819096
860,一般,売地,掛川市横須賀1607-1,301,-,所有権,60,-,4.21,200,236,2025/7/14,-,-,現況渡し,(株)金田工務店,0537-22-9883,34.7026758,137.9898825
2104,専任媒介,売地,掛川市横須賀193,280,掛川市横須賀193,所有権,60,-,4.64,2,200,2025/5/5,-,-,現況渡し,センチュリー21中央不動産磐田店,0538-39-0500,34.6826811,137.9763067
859,専任,売地,掛川市横須賀507,252,バス停新横須賀停歩6分,所有権,60,1種住居,4.01,200,208,2025/7/1,-,-,現況渡し,平成不動産,0537-48-0576,34.683341,137.9787574
424,専任媒介,売地,掛川市横須賀４０９－１,232,バス停 西田町 停歩5分,所有権,60,１種住居,4,200,192,2025/5/16,-,-,現況渡し,平成不動産,0537-48-0576,34.7026758,137.9898825
823,専任,売地,掛川市水垂,1101,-,所有権,60,無指定,8.96,200,406,2025/7/21,-,-,相談,(株)アーガス,0537-21-7777,34.7859026,138.0196094
608,一般,売地,掛川市水垂114-6,400,徒歩23分,所有権,30,1種低層,5.07,50,261,2025/6/21,-,-,現況渡し,(株)不動産Ｌａｂｏ．,0538-33-6118,34.7826683,138.019431
840,専任,売地,掛川市沖之須,261,-,所有権,60,無指定,4.02,200,214,2025/6/26,-,-,現況渡し,(株)日成,0538-23-2850,34.6669849,137.9836915
800,専任,売地,掛川市沢田,491,徒歩18分,所有権,60,準工業,1.16,200,1398,2025/7/2,-,-,相談,(株)アーガス,0537-21-7777,34.771249,137.9781201
889,専任,売地,掛川市洋望台,764,-,所有権,50,1種低層,6.28,80,402,2025/7/21,-,-,相談,(株)アーガス,0537-21-7777,34.682975,137.9905016
888,専任,売地,掛川市洋望台,601,-,所有権,50,1種低層,4.14,80,480,2025/7/11,-,-,相談,(株)アーガス,0537-21-7777,34.682975,137.9905016
868,一般,売地,掛川市洋望台,351,バス停大須賀支所停歩7分,所有権,50,1種低層,5.41,80,214,2025/7/2,-,-,現況渡し,(株)アーガス,0537-21-7777,34.682975,137.9905016
2124,一般媒介,売地,掛川市洋望台,360,掛川市洋望台,所有権,50,-,6.3,2,189,2025/5/3,-,-,更地渡し,(株)アーガス,0537-21-7777,34.682975,137.9905016
427,一般媒介,売地,掛川市洋望台,420,バス停 横須賀車庫前 距離400m,所有権,60,１種低層,7.94,80,175,2025/5/20,-,-,相談,(株)アーガス,0537-21-7777,34.682975,137.9905016
890,専任,売地,掛川市洋望台,790,-,所有権,60,1種低層,7.75,80,337,2025/7/21,-,-,相談,(株)アーガス,0537-21-7777,34.682975,137.9905016
891,専任,売地,掛川市洋望台,902,バス停大須賀支所前距離80m-更地渡し転載不可万円所有権50%１種低層専任媒介679.0㎡(株)アーガス0537-21-74.39万円80%‐1082037074売地袋井市愛野2412-2の一部B号地2025/07/101640東海道本線愛野徒歩28分,所有権,50,1種低層,4.39,80,679,2025/7/13,-,-,更地渡し,(株)アーガス,0537-21-7777,34.682975,137.9905016
887,専任,売地,掛川市洋望台6-16.6-2.6-1.,582,バス停役場前停歩10分,所有権,50,1種低層,7,80,275,2025/7/23,-,-,現況渡し,平成不動産,0537-48-0576,34.682975,137.9905016
872,専任,売地,掛川市浜川新田356-1,486,-,所有権,60,無指定,5.82,200,276,2025/7/13,-,-,現況渡し,(株)プラスワン,0537-85-6550,34.6619833,138.0515803
875,一般,売地,掛川市浜野新田571-2,586,バス海2道5分,所有権,60,無指定,5,200,387,2025/6/30,-,-,現況渡し,(有)ワクダ総合企画,0537-72-6044,34.6678424,138.0358146
874,媒介,売地,掛川市浜野新田841,501,-,所有権,60,-,6.27,200,264,2025/7/13,-,-,現況渡し,(有)鈴木不動産,0537-74-3388,34.66752,138.0350987
873,専任,売地,掛川市浜野新田842-1,100,バス海3道1分,所有権,60,無指定,0.77,200,430,2025/6/30,-,-,現況渡し,(有)ワクダ総合企画,0537-72-6044,34.6679268,138.0389911
772,一般,売地,掛川市清崎,1320,-,所有権,60,1種中高,20.91,150,209,2025/7/10,-,-,相談,(株)アーガス,0537-21-7777,34.7751102,138.0000993
407,専任媒介,売地,掛川市満水,370,バス停 原下 距離160m,所有権,60,無指定,5.64,200,217,2025/5/19,-,-,更地渡し,(株)アーガス,0537-21-7777,34.7719078,138.0543668
809,専任,売地,掛川市満水,520,バス停沢渡橋停歩3分,所有権,60,無指定,2.43,200,708,2025/7/24,-,-,更地渡し,(株)アーガス,0537-21-7777,34.7719078,138.0543668
810,専任,売地,掛川市満水377-1,748,-,所有権,60,-,8,200,309,2025/7/12,-,-,現況渡し,(有)サンケイ開発,0537-22-0366,34.7719078,138.0543668
811,専任,売地,掛川市満水623-1,1001,-,所有権,60,-,6.67,200,496,2025/7/12,-,-,更地渡し,(有)サンケイ開発,0537-22-0366,34.7730424,138.0437515
596,一般,売地,掛川市満水90-2,981,バス海3道6本分線バス掛停川西山口小停歩10分,所有権,60,工業地域,11.92,200,272,2025/6/16,-,-,現況渡し,(株)大隅土地建物,053-443-8443,34.7719078,138.0543668
801,専任,売地,掛川市篠場,1221,-,所有権,60,無指定,11,200,367,2025/7/21,-,-,更地渡し,(株)アーガス,0537-21-7777,34.7570503,137.9768821
799,専任,売地,掛川市細田,197,徒歩2分,所有権,60,準工業,1.06,200,614,2025/7/2,-,-,相談,(株)アーガス,0537-21-7777,34.7725083,137.9824533
409,専任媒介,売地,掛川市細谷９３３－１,420,天竜浜名湖鉄道 細谷 徒歩66分,所有権,60,無指定,8,200,174,2025/5/20,-,-,更地渡し,遠州鉄道(株)　掛川店・掛川住宅プラザ,0537-23-5103,34.7935814,137.9632765
768,専任,売地,掛川市葛ケ丘３丁目１３－４,1480,バス停葛ヶ丘三丁目停歩6分,所有権,60,1種中高,20.48,150,239,2025/7/7,-,-,更地渡し,遠州鉄道(株)　掛川店・掛川住宅プラザ,0537-23-5103,34.7866656,138.0300263
793,専任,売地,掛川市葛川,601,徒歩17分,所有権,60,1種中高,3.28,150,606,2025/7/24,-,-,相談,(株)アーガス,0537-21-7777,34.7761551,138.0279375
794,売主,売地,掛川市葛川,1072,徒歩17分,所有権,60,準住居,11.77,200,301,2025/7/1,-,-,更地渡し,(株)アーガス,0537-21-7777,34.7761551,138.0279375
794,専任,売地,掛川市薗ケ谷13-1,851,-,所有権,60,工業地域,11.98,200,235,2025/7/12,-,-,現況渡し,(有)サンケイ開発,0537-22-0366,34.782485,138.0418866
851,一般,売地,掛川市西大渕,405,-,所有権,50,1種低層,5.99,80,224,2025/7/14,-,-,相談,(株)アーガス,0537-21-7777,34.6756257,137.9823679
422,専任媒介,売地,掛川市西大渕,648,バス停 東番町 距離240m,所有権,60,１種中高,4.91,100,436,2025/5/19,25.83,-,更地渡し,(株)アーガス,0537-21-7777,34.6756257,137.9823679
650,一般,売地,掛川市西大渕,499,バス停大須賀支所停歩9分,所有権,50,1種低層,3.93,80,419,2025/6/12,-,-,更地渡し,(株)アーガス,0537-21-7777,34.6756257,137.9823679
867,一般,売地,掛川市西大渕,400,-,所有権,60,無指定,3.36,200,394,2025/7/12,-,-,相談,(株)アーガス,0537-21-7777,34.6756257,137.9823679
870,専任,売地,掛川市西大渕,91,-,所有権,60,1種中高,4.91,100,26,2025/7/20,-,-,-,(株)アーガス,0537-21-7777,34.6756257,137.9823679
871,一般,売地,掛川市西大渕,670,-,所有権,60,2種中高,6.62,100,335,2025/7/24,-,-,更地渡し,(株)アーガス,0537-21-7777,34.6756257,137.9823679
649,一般,売地,掛川市西大渕155-1,400,バス停大須賀役場前停歩3分,所有権,60,無指定,3.36,200,394,2025/6/10,-,-,現況渡し,平成不動産,0537-48-0576,34.6782302,137.9889693
869,専任,売地,掛川市西大渕4311-2,518,バス停西田町停歩1分,所有権,60,2種中高,4.5,200,381,2025/7/23,-,-,現況渡し,平成不動産,0537-48-0576,34.6826531,137.9734226
653,一般,売地,掛川市西大渕5289-2,670,-,所有権,70,2種中高,6.62,100,335,2025/6/20,-,-,相談,しずなび(株)　浜松東店,053-467-6700,34.6813529,137.9777444
868,専任,売地,掛川市西大渕５６７０－１２,480,バス停東番町停歩7分,所有権,60,1種中高,5.83,100,272,2025/7/1,-,-,現況渡し,遠州鉄道(株)　掛川店・掛川住宅プラザ,0537-23-5103,34.683176,137.986961
604,売主,売地,掛川市長谷46番1外3筆,3984,徒歩12分,所有権,60,準工業,13,200,1013,2025/6/4,-,-,更地渡し,(株)リサイクルクリーン　天竜不動産,053-926-2511,34.7686961,137.9863153
1964,専任媒介,売地,掛川市長谷２２８、２２９－１,600,掛川市長谷２２８、２２９－１,所有権,70,-,10.38,2,191,2025/5/8,-,-,更地渡し,遠州鉄道(株)　掛川店・掛川住宅プラザ,0537-23-5103,34.7663358,137.9948358
813,専任,売地,掛川市青葉台５６１番地の１０７,800,バス停葛川（静岡県）停歩1分,所有権,60,1種中高,12.33,150,214,2025/6/28,-,-,現況渡し,遠州鉄道(株)　掛川店・掛川住宅プラザ,0537-23-5103,34.7725753,138.0326201
617,専任,売地,掛川市青葉台６１８・６１９,1050,徒歩24分,所有権,60,1種中高,13.29,150,261,2025/6/25,-,-,現況渡し,遠州鉄道(株)　掛川店・掛川住宅プラザ,0537-23-5103,34.7725753,138.0326201
615,一般,売地,掛川市領家３６－１、３５－１,7003,バス海2道0本分線バス掛停川末広町（掛川市）停歩13分,所有権,60,工業地域,18.93,200,1223,2025/6/25,-,-,相談,遠州鉄道(株)　事業用不動産流通グループ,053-488-8811,34.7648142,137.9750252
775,専任,売地,掛川市高御所107-1,1601,徒歩2分,所有権,60,工業地域,24.61,200,215,2025/7/8,-,-,現況渡し,ＦｉｒｓｔＧｌａｓｓ(株),054-295-5344,34.758905,137.9930421
796,専任,売地,掛川市高御所1690,1615,-,所有権,60,工業地域,20,200,267,2025/7/12,-,-,現況渡し,(有)サンケイ開発,0537-22-0366,34.7574069,137.9898825
862,一般,売地,掛川市高瀬,500,-,所有権,60,無指定,5.73,150,289,2025/6/26,-,-,相談,(株)アーガス,0537-21-7777,34.7285394,138.0431549
863,専任,売地,掛川市高瀬2105,801,-,所有権,60,無指定,9.17,200,289,2025/7/12,-,-,現況渡し,(有)サンケイ開発,0537-22-0366,34.7213937,138.0518932
643,一般,売地,掛川市高瀬2105-1,801,バス海1道6本分線バス掛停川高瀬ガーデンヒル停歩1分,所有権,60,無指定,9.17,200,289,2025/6/17,-,-,更地渡し,センチュリー21中央不動産磐田店,0538-39-0500,34.7213937,138.0518932
420,一般媒介,売地,掛川市高瀬2105-1,800,東海道本線 掛川,,,,,,,,,,,,,,
253,一般,売地,浜松市中央区三和町,1095,バス海1道2分,所有権,70,無指定,10,200,362,2025/7/21,-,-,相談,(株)マストレ,053-448-5656,34.7065131,137.7674557
254,一般,売地,浜松市中央区三和町539,2339,徒歩24分,所有権,60,無指定,11,200,703,2025/7/15,-,-,現況渡し,みき不動産(株),053-581-9266,34.7065131,137.7674557
275,一般,売地,浜松市中央区三島町,2505,徒歩30分,所有権,60,無指定,4.86,200,1704,2025/6/7,-,-,現況渡し,浜松損害保険サービス(株),053-459-4180,34.6879775,137.7452641
234,専任媒介,売地,浜松市中央区三島町147,1430,バス停 瓜内東 停歩2分,所有権,60,無指定,2.72,200,208,2025/5/19,-,-,建築条件付,エムレップ不動産,053-401-2266,34.6879775,137.7452641
426,媒介,売地,浜松市中央区三島町1793,1450,徒歩27分,所有権,60,1種住居,19.11,200,251,2025/7/1,-,-,更地渡し,(株)丸玉,053-421-7360,34.6930698,137.7506763
411,売主,売地,浜松市中央区三島町212-11,1390,徒歩25分,所有権,60,無指定,21.38,200,215,2025/7/12,-,-,更地渡し,しずなび(株)　浜松駅南店,053-453-3731,34.6879459,137.7395443
412,一般,売地,"浜松市中央区三島町212-11,213-2",1390,徒歩25分,所有権,60,無指定,21.32,200,216,2025/6/26,-,-,現況渡し,(株)アランアール,053-488-5590,34.6880997,137.7396053
427,専任,売地,浜松市中央区三島町26-1,9501,徒歩19分,所有権,60,1種住居,35.49,200,885,2025/7/15,-,-,現況渡し,(株)アール・プランニング,03-3491-0056,34.6879775,137.7452641
274,一般,売地,浜松市中央区三島町825-1,2505,徒歩29分,所有権,60,-,4.86,200,1704,2025/6/7,-,-,現況渡し,冨士物産(株)　浜松店,053-411-2223,34.6879775,137.7452641
413,売主,売地,浜松市中央区三島町１６３８－１他,1430,バス停平安前停歩6分,所有権,60,1種住居,23.3,200,203,2025/7/10,-,-,現況渡し,遠州鉄道(株)　買取再生グループ,053-488-8807,34.6900575,137.7537968
428,専任,売地,浜松市中央区三幸町177番1,10901,徒歩39分,所有権,60,無指定,5,200,7207,2025/7/21,-,-,現況渡し,冨士物産(株)　浜松店,053-411-2223,34.8019602,137.7218497
125,専任,売地,浜松市中央区三新町字中通297番1・298番,553,"バス海停道遠本州線浜温松泉距停離歩178,6分",所有権,60,無指定,4.38,160,417,2025/6/16,-,-,現況渡し,(株)リサイクルクリーン　天竜不動産,053-926-2511,34.6654208,137.7859558
106,専任媒介,売地,浜松市中央区三新町７１４－３,530,バス停 遠州浜温泉 停歩10分,所有権,60,無指定,8.3,200,210,2025/5/22,-,-,相談,遠州鉄道(株)　浜北店,053-581-1124,34.657462,137.7849332
422,媒介,売地,浜松市中央区三方原町,933,バス停百里園停歩5分,所有権,60,無指定,11.06,200,279,2025/6/26,-,-,-,とぴあ浜松農業協同組合不動産センター有玉店,053-476-3152,34.785159,137.7100922
408,一般,売地,浜松市中央区三方原町,1780,バス海4道1本分線バス浜停松奥大谷停歩9分,所有権,60,無指定,28.51,200,206,2025/6/26,-,-,更地渡し,(株)マストレ　高林支店,053-472-5656,34.785159,137.7100922
407,一般,売地,浜松市中央区三方原町,1685,バス海4道2本分線バス浜停松新豊院停歩1分,所有権,60,無指定,25,200,223,2025/7/7,-,-,更地渡し,(株)マストレ,053-448-5656,34.785159,137.7100922
404,媒介,売地,浜松市中央区三方原町1093-1,955,バス州1鉄5分,所有権,60,-,13.5,200,234,2025/7/7,-,-,建築条件付,ひばり開発(株),053-488-7477,34.785159,137.7100922
421,媒介,売地,浜松市中央区三方原町1262-14,970,バス海3道8本分線バス浜停松豊岡小入口停歩3分,所有権,60,無指定,10.66,200,301,2025/7/19,-,-,現況渡し,RBS有限会社,053-443-8578,34.7850426,137.7173189
268,専任,売地,浜松市中央区三方原町1493-1,746,バス停遠鉄バス「権七」停歩4分,所有権,60,-,6.5,200,379,2025/6/10,-,-,相談,(株)グリーンランド,052-744-3833,34.785159,137.7100922
270,媒介,売地,浜松市中央区三方原町1526,10354,バス海4道0本分線バス浜停松百里園停歩4分,所有権,60,無指定,12.98,200,2637,2025/6/17,-,-,建築条件付,RBS有限会社,053-443-8578,34.7822914,137.7054142
414,一般,売地,浜松市中央区三方原町1543-5,631,バス停新豊院停歩5分,所有権,60,-,6.95,200,300,2025/7/3,-,-,更地渡し,とぴあ浜松農業協同組合不動産センター有玉店,053-476-3152,34.784446,137.7052196
229,★売主,売地,浜松市中央区三方原町1641-9,870,バス停 遠鉄バス停「新豊院」 停歩6分,所有権,60,無指定,10.97,200,262,2025/5/19,-,-,建築条件付,浜松太陽住宅(株),053-437-6030,34.7860378,137.7115834
412,媒介,売地,浜松市中央区三方原町182９-1 から分筆,139,バス海2道5分,所有権,60,無指定,4.07,200,113,2025/7/1,-,-,-,(有)イーエム,053-437-1980,34.7852802,137.7022554
420,媒介,売地,浜松市中央区三方原町1912,950,バス停一里山バス停歩6分,所有権,60,無指定,9,200,349,2025/7/5,-,-,現況渡し,(有)弥生不動産,053-587-0030,34.785159,137.7100922
415,一般,売地,浜松市中央区三方原町1990-1の一部,666,バス海3道5分,所有権,60,無指定,8.07,200,273,2025/7/16,-,-,現況渡し,遠州トラック(株)不動産営業所,0538-42-0001,34.785159,137.7100922
396,媒介,売地,浜松市中央区三方原町2012-8,515,バス停豊岡停歩6分,所有権,60,-,8,200,213,2025/7/8,-,-,更地渡し,(有)天商,053-436-6708,34.7900925,137.7109707
893,媒介,売地,浜松市中央区三方原町2095番3、2097番3,780,浜松市中央区三方原町2095番3、2097番3,所有権,-,-,5.2,2,496,2025/5/8,-,-,更地渡し,とぴあ浜松農業協同組合不動産センター有玉店,053-476-3152,34.7905988,137.7080767
881,一般媒介,売地,浜松市中央区三方原町2200番15,160,浜松市中央区三方原町2200番15,所有権,-,-,4.6,2,115,2025/5/2,-,-,現況渡し,まちかど相談室,053-485-0626,34.7878552,137.7015694
419,媒介,売地,浜松市中央区三方原町2208番10,951,バス停新豊院停歩9分,所有権,-,-,3.29,-,956,2025/7/8,-,-,現況渡し,とぴあ浜松農業協同組合不動産センター有玉店,053-476-3152,34.7871909,137.7016333
395,専任,売地,浜松市中央区三方原町2325-1,503,"バス州3鉄0道分バ遠ス州停西一ヶ里崎山距停離歩75,2分",所有権,60,無指定,8,200,208,2025/7/11,-,-,相談,(株)リデコ,053-488-4537,34.785159,137.7100922
225,専任媒介,売地,浜松市中央区三方原町2325-1,503,"遠州鉄道 遠州西ヶ崎 距離77,220000m",,,,,,,,,,,,,,
417,専任,売地,浜松市中央区三方原町2352-4,701,バス停一里山停歩6分,所有権,60,無指定,7.02,200,330,2025/7/4,-,-,現況渡し,(株)マエフジ不動産,053-472-3341,34.7878936,137.6988162
269,媒介,売地,浜松市中央区三方原町2745-1,3179,バス海2道5分,所有権,60,無指定,27,200,389,2025/6/4,-,-,現況渡し,(有)イーエム,053-437-1980,34.787096,137.6955594
903,専任媒介,売地,浜松市中央区三方原町403-2,1750,浜松市中央区三方原町403-2,所有権,60,-,27.04,2,214,2025/5/2,-,-,現況渡し,(株)不動産Ｌａｂｏ．,0538-33-6118,34.7770207,137.7205253
406,売主,売地,浜松市中央区三方原町49 付近,1498,バス停遠鉄バス「曳馬野」停歩4分,所有権,60,無指定,23.87,200,207,2025/6/26,-,-,建築条件付,(株)ベスト・ハウジング,053-474-6252,34.7729904,137.7162995
230,一般媒介,売地,浜松市中央区三方原町951番1の一部,898,バス停 遠鉄　百園 停歩3分,所有権,-,-,10,,297,2025/5/22,-,-,相談,とぴあ浜松農業協同組合不動産センター有玉店,053-476-3152,34.7814205,137.7117629
266,売主,売地,浜松市中央区三方原町１３４２－１の一部(B号地),636,バス停豊岡小入口停歩2分,所有権,60,-,4.24,200,496,2025/6/4,-,-,更地渡し,古田不動産(株),053-581-9801,34.7837629,137.7126897
416,売主,売地,浜松市中央区三方原町１３４２－６(D号地),700,バス停豊岡小入口停歩2分,所有権,60,-,6.05,200,383,2025/7/22,-,-,更地渡し,古田不動産(株),053-581-9801,34.7837629,137.7126897
418,専任,売地,浜松市中央区三方原町１３６３－３,761,バス海3道2分,所有権,60,無指定,5.06,200,497,2025/7/8,-,-,現況渡し,遠州鉄道(株)　事業用不動産流通グループ,053-488-8811,34.7840245,137.7114355
413,専任,売地,浜松市中央区三方原町１７２４－２４,552,バス停豊岡（静岡県）（バス）停歩7分,所有権,60,無指定,3.21,200,568,2025/7/5,-,-,現況渡し,遠州鉄道(株)　事業用不動産流通グループ,053-488-8811,34.7889705,137.711459
228,専任媒介,売地,浜松市中央区三方原町２２５５－１,731,バス停 一里山 停歩6分,所有権,60,無指定,8,200,302,2025/5/22,-,-,現況渡し,遠州鉄道(株)　高台店,053-437-1976,34.7856425,137.6992237
409,専任,売地,浜松市中央区三方原町６８６－１,2250,バス停三方原停歩4分,所有権,60,無指定,28.13,200,264,2025/7/1,-,-,更地渡し,遠州鉄道(株)　高台店,053-437-1976,34.7786851,137.7136494
425,専属専任,売地,浜松市中央区三組町,15000,バス海8道分本バ線ス浜停松秋葉坂下停歩3分,所有権,70,1種住居,44.41,200,1117,2025/7/21,-,-,-,(有)ホームズ,053-455-2223,34.7089332,137.7203096
410,専任,売地,浜松市中央区三組町173-16,3481,徒歩21分,所有権,60,2種住居,47.4,200,243,2025/6/29,-,-,現況渡し,AGILE,053-568-2073,34.7080784,137.7228266
232,★売主,売地,浜松市中央区三組町175-3,2950,ＪＲ東海道新幹線 浜松 徒歩2200分,所有権,60,２種住居,50.37,200,194,2025/5/21,-,-,現況渡し,AGILE,053-568-2073,34.7089332,137.7203096
231,★売主,売地,浜松市中央区三組町175-6,2350,ＪＲ東海道新幹線 浜松 徒歩2200分,所有権,60,２種住居,51.07,200,152,2025/5/21,-,-,現況渡し,AGILE,053-568-2073,34.7089332,137.7203096
424,売主,売地,"浜松市中央区三組町28番64,65",7001,徒歩25分,所有権,60,1種中高,30.96,160,748,2025/7/21,-,-,現況渡し,冨士物産(株)　浜松店,053-411-2223,34.7107384,137.7197678
423,専任,売地,浜松市中央区三組町３２－１,3200,バス停高町（静岡県）停歩3分,所有権,60,1種住居,39.86,200,265,2025/7/15,-,-,更地渡し,遠州鉄道(株)　浜松店,053-471-0202,34.7095356,137.7204324
76,★売主,売地,浜松市中央区上島１丁目9-22 付近,1898,遠州鉄道 曳馬 徒歩1100分,所有権,60,１種住居,42.62,200,147,2025/5/21,-,-,建築条件付,(株)ベスト・ハウジング,053-474-6252,34.737418,137.7398757
77,★売主,売地,浜松市中央区上島３丁目178－4,1880,遠州鉄道 上島 徒歩88分,所有権,60,１種住居,49.81,160,125,2025/5/20,-,-,建築条件付,三井ホーム(株)　浜松支店,053-555-5331,34.739083,137.7477294
80,一般,売地,浜松市中央区上島４丁目,2661,徒歩10分,所有権,60,1種住居,39.18,200,224,2025/7/14,-,-,現況渡し,(株)マストレ　高林支店,053-472-5656,34.7433259,137.7483457
85,専任,売地,浜松市中央区上島６丁目2680-9,1950,徒歩10分,所有権,60,2種住居,19.19,200,336,2025/7/2,-,-,現況渡し,センチュリー21中央不動産浜松店,053-584-0021,34.7439861,137.737869
271,専任媒介,売地,浜松市中央区上島６丁目2680番3,888,浜松市中央区上島６丁目2680番3,所有権,60,-,26.24,2,112,2025/5/8,-,-,現況渡し,(株)アモルテ,053-522-8885,34.7439861,137.737869
86,専任,売地,浜松市中央区上島６丁目１３－１０,3301,徒歩15分,所有権,60,1種中高,28.78,200,379,2025/7/13,-,-,相談,遠州鉄道(株)　高台店,053-437-1976,34.7405217,137.7356541
82,売主,売地,浜松市中央区上島６丁目２５０７－４３,2049,バス停上島住宅入口停歩1分,所有権,60,1種住居,29,200,234,2025/6/26,-,-,現況渡し,遠州鉄道(株)　買取再生グループ,053-488-8807,34.7439861,137.737869
276,一般媒介,売地,浜松市中央区上島７丁目２６,980,浜松市中央区上島７丁目２６,所有権,60,-,20.91,2,155,2025/5/2,-,-,現況渡し,遠州鉄道(株)　高台店,053-437-1976,34.747003,137.7409501
79,専任,売地,浜松市中央区上新屋町201-4,1730,徒歩23分,所有権,60,1種住居,26.85,200,213,2025/7/8,-,-,更地渡し,浜松損害保険サービス(株),053-459-4180,34.7319125,137.7570715
256,一般媒介,売地,浜松市中央区上浅田１丁目,1180,浜松市中央区上浅田１丁目,所有権,60,-,26.65,2,146,2025/5/4,-,-,更地渡し,(株)マストレ　高林支店,053-472-5656,34.695738,137.7273943
83,専任,売地,浜松市中央区上浅田２丁目,2980,バス海1道1分,所有権,60,1種住居,27.52,200,358,2025/7/6,-,-,相談,(株)マストレ,053-448-5656,34.6945111,137.7298587
71,専任,売地,浜松市中央区上浅田２丁目,1981,バス海2道0本分線バス浜停松浅田宮前停歩2分,所有権,60,1種住居,25.46,200,257,2025/6/25,-,-,更地渡し,(株)マストレ,053-448-5656,34.6945111,137.7298587
84,専任,売地,浜松市中央区上石田町2178-2,1180,バス海2道9分,所有権,60,無指定,11.02,200,354,2025/7/15,-,-,現況渡し,(株)テラニシ,053-523-6201,34.7503458,137.7819481
75,専任媒介,売地,浜松市中央区上石田町2178-2,2756,バス停 上石田西 停歩4分,所有権,60,-,14,200,651,2025/5/16,-,-,現況渡し,上島不動産(株),053-473-5000,34.7503458,137.7819481
280,★売主,売地,浜松市中央区上西町字西表1164番4,1650,浜松市中央区上西町字西表1164番4,所有権,60,用途地域,44.31,2,123,2025/5/2,-,-,相談,ホームポジション(株)　浜松支店,053-582-6500,34.7238499,137.7600575
266,媒介,売地,浜松市中央区下江町,783,バス停下江町停歩5分,所有権,60,-,7,200,370,2025/7/11,-,-,現況渡し,(株)山崎不動産,053-463-8713,34.6799378,137.7705386
268,媒介,売地,浜松市中央区下江町,920,バス停南陽公民館停歩4分,所有権,60,-,8,200,380,2025/7/11,-,-,現況渡し,(株)山崎不動産,053-463-8713,34.6799378,137.7705386
265,一般,売地,浜松市中央区下江町,715,バス停四本松停歩1分,所有権,60,無指定,5.01,200,472,2025/6/27,-,-,現況渡し,あららぎ不動産(株),053-464-5557,34.6799378,137.7705386
264,媒介,売地,浜松市中央区下江町,545,バス停南陽公民館停歩4分,所有権,60,-,8.01,200,225,2025/7/11,-,-,現況渡し,(株)山崎不動産,053-463-8713,34.6799378,137.7705386
267,一般,売地,浜松市中央区下江町492・493,783,バス停下江町前停歩6分,所有権,60,-,7,200,370,2025/6/26,-,-,現況渡し,とぴあ浜松農業協同組合不動産センター有玉店,053-476-3152,34.6799378,137.7705386
264,媒介,売地,浜松市中央区下江町６６８－①,656,バス停下江町停歩8分,所有権,60,-,8.51,200,255,2025/7/11,-,-,現況渡し,(株)山崎不動産,053-463-8713,34.6799378,137.7705386
263,媒介,売地,浜松市中央区下江町６６８－③,580,バス停下江町停歩8分,所有権,60,-,7.52,200,255,2025/7/11,-,-,現況渡し,(株)山崎不動産,053-463-8713,34.6799378,137.7705386
263,媒介,売地,浜松市中央区下石田町,1631,-,所有権,60,1種住居,26.93,200,200,2025/7/1,-,-,更地渡し,アスティア,053-543-9988,34.7388826,137.7847223
133,媒介,売地,浜松市中央区下石田町1315,551,バス停下石田南停歩9分,所有権,60,無指定,5.37,200,339,2025/6/4,-,-,現況渡し,丸八不動産(株),053-455-0808,34.7388826,137.7847223
261,専任,売地,浜松市中央区下石田町1351,601,徒歩94分,所有権,60,-,7.88,200,252,2025/6/27,-,-,更地渡し,(株)不動産Ｌａｂｏ．,0538-33-6118,34.7388826,137.7847223
135,専任,売地,浜松市中央区下石田町1578-1,5601,バス海停道下本石線田天南竜距川離徒15歩0m29分,所有権,60,無指定,10.45,160,1772,2025/6/10,-,-,更地渡し,アセットクローバー,053-476-6001,34.7351934,137.7828085
262,一般,売地,浜松市中央区下石田町1583-1,661,徒歩30分,所有権,60,無指定,7,200,312,2025/7/13,-,-,現況渡し,しずなび(株)　浜松東店,053-467-6700,34.73507,137.783419
134,媒介,売地,浜松市中央区下石田町492-1,801,バス停浜松インター停歩12分,所有権,60,-,9.95,200,266,2025/6/5,-,-,相談,とぴあ浜松農業協同組合不動産センター有玉店,053-476-3152,34.7388826,137.7847223
260,一般,売地,浜松市中央区下飯田町166,1346,徒歩29分,所有権,60,-,19.01,200,234,2025/6/30,-,-,更地渡し,テクノ不動産(有),053-484-1107,34.6986775,137.7797104
658,専任媒介,売地,浜松市中央区中島１丁目,480,浜松市中央区中島１丁目,所有権,80,-,28.87,2,55,2025/5/2,-,-,相談,あららぎ不動産(株),053-464-5557,34.7047384,137.7458804
324,一般,売地,浜松市中央区中島２丁目,1200,バス停諏訪神社入口停歩3分,所有権,60,1種住居,19.07,200,208,2025/7/4,-,-,更地渡し,あららぎ不動産(株),053-464-5557,34.7018492,137.747113
663,媒介,売地,浜松市中央区中島２丁目1-2,2220,浜松市中央区中島２丁目1-2,所有権,60,-,38.95,2,188,2025/5/2,-,-,更地渡し,アスティア,053-543-9988,34.7032901,137.7453494
325,一般,売地,浜松市中央区中島２丁目928-2,1200,バス停遠鉄バス／バス停「諏訪神社入口停歩4分,所有権,60,1種住居,19.07,200,208,2025/6/29,-,-,更地渡し,しずなび(株)　浜松東店,053-467-6700,34.7018492,137.747113
326,一般,売地,浜松市中央区中島３丁目23-6,2300,徒歩19分,所有権,60,1種住居,33.84,200,225,2025/7/2,-,-,現況渡し,西村建設(株),0533-66-3221,34.6990795,137.7488273
162,★媒介,売地,浜松市中央区中島４丁目23-8,2964,バス停 領家西 停歩2分,所有権,60,１種住居,3,200,297,2025/5/22,-,-,相談,(株)プラス,053-478-5511,34.6952792,137.7495492
161,専任媒介,売地,浜松市中央区中島４丁目２０１,1118,東海道本線 浜松 徒歩1199分,所有権,70,１種住居,3.01,200,112,2025/5/22,-,-,現況渡し,遠州鉄道(株)　事業用不動産流通グループ,053-488-8811,34.6965755,137.7474212
159,★売主,売地,浜松市中央区中沢町364番70,840,バス停 常楽寺 停歩4分,所有権,60,２種中高,25.26,200,110,2025/5/19,-,-,建築条件付,浜松太陽住宅(株),053-437-6030,34.7203681,137.7304748
325,専属専任,売地,浜松市中央区中沢町40-8,2281,徒歩16分,所有権,60,2種中高,25.82,200,292,2025/7/12,-,-,現況渡し,田舎暮らしNavi（株）,0794-43-5258,34.7216616,137.7268744
656,専任媒介,売地,浜松市中央区中沢町76-23,990,浜松市中央区中沢町76-23,所有権,80,-,15.2,2,215,2025/5/3,-,-,現況渡し,しずなび(株)　藤枝店,054-639-9816,34.721954,137.7319214
327,専任,売地,浜松市中央区中田島町,1201,バス海1道0本分線バス浜停松新田停歩1分,所有権,60,無指定,11.92,200,333,2025/7/18,-,-,更地渡し,(株)マストレ,053-448-5656,34.6647823,137.7415664
326,専任,売地,浜松市中央区中田島町,1001,バス停遠鉄バス中田島砂丘停歩2分,所有権,60,2種中高,13.23,200,250,2025/6/26,-,-,現況渡し,とぴあ浜松農業協同組合不動産センター有玉店,053-476-3152,34.6647823,137.7415664
328,一般,売地,浜松市中央区中田島町6-1,1690,-,所有権,60,無指定,7,200,798,2025/7/23,-,-,現況渡し,ＳＭＤ不動産(株),053-401-4235,34.6647823,137.7415664
164,媒介,売地,浜松市中央区中田島町820,229,バス停 新崎裏 停歩7分,所有権,-,無指定,1.01,,756,2025/5/22,-,-,相談,(株)プラス,053-478-5511,34.6647823,137.7415664
165,媒介,売地,浜松市中央区中田島町851,261,バス停 新崎裏 停歩9分,所有権,-,無指定,1,,863,2025/5/22,-,-,相談,(株)プラス,053-478-5511,34.6647823,137.7415664
166,媒介,売地,浜松市中央区中田島町854,743,バス停 新崎裏 停歩9分,所有権,-,無指定,1.01,,2456,2025/5/22,-,-,相談,(株)プラス,053-478-5511,34.6647823,137.7415664
163,媒介,売地,浜松市中央区中田島町868-1,60,バス停 新崎裏 停歩9分,所有権,-,無指定,1,,199,2025/5/22,-,-,相談,(株)プラス,053-478-5511,34.6647823,137.7415664
670,一般媒介,売地,浜松市中央区中田島町１３８９,600,浜松市中央区中田島町１３８９,所有権,60,用途地域,7.94,2,250,2025/5/1,-,-,現況渡し,サーラ不動産(株)　浜松仲介チーム,053-464-6105,34.6647823,137.7415664
329,一般,売地,浜松市中央区中田町,2152,徒歩20分,所有権,60,無指定,7.95,200,895,2025/7/8,-,-,現況渡し,浜松損害保険サービス(株),053-459-4180,34.7364528,137.7575916
330,一般,売地,浜松市中央区中田町284-2・284-1・283,3467,バス停中田町停歩6分,所有権,60,-,10,200,1146,2025/7/22,-,-,更地渡し,とぴあ浜松農業協同組合不動産センター有玉店,053-476-3152,34.7364528,137.7575916
331,一般,売地,浜松市中央区中田町288-1,4410,徒歩17分,所有権,60,-,10,200,1458,2025/7/3,-,-,現況渡し,(有)オカベ,053-545-7062,34.7364528,137.7575916
318,一般,売地,浜松市中央区中郡町,781,徒歩13分,所有権,60,無指定,9.05,200,285,2025/6/29,-,-,現況渡し,(株)マストレ,053-448-5656,34.772575,137.7810219
320,一般,売地,浜松市中央区中郡町,1151,徒歩13分,所有権,60,無指定,7.61,200,500,2025/7/7,-,-,現況渡し,(株)マストレ　高林支店,053-472-5656,34.772575,137.7810219
319,一般,売地,浜松市中央区中郡町,848,徒歩1分,所有権,60,無指定,10.01,200,280,2025/7/9,-,-,更地渡し,(株)マストレ　高林支店,053-472-5656,34.772575,137.7810219
155,専任媒介,売地,浜松市中央区中郡町1213-1,340,遠州鉄道 遠州西ヶ崎 徒歩1122分,所有権,60,無指定,3.17,200,355,2025/5/19,-,-,現況渡し,アイエス宅建,053-434-6810,34.772575,137.7810219
317,専任,売地,浜松市中央区中郡町1396-1の一部,724,徒歩12分,所有権,60,無指定,8,200,299,2025/7/4,-,-,現況渡し,アイエス宅建,053-434-6810,34.772575,137.7810219
315,媒介,売地,浜松市中央区中郡町1423-1,390,徒歩1分,所有権,60,無指定,2.72,200,474,2025/7/25,-,-,現況渡し,(株)エステート・パートナー,053-443-8856,34.772575,137.7810219
317,一般,売地,浜松市中央区中郡町1495番3の一部,462,徒歩1分,所有権,60,無指定,7.5,200,204,2025/7/10,-,-,現況渡し,アイエス宅建,053-434-6810,34.7733024,137.7808634
180,専任,売地,浜松市中央区中郡町1921-1 の一部,750,徒歩18分,所有権,60,-,5.45,200,455,2025/6/1,-,-,相談,(株)ｉｎｓｔ．,053-555-1321,34.772575,137.7810219
181,専任,売地,浜松市中央区中郡町1921-1 の一部、1921-2,750,徒歩18分,所有権,60,-,4.6,200,539,2025/6/1,-,-,相談,(株)ｉｎｓｔ．,053-555-1321,34.772575,137.7810219
316,専任,売地,浜松市中央区中郡町1945の一部,407,徒歩13分,所有権,60,無指定,5,200,269,2025/7/4,-,-,現況渡し,アイエス宅建,053-434-6810,34.772575,137.7810219
321,一般,売地,浜松市中央区中郡町1991-3,1250,徒歩19分,所有権,60,-,11.02,200,375,2025/7/22,-,-,現況渡し,とぴあ浜松農業協同組合不動産センター有玉店,053-476-3152,34.7692382,137.7796134
158,媒介,売地,浜松市中央区中郡町273番内、276番内,857,遠州鉄道 遠州西ヶ崎 徒歩1155分,所有権,60,-,7.5,200,378,2025/5/22,-,-,現況渡し,とぴあ浜松農業協同組合不動産センター有玉店,053-476-3152,34.772575,137.7810219
648,★売主,売地,浜松市中央区中郡町31-3,865,浜松市中央区中郡町31-3,所有権,60,-,5.82,2,491,2025/5/2,-,-,現況渡し,(有)ステップワーク,053-420-0666,34.772575,137.7810219
179,専任,売地,浜松市中央区中郡町38番の一部,577,徒歩15分,所有権,60,無指定,6.62,200,288,2025/6/5,-,-,現況渡し,アイエス宅建,053-434-6810,34.772575,137.7810219
156,媒介,売地,浜松市中央区中郡町１４９５番３内（北側）,492,遠州鉄道 遠州西ヶ崎 徒歩1100分,所有権,60,-,8,200,203,2025/5/22,-,-,相談,とぴあ浜松農業協同組合不動産センター有玉店,053-476-3152,34.7733024,137.7808634
157,媒介,売地,浜松市中央区中郡町１９３０,583,バス停 大島町 停歩9分,所有権,60,-,8,200,241,2025/5/22,-,-,現況渡し,とぴあ浜松農業協同組合不動産センター有玉店,053-476-3152,34.772575,137.7810219
322,媒介,売地,浜松市中央区中里町1014番1,777,バス停中ノ町停歩6分,所有権,60,-,10,200,257,2025/7/24,-,-,現況渡し,とぴあ浜松農業協同組合不動産センター有玉店,053-476-3152,34.7372952,137.797059
324,一般,売地,浜松市中央区中里町721,1125,-,所有権,60,無指定,10,200,372,2025/7/23,-,-,現況渡し,ＳＭＤ不動産(株),053-401-4235,34.7372952,137.797059
323,専任,売地,浜松市中央区中里町９５４－１,861,バス停松小池停歩7分,所有権,60,無指定,9.81,200,290,2025/6/26,-,-,現況渡し,遠州鉄道(株)　浜北店,053-581-1124,34.7372952,137.797059
189,専任,売地,"浜松市中央区中野町191-3,191-5",1501,バス海停道遠本鉄線バ天ス竜中川野町徒小歩学3校0入分り口停歩5分,所有権,60,準工業,16.45,200,302,2025/6/2,-,-,現況渡し,(株)東洋エージェンシー,053-421-0700,34.7375483,137.8056964
334,一般,売地,浜松市中央区中野町3054番1,600,-,所有権,60,無指定,5.82,200,341,2025/7/2,-,-,現況渡し,センチュリー21中央不動産浜松店,053-584-0021,34.7390533,137.8013408
333,一般,売地,浜松市中央区中野町3054番1,600,-,所有権,60,無指定,5.82,200,341,2025/7/2,-,-,現況渡し,センチュリー21中央不動産磐田店,0538-39-0500,34.7390533,137.8013408
17,一般,売地,浜松市中央区伊左地町,5003,バス停浜松西警察署前停歩9分,所有権,60,無指定,6.11,200,2707,2025/6/18,-,-,相談,ニイノプラン,053-485-7700,34.7456974,137.6654485
18,媒介,売地,浜松市中央区伊左地町2818-1，2820-1，2821-1,5660,バス停遠鉄バス前平停留所停歩8分,所有権,60,無指定,4.47,200,4186,2025/6/24,-,-,相談,川井建設(株),053-461-9491,34.7456974,137.6654485
12,媒介,売地,浜松市中央区伊左地町5223番1,1425,バス停 ＪＡ伊佐見支店 停歩4分,所有権,60,-,6.75,200,698,2025/5/22,-,-,更地渡し,とぴあ浜松農業協同組合不動産センター有玉店,053-476-3152,34.7453417,137.6581408
17,媒介,売地,浜松市中央区伊左地町7964他,11825,-,所有権,60,無指定,8.5,200,4599,2025/6/30,-,-,相談,三協建設不動産部,053-525-0755,34.7456974,137.6654485
16,媒介,売地,浜松市中央区伊左地町8422、8423,4761,バス海4道0本分線バス浜停松北原停歩8分,所有権,60,-,10,200,1574,2025/7/16,-,-,現況渡し,クリエイトジャパン浜松西,053-447-7941,34.7456974,137.6654485
13,専属専任,売地,浜松市中央区伊左地町２４４９－１,3500,バス停 前平バス 停歩3分,所有権,60,-,3.7,200,3076,2025/5/21,-,-,現況渡し,(有)住まいる不動産,053-437-2490,34.7430822,137.6767975
273,専任,売地,浜松市中央区住吉２丁目２３,2800,バス停青少年の家入口停歩2分,所有権,60,2種住居,39.94,200,232,2025/7/2,-,-,更地渡し,遠州鉄道(株)　広沢プラザ,053-456-0055,34.7325412,137.7260081
275,一般,売地,浜松市中央区住吉３丁目,3295,バス海1道4本分線バス浜停松城北工高停歩4分,所有権,80,近隣商業,44.99,300,242,2025/7/14,-,-,更地渡し,マストレ企画営業所,053-401-3456,34.7344987,137.7249299
273,専任,売地,浜松市中央区住吉３丁目,3568,バス海3道0本分線バス浜停松和合町停歩2分,所有権,80,近隣商業,40,300,295,2025/7/14,-,-,現況渡し,(株)マストレ　高林支店,053-472-5656,34.7344987,137.7249299
274,専任,売地,浜松市中央区住吉３丁目,3000,徒歩2分,所有権,80,近隣商業,41.34,300,240,2025/7/8,-,-,更地渡し,浜松損害保険サービス(株),053-459-4180,34.7344987,137.7249299
484,一般媒介,売地,浜松市中央区住吉３丁目,1850,浜松市中央区住吉３丁目,所有権,80,-,34.88,2,175,2025/5/2,-,-,現況渡し,(株)マストレ東営業所,053-462-5656,34.7344987,137.7249299
483,★売主,売地,浜松市中央区住吉３丁目145-207,1850,浜松市中央区住吉３丁目145-207,所有権,80,-,34.88,2,175,2025/5/7,-,-,現況渡し,(株)新栄,0538-85-4690,34.7344987,137.7249299
128,一般媒介,売地,浜松市中央区住吉３丁目155-8,3295,東海道本線 浜松,,,,,,,,,,,,,,
129,媒介,売地,浜松市中央区住吉３丁目155番8,3296,バス停 城北工高 停歩5分,所有権,80,近隣商業,45.01,300,242,2025/5/22,-,-,相談,(株)プラス,053-478-5511,34.7344987,137.7249299
492,専任媒介,売地,浜松市中央区住吉４丁目932-19,2630,浜松市中央区住吉４丁目932-19,所有権,60,-,40.91,2,213,2025/5/2,-,-,更地渡し,(株)ＩＭＡＥＤＡ,053-450-5678,34.7309106,137.7298587
251,専属専任,売地,浜松市中央区佐藤３丁目105,4460,バス州停鉄遠道鉄八バ幡ス「徒佐歩藤2三0丁分目」停歩4分,所有権,60,1種住居,46.31,200,318,2025/7/21,-,-,相談,(株)オフィスＳＡＮＯ,053-522-8320,34.7136614,137.7508111
98,★媒介,売地,浜松市中央区佐藤３丁目8-9,760,東海道本線 浜松 徒歩2255分,所有権,60,１種低層,17.56,200,143,2025/5/20,-,-,更地渡し,(株)セイエイ,0538-66-2838,34.7119684,137.7508988
100,媒介,売地,浜松市中央区佐鳴台１丁目1774,2547,バス停 佐鳴台坂下 停歩2分,所有権,60,１種住居,39.9,200,211,2025/5/22,-,-,現況渡し,(株)プラス,053-478-5511,34.7040632,137.7015245
101,専任媒介,売地,浜松市中央区佐鳴台２丁目30-15,11000,東海道本線 高塚 徒歩3311分,所有権,60,１種住居,50.27,200,723,2025/5/19,-,-,現況渡し,(株)川嶋,053-437-3731,34.7046072,137.6925967
249,専任,売地,浜松市中央区佐鳴台２丁目１２９番２,2800,バス停佐鳴台小学校停歩5分,所有権,60,1種中高,38.25,200,242,2025/7/13,-,-,現況渡し,遠州鉄道(株)　浜北店,053-581-1124,34.7031905,137.6941355
103,一般媒介,売地,浜松市中央区佐鳴台５丁目,4680,東海道本線 浜松 徒歩5544分,,,,,,,,,,,,,,
102,売主,売地,浜松市中央区佐鳴台５丁目122-21,2500,バス停 蜆塚遺跡西 停歩3分,所有権,40,１種中高,36.26,200,228,2025/5/16,-,-,更地渡し,(株)エステート・パートナー,053-443-8856,34.7127243,137.6978299
104,★売主,売地,浜松市中央区佐鳴台６丁目110－18他,2600,ＪＲ東海道新幹線 浜松,,,,,,,,,,,,,,
250,売主,売地,浜松市中央区佐鳴台６丁目110－18他,2600,-,所有権,40,1種住居,35.51,200,242,2025/7/10,-,-,建築条件付,三井ホーム(株)　浜松支店,053-555-5331,34.7055528,137.6916727
221,媒介,売地,浜松市中央区倉松町234番Ａ,700,徒歩27分,所有権,60,-,6.42,200,361,2025/6/26,-,-,現況渡し,とぴあ浜松農業協同組合不動産センター有玉店,053-476-3152,34.6756762,137.6922884
220,媒介,売地,浜松市中央区倉松町９１８番１、９１９番１,644,徒歩32分,所有権,60,-,5,200,426,2025/7/22,-,-,現況渡し,とぴあ浜松農業協同組合不動産センター有玉店,053-476-3152,34.6765846,137.6942433
87,一般媒介,売地,浜松市中央区元目町１２８－２５,1490,遠州鉄道 遠州病院 徒歩66分,所有権,80,商業地域,47.95,500,103,2025/5/18,-,-,更地渡し,アライブ企画営業部,053-476-7112,34.7130492,137.7305037
33,専任,売地,浜松市中央区入野町,6994,バス海2道0本分線バス高停塚漕艇場停歩8分,所有権,40,1種中高,40,200,578,2025/7/9,-,-,現況渡し,(株)マストレ,053-448-5656,34.698039,137.6792657
32,一般,売地,浜松市中央区入野町,2983,徒歩16分,所有権,60,無指定,5.35,200,1843,2025/7/8,-,-,現況渡し,浜松損害保険サービス(株),053-459-4180,34.698039,137.6792657
107,専任媒介,売地,浜松市中央区入野町16425-7,2780,浜松市中央区入野町16425-7,所有権,60,-,40.13,2,229,2025/5/1,-,-,更地渡し,(株)マルショウ企画,053-447-1115,34.7054527,137.6770859
30,専任,売地,浜松市中央区入野町307-1,981,徒歩14分,所有権,60,-,6.41,200,506,2025/7/7,-,-,更地渡し,(株)マルショウ企画,053-447-1115,34.6959068,137.6850257
29,専任,売地,浜松市中央区入野町字彦尾前913番1,881,バス停遠鉄バス「東彦尾」停歩7分,所有権,60,無指定,3.01,200,968,2025/7/15,-,-,現況渡し,(株)ヤマセ不動産,053-474-2188,34.7002449,137.6913677
31,媒介,売地,浜松市中央区入野町村前10086,1575,徒歩2分,所有権,60,-,5,200,1041,2025/6/30,-,-,現況渡し,エヌエナジー,0563-55-0131,34.698039,137.6792657
373,一般,売地,浜松市中央区初生町,3301,-,所有権,60,無指定,22.81,200,478,2025/7/6,-,-,更地渡し,(株)ＡＦＣスマイルプラス　Ｓｍｉｆｅ浜松西支店,053-449-7111,34.7676897,137.7267782
372,一般,売地,浜松市中央区初生町,2251,バス州停鉄Ｊ道Ａ初さ生ぎ支の店宮停徒歩83分,所有権,60,無指定,22.81,200,326,2025/7/17,-,-,現況渡し,(株)ＬＩＦＥＦＵＮＤ,053-488-8912,34.7676897,137.7267782
369,専任,売地,浜松市中央区初生町,883,-,所有権,60,無指定,10,200,292,2025/6/26,-,-,現況渡し,(株)マストレ,053-448-5656,34.7676897,137.7267782
192,一般媒介,売地,浜松市中央区初生町,2250,遠州鉄道 さぎの宮 徒歩3355分,,,,,,,,,,,,,,
226,一般,売地,浜松市中央区初生町,2251,バス海2道4本分線バス浜停松ＪＡ初生支店停歩8分,所有権,60,無指定,22.81,200,326,2025/6/2,-,-,現況渡し,(株)マストレ,053-448-5656,34.7676897,137.7267782
370,売主,売地,浜松市中央区初生町1030-15 付近,1399,バス停遠鉄バス「初生小学校」停歩1分,所有権,60,無指定,15.94,200,290,2025/6/26,-,-,建築条件付,(株)ベスト・ハウジング,053-474-6252,34.7699906,137.7296458
371,売主,売地,浜松市中央区初生町502-1,1851,バス海3道4本分線バス浜停松ＪＡ初生支店停歩3分,所有権,60,無指定,22.8,200,268,2025/7/22,-,-,更地渡し,センチュリー21中央不動産浜松店,053-584-0021,34.7658324,137.7278809
191,媒介,売地,浜松市中央区初生町9番1の一部,1150,バス停 （遠）萩原荘 停歩2分,所有権,60,-,10.25,200,371,2025/5/22,-,-,更地渡し,とぴあ浜松農業協同組合不動産センター有玉店,053-476-3152,34.7555484,137.7323498
228,一般,売地,浜松市中央区初生町１４０８－４,1002,バス停北星中学入口停歩4分,所有権,60,無指定,23.5,200,141,2025/6/25,-,-,-,遠州鉄道(株)　高台店,053-437-1976,34.7719023,137.7163725
224,一般,売地,浜松市中央区初生町１６８－７,2250,バス停ＪＡ初生支店停歩8分,所有権,60,無指定,22.82,200,326,2025/6/18,-,-,現況渡し,遠州鉄道(株)　高台店,053-437-1976,34.7626902,137.7343221
90,媒介,売地,浜松市中央区北島町,2176,バス海停道北本島線町天西竜停川歩徒2分,所有権,60,1種住居,25,200,288,2025/6/9,-,-,現況渡し,とぴあ浜松農業協同組合不動産センター有玉店,053-476-3152,34.7310076,137.7822553
420,一般媒介,売地,浜松市中央区十軒町４６１－８,1580,浜松市中央区十軒町４６１－８,所有権,60,用途地域,27.23,2,192,2025/5/8,-,-,相談,遠州鉄道(株)　高台店,053-437-1976,34.7306829,137.7452212
793,-,売地,浜松市中央区半田山３丁目３６２６－２９,1894,浜松市中央区半田山３丁目３６２６－２９,所有権,60,-,25.8,2,243,2025/5/9,-,-,現況渡し,遠州鉄道(株)　買取再生グループ,053-488-8807,34.7723243,137.7403339
792,一般媒介,売地,浜松市中央区半田山３丁目４８－１０,1550,浜松市中央区半田山３丁目４８－１０,所有権,60,-,25.81,2,199,2025/5/4,-,-,更地渡し,サーラ不動産(株)　浜松仲介チーム,053-464-6105,34.7717756,137.73794
381,専任,売地,浜松市中央区半田山６丁目2178-5,2380,バス海3道5分,所有権,60,1種中高,27.61,200,285,2025/7/22,-,-,更地渡し,大和ハウスリアルエステート(株)名古屋南店,052-414-4086,34.7797794,137.7424908
362,専任,売地,浜松市中央区半田町,635,バス停半田上停歩2分,所有権,60,-,9.05,200,232,2025/7/14,-,-,現況渡し,大瀬栩木不動産,053-489-6051,34.7719733,137.7501948
198,一般媒介,売地,浜松市中央区半田町1-6,1970,遠州鉄道 積志 徒歩2200分,所有権,60,-,30,200,217,2025/5/22,-,-,更地渡し,(株)プラス,053-478-5511,34.776231,137.7553609
234,専任,売地,浜松市中央区半田町1719-2,550,徒歩2分,所有権,60,-,5.51,200,330,2025/6/24,-,-,相談,ゼロ(株),053-482-8777,34.7719733,137.7501948
378,一般,売地,浜松市中央区原島町,3050,バス海2道2分,所有権,70,工業地域,35,200,288,2025/7/25,-,-,-,(株)マストレ,053-448-5656,34.7303183,137.769922
380,一般,売地,浜松市中央区原島町456-2,8001,バス海停道浜本松線自天動竜車川学校徒停歩282分,所有権,60,工業地域,39.95,200,662,2025/7/21,-,-,更地渡し,(株)丸八アセットマネージメント　売買資産活用部 053-450-8008,053-450-8008,34.7295654,137.7672058
377,専任,売地,浜松市中央区原島町59-1,2201,徒歩21分,所有権,60,1種住居,19.99,200,364,2025/7/18,-,-,相談,(株)ライフナビ,053-458-5000,34.7303183,137.769922
379,一般,売地,浜松市中央区原島町４５６－２,8001,バス停浜松自動車学校停歩1分,所有権,60,工業地域,39.95,200,662,2025/7/22,-,-,更地渡し,アライブ企画営業部,053-476-7112,34.7295654,137.7672058
251,一般,売地,浜松市中央区参野町156-2,1599,徒歩28分,所有権,60,1種住居,25.53,200,207,2025/7/5,-,-,現況渡し,ＳＭＤ不動産(株),053-401-4235,34.6944935,137.7556364
252,一般,売地,浜松市中央区参野町334,2761,バス停芳川西停歩5分,所有権,60,1種住居,22.93,200,398,2025/7/23,-,-,相談,ユタカ土地,053-425-5771,34.6923863,137.7569752
238,一般,売地,浜松市中央区古人見町,1294,バス海4道8本分線バス浜停松湖人見団地停歩4分,所有権,60,無指定,18.62,200,230,2025/7/9,-,-,更地渡し,(株)マストレ　高林支店,053-472-5656,34.7256898,137.6282957
239,一般,売地,浜松市中央区古人見町,671,バス海4道1本分線バス浜停松古人見西停歩1分,所有権,60,無指定,5,200,444,2025/6/26,-,-,更地渡し,(株)マストレ,053-448-5656,34.7256898,137.6282957
241,一般,売地,浜松市中央区古人見町,1191,バス海4道3本分線バス浜停松汽船場停歩5分,所有権,60,無指定,14.67,200,268,2025/7/10,-,-,更地渡し,(株)マストレ　高林支店,053-472-5656,34.7256898,137.6282957
240,一般,売地,浜松市中央区古人見町1570-12,682,バス停湖人見団地停歩5分,所有権,60,無指定,3.64,200,619,2025/6/27,-,-,現況渡し,(株)Ｐａｄｄｌｅ,053-482-7733,34.731336,137.6417391
396,媒介,売地,浜松市中央区古川町,1077,バス停古川停歩3分,所有権,60,無指定,8,200,445,2025/7/11,-,-,現況渡し,(株)山崎不動産,053-463-8713,34.6892956,137.7791717
395,媒介,売地,浜松市中央区古川町,1020,バス停古川停歩2分,所有権,60,無指定,10.01,200,337,2025/7/11,-,-,更地渡し,(株)山崎不動産,053-463-8713,34.6892956,137.7791717
213,一般媒介,売地,浜松市中央区古川町119-3,900,バス停 古川 距離50m,所有権,60,-,8.83,200,337,2025/5/19,-,-,更地渡し,とぴあ浜松農業協同組合不動産センター有玉店,053-476-3152,34.6884734,137.7719053
394,媒介,売地,浜松市中央区古川町22-1,641,バス停古川停歩3分,所有権,60,無指定,7.51,200,282,2025/7/11,-,-,相談,(株)山崎不動産,053-463-8713,34.6879422,137.7703941
398,媒介,売地,浜松市中央区古川町22-2,1561,バス停古川停歩2分,所有権,60,無指定,17.2,200,300,2025/7/11,-,-,現況渡し,(株)山崎不動産,053-463-8713,34.6879411,137.7705398
397,一般,売地,浜松市中央区古川町22-2,1561,バス停古川停歩2分,所有権,60,-,17.2,200,300,2025/7/21,-,-,更地渡し,冨士物産(株)　浜松店,053-411-2223,34.6879411,137.7705398
377,媒介,売地,浜松市中央区古川町226-3,574,バス停古川停歩4分,所有権,60,無指定,8,200,237,2025/7/11,-,-,現況渡し,(株)山崎不動産,053-463-8713,34.7092218,137.7304474
393,媒介,売地,浜松市中央区古川町226-4,615,バス停古川停歩4分,所有権,60,無指定,8,200,254,2025/7/11,-,-,現況渡し,(株)山崎不動産,053-463-8713,34.709837,137.7304938
168,売主,売地,浜松市中央区名塚町１２９,1360,バス停 遠鉄バス　名塚西 停歩2分,所有権,60,１種住居,36.13,200,124,2025/5/21,-,-,建築条件付,なごみ住宅(株),053-415-9370,34.7019355,137.7550095
169,売主,売地,浜松市中央区名塚町１２９,1410,バス停 遠鉄バス　名塚西 停歩2分,所有権,60,１種住居,37.04,200,126,2025/5/21,-,-,建築条件付,なごみ住宅(株),053-415-9370,34.7019355,137.7550095
167,売主,売地,浜松市中央区名塚町１２９,1060,バス停 遠鉄バス　名塚西 停歩2分,所有権,60,１種住居,29.89,200,117,2025/5/21,-,-,建築条件付,なごみ住宅(株),053-415-9370,34.7019355,137.7550095
235,一般媒介,売地,浜松市中央区向宿２丁目,530,バス停 向宿 停歩1分,所有権,60,１種住居,30.64,200,57,2025/5/19,-,-,相談,あららぎ不動産(株),053-464-5557,34.7039455,137.7520439
278,売主,売地,浜松市中央区向宿３丁目637-1、4,3396,徒歩21分,所有権,60,1種住居,35.01,200,321,2025/6/2,-,-,相談,(有)勝山不動産,053-464-8550,34.7020853,137.7523521
277,一般,売地,浜松市中央区向宿３丁目9-3,3396,徒歩21分,所有権,60,1種住居,35.01,200,321,2025/6/6,-,-,現況渡し,(株)ライフデザインクリエイターズ,053-401-7905,34.7028642,137.7523232
222,一般,売地,浜松市中央区呉松町,1050,-,所有権,60,無指定,10.15,200,342,2025/7/13,-,-,更地渡し,(株)マストレ　高林支店,053-472-5656,34.7732281,137.6332155
93,一般,売地,浜松市中央区呉松町2868番1 外2筆,1932,バス停動物園停歩20分,所有権,60,無指定,10,200,639,2025/6/16,-,-,現況渡し,アイエス宅建,053-434-6810,34.7732281,137.6332155
253,一般媒介,売地,浜松市中央区和合北３丁目2-4,1379,遠州鉄道 曳馬 徒歩5500分,,,,,,,,,,,,,,
254,媒介,売地,浜松市中央区和合北４丁目10,820,東海道本線 浜松,,,,,,,,,,,,,,
1033,一般媒介,売地,浜松市中央区和合北４丁目847-86,820,浜松市中央区和合北４丁目847-86,所有権,60,-,33.48,2,81,2025/5/7,-,-,現況渡し,(株)トレスト,053-459-0811,34.7439467,137.7150738
1034,一般媒介,売地,浜松市中央区和合北４丁目１０－３９,820,浜松市中央区和合北４丁目１０－３９,所有権,70,-,33.48,2,81,2025/5/3,-,-,現況渡し,遠州鉄道(株)　浜松店,053-471-0202,34.7440955,137.7171334
255,専任媒介,売地,浜松市中央区和合町,1283,東海道本線 浜松,,,,,,,,,,,,,,
470,専任,売地,浜松市中央区和合町,4116,バス海2道7分,所有権,60,1種中高,35.01,200,389,2025/6/28,-,-,現況渡し,(株)マストレ,053-448-5656,34.7411047,137.707067
259,媒介,売地,浜松市中央区和合町1131-1,7500,バス停 寸田ヶ谷 停歩13分,所有権,30,１種低層,37.01,60,670,2025/5/22,-,-,相談,(株)プラス,053-478-5511,34.7325111,137.7016977
256,一般媒介,売地,浜松市中央区和合町222-6,1369,バス停 馬舟 停歩8分,所有権,50,１種低層,1,80,412,2025/5/22,-,-,現況渡し,(株)プラス,053-478-5511,34.7411047,137.707067
304,売主,売地,浜松市中央区和合町936-151他,1624,-,所有権,30,1種低層,19.77,60,272,2025/6/2,-,-,更地渡し,(株)スズキビジネス,053-451-3900,34.7392317,137.7073254
468,専任,売地,浜松市中央区和合町字西岨272番10,850,バス海3道3分,所有権,60,1種中高,8.09,200,347,2025/6/28,-,-,現況渡し,(株)アモルテ,053-522-8885,34.7411047,137.707067
305,売主,売地,浜松市中央区和合町１１３７－１８他,1887,バス停寸田ヶ谷停歩13分,所有権,30,1種低層,19.35,60,322,2025/6/20,-,-,現況渡し,アライブ企画営業部,053-476-7112,34.7327164,137.7020676
469,売主,売地,浜松市中央区和合町１１３７－１９,1958,バス停寸田ヶ谷停歩13分,所有権,30,1種低層,19.72,60,328,2025/7/1,-,-,現況渡し,アライブ企画営業部,053-476-7112,34.7327164,137.7020676
257,★一般媒介,売地,浜松市中央区和合町３１５－１１４４,1450,バス停 和合西 停歩5分,所有権,60,１種中高,27.29,200,176,2025/5/21,-,-,更地渡し,遠州鉄道(株)　高台店,053-437-1976,34.7403515,137.7118831
1057,★売主,売地,浜松市中央区和地山２丁目33番2,1100,浜松市中央区和地山２丁目33番2,所有権,60,-,43.1,2,84,2025/5/9,-,-,建築条件付,ホームポジション(株)　浜松支店,053-582-6500,34.7306102,137.7198861
260,一般媒介,売地,浜松市中央区和地町1320,900,東海道本線 浜松,,,,,,,,,,,,,,
472,一般,売地,浜松市中央区和地町1320,901,-,所有権,60,無指定,4.21,200,708,2025/7/25,-,-,現況渡し,ひだまり工房(株),053-596-3900,34.764386,137.6471298
473,一般,売地,浜松市中央区和地町776,1650,バス停和地西停留所停歩1分,所有権,60,-,12.91,200,423,2025/7/24,-,-,更地渡し,とぴあ浜松農業協同組合不動産センター有玉店,053-476-3152,34.762164,137.6487945
471,専任,売地,浜松市中央区和田町974-2,8200,徒歩17分,所有権,60,1種住居,40.95,200,662,2025/7/15,-,-,相談,(同)楽毅,053-443-7577,34.7172003,137.7662685
260,専任,売地,浜松市中央区四本松町,560,バス停四本松北停歩6分,所有権,60,無指定,6.52,200,284,2025/7/20,-,-,現況渡し,あららぎ不動産(株),053-464-5557,34.6837506,137.7674557
132,専任,売地,浜松市中央区四本松町,600,バス停四本松停歩4分,所有権,60,無指定,4.05,200,490,2025/6/13,-,-,相談,あららぎ不動産(株),053-464-5557,34.6837506,137.7674557
119,媒介,売地,浜松市中央区四本松町,2150,バス停 四本松 停歩3分,所有権,-,-,7.01,,1015,2025/5/22,-,-,相談,(株)山崎不動産,053-463-8713,34.6837506,137.7674557
219,専任,売地,浜松市中央区国吉町1283,501,バス海停道遠本鉄線バ天ス竜中川ノ町徒小歩学2校4停分歩12分,所有権,60,無指定,5.95,200,278,2025/7/11,-,-,更地渡し,(株)東洋エージェンシー,053-421-0700,34.7217957,137.8007606
86,媒介,売地,浜松市中央区国吉町１２０６,1194,東海道本線 天竜川 徒歩2244分,,,,,,,,,,,,,,
163,専任,売地,浜松市中央区坪井町,1190,バス停坪井停歩3分,所有権,60,1種住居,15.43,200,255,2025/6/6,-,-,更地渡し,あららぎ不動産(株),053-464-5557,34.6840832,137.6479775
270,専任,売地,浜松市中央区城北２丁目－,7505,バス停追分小学校停歩4分,所有権,60,2種中高,13.11,196,1892,2025/7/22,-,-,相談,アイエス宅建,053-434-6810,34.7238276,137.7212337
141,専任,売地,浜松市中央区城北２丁目－,10006,バス停六間坂上停歩4分,所有権,60,2種中高,9.53,196,3471,2025/6/5,-,-,相談,アイエス宅建,053-434-6810,34.7238276,137.7212337
125,一般媒介,売地,浜松市中央区城北２丁目２２－１５,2435,バス停 静岡大学 停歩4分,所有権,60,２種中高,45.84,160,176,2025/5/22,-,-,建築条件付,遠州鉄道(株)　事業用不動産流通グループ,053-488-8811,34.7243555,137.7216397
292,媒介,売地,浜松市中央区堤町205の一部,571,バス海停道新本田線西高停塚歩徒4分,所有権,60,-,6.96,200,271,2025/7/17,-,-,現況渡し,とぴあ浜松農業協同組合不動産センター有玉店,053-476-3152,34.671512,137.7052194
283,一般,売地,浜松市中央区増楽町,1481,バス海1道8本分線バス高停塚可美中学校停歩3分,所有権,60,無指定,18.9,200,259,2025/7/14,-,-,現況渡し,(株)マストレ東営業所,053-462-5656,34.690987,137.6935198
134,一般媒介,売地,浜松市中央区増楽町,1480,東海道本線 高塚,,,,,,,,,,,,,,
131,一般媒介,売地,浜松市中央区増楽町1756,300,東海道本線 高塚 徒歩1188分,所有権,60,-,4.75,200,209,2025/5/22,-,-,現況渡し,クリエイトジャパン浜松西,053-447-7941,34.690987,137.6935198
282,売主,売地,浜松市中央区増楽町2589,1130,徒歩25分,所有権,60,無指定,13.43,200,278,2025/6/29,-,-,更地渡し,(株)不動産Ｌａｂｏ．,0538-33-6118,34.690987,137.6935198
133,一般媒介,売地,浜松市中央区増楽町460-1,1350,東海道本線 高塚 徒歩1122分,所有権,60,１種住居,27.2,200,164,2025/5/19,-,-,更地渡し,(株)丸玉,053-421-7360,34.6888846,137.6900837
284,専任,売地,浜松市中央区増楽町729－2,3045,徒歩13分,所有権,60,2種住居,25,200,403,2025/7/13,-,-,相談,伸光不動産(株),053-448-0001,34.6879247,137.6900201
39,媒介,売地,浜松市中央区大久保町6471-1の一部,851,バス停神久呂小学校停歩5分,所有権,60,-,7.16,200,393,2025/6/26,-,-,現況渡し,とぴあ浜松農業協同組合不動産センター有玉店,053-476-3152,34.7146877,137.6504382
53,一般,売地,浜松市中央区大人見町,1182,バス海3道2分,所有権,60,無指定,16.84,200,232,2025/7/4,-,-,更地渡し,マストレ企画営業所,053-401-3456,34.7361938,137.6528991
46,専任媒介,売地,浜松市中央区大人見町,1690,東海道本線 浜松,,,,,,,,,,,,,,
56,専任,売地,浜松市中央区大人見町,1691,バス海3道6本分線バス浜停松ひとみヶ丘中停歩3分,所有権,60,無指定,17.08,200,327,2025/7/17,-,-,更地渡し,(株)マストレ,053-448-5656,34.7361938,137.6528991
45,★売主,売地,浜松市中央区大人見町12番74,980,東海道本線 浜松,,,,,,,,,,,,,,
57,専任,売地,浜松市中央区大人見町1797-7,1980,-,所有権,60,無指定,4.46,200,1468,2025/7/19,-,-,更地渡し,(株)美建コーポレーション,053-473-1208,34.7363477,137.6601856
55,一般,売地,浜松市中央区大人見町2325-1,478,バス海停道伊本佐線見舞小阪学校徒前歩停90歩分13分,所有権,-,-,3,-,527,2025/7/11,-,-,現況渡し,(株)リデコ,053-488-4537,34.7383063,137.6510054
44,一般媒介,売地,浜松市中央区大人見町2325-1,477,東海道本線 舞阪 徒歩9900分,,,,,,,,,,,,,,
42,★専属専任,売地,浜松市中央区大塚町176,600,"東海道本線 天竜川 距離11,993300m",,,,,,,,,,,,,,
43,媒介,売地,浜松市中央区大塚町２０７他,1200,バス停 緑化推進センター 停歩3分,所有権,60,無指定,1.53,200,2593,2025/5/16,-,-,現況渡し,アート地建,053-528-7605,34.6977315,137.7896566
48,専任媒介,売地,浜松市中央区大山町,424,東海道本線 浜松,,,,,,,,,,,,,,
52,一般,売地,浜松市中央区大山町4067-1,4264,"バス海4道8本分線バス浜停松奥距大離谷1バ1ス,5停0距m離80m-現況渡し転載不可万円所有権60%無指定一般媒介2,819.0㎡ＳＭＤ不動産(株)053-401-4235.0万円20%‐69796952047売地浜松市中央区笠井上町275-1A区画2025/06/095680遠州鉄道遠州小松徒歩30分",所有権,60,無指定,5,200,2819,2025/6/24,-,-,現況渡し,ＳＭＤ不動産(株),053-401-4235,34.7789509,137.6812072
44,一般,売地,浜松市中央区大島町,801,-,所有権,60,無指定,7.5,200,353,2025/7/9,-,-,現況渡し,(株)マストレ　高林支店,053-472-5656,34.7653152,137.7773217
47,専任,売地,浜松市中央区大島町,1300,徒歩30分,所有権,60,-,9.49,200,453,2025/7/25,-,-,現況渡し,水嶋宅建(株),053-433-7660,34.7653152,137.7773217
48,一般,売地,浜松市中央区大島町,1808,バス停大島町西停歩2分,所有権,60,無指定,10.01,200,597,2025/6/27,-,-,相談,あららぎ不動産(株),053-464-5557,34.7653152,137.7773217
49,一般,売地,浜松市中央区大島町,2279,バス海4道5本分線バス浜停松上大瀬公会堂停歩3分,所有権,60,無指定,5,200,1507,2025/7/7,-,-,現況渡し,(株)マストレ,053-448-5656,34.7653152,137.7773217
41,一般,売地,浜松市中央区大島町,473,バス海4道1本分線バス浜停松下大瀬停歩5分,所有権,60,無指定,5,200,313,2025/7/14,-,-,現況渡し,(株)マストレ　高林支店,053-472-5656,34.7653152,137.7773217
36,媒介,売地,浜松市中央区大島町1004,780,バス停大島町停歩4分,所有権,60,無指定,7.7,200,335,2025/6/2,-,-,現況渡し,曳馬土地開発(株),053-463-2161,34.7653152,137.7773217
41,一般,売地,浜松市中央区大島町1119,2702,バス停上大瀬公会堂停歩2分,所有権,60,無指定,13.45,200,664,2025/6/16,-,-,現況渡し,アイエス宅建,053-434-6810,34.7653152,137.7773217
39,一般,売地,浜松市中央区大島町1119 の一部,1681,バス停上大瀬公会堂停歩2分,所有権,60,無指定,14.64,200,380,2025/6/5,-,-,現況渡し,アイエス宅建,053-434-6810,34.7653152,137.7773217
50,一般,売地,浜松市中央区大島町1473外5筆,12000,バス停上大瀬公会堂停歩3分,所有権,60,無指定,14.34,200,2766,2025/7/4,-,-,現況渡し,アイエス宅建,053-434-6810,34.7653152,137.7773217
33,専属専任,売地,浜松市中央区大島町496-3,302,徒歩31分,所有権,60,無指定,1.41,200,708,2025/6/5,-,-,現況渡し,(有)明豊企画,052-265-7983,34.7571251,137.7780573
46,専任,売地,浜松市中央区大島町559外1筆 一部,979,バス停東高校入口停歩3分,所有権,60,無指定,7.5,200,431,2025/7/4,-,-,現況渡し,アイエス宅建,053-434-6810,34.7653152,137.7773217
45,専任,売地,浜松市中央区大島町717,838,徒歩21分,所有権,60,-,10,200,277,2025/7/3,-,-,現況渡し,(有)西遠土地建物センター,053-587-7255,34.7653152,137.7773217
43,媒介,売地,浜松市中央区大島町780-1,779,バス州停鉄北道病積院志停徒歩6分,所有権,60,-,5.01,200,514,2025/7/16,-,-,現況渡し,上島不動産(株),053-473-5000,34.7653152,137.7773217
34,媒介,売地,浜松市中央区大島町１００４,780,バス停 大島町 停歩4分,所有権,60,-,7.7,200,335,2025/5/22,-,-,現況渡し,とぴあ浜松農業協同組合不動産センター有玉店,053-476-3152,34.7653152,137.7773217
33,媒介,売地,浜松市中央区大島町１１７４番内,754,遠州鉄道 遠州西ヶ崎 徒歩1177分,,,,,,,,,,,,,,
40,専任,売地,浜松市中央区大島町１３６８,1400,徒歩15分,所有権,60,無指定,19.21,200,241,2025/7/14,-,-,更地渡し,遠州鉄道(株)　浜北店,053-581-1124,34.7673069,137.7742896
40,専任,売地,浜松市中央区大島町２１１,380,バス州停鉄遠道鉄積バ志ス・徒上歩前2島5バ分ス停歩3分,所有権,60,無指定,3.98,200,316,2025/7/14,-,-,現況渡し,アースデイ不動産,053-441-2103,34.7653152,137.7773217
35,媒介,売地,浜松市中央区大島町７７８,1134,バス停 上大瀬公会堂 停歩5分,所有権,60,-,7.5,200,500,2025/5/22,-,-,相談,とぴあ浜松農業協同組合不動産センター有玉店,053-476-3152,34.7653152,137.7773217
42,一般,売地,浜松市中央区大島町９９７ー２、９９８,681,徒歩21分,所有権,60,無指定,5.77,200,390,2025/6/28,-,-,更地渡し,遠州鉄道(株)　高台店,053-437-1976,34.7682399,137.782326
135,一般媒介,売地,浜松市中央区大工町３１１－２３,2300,東海道本線 浜松 徒歩1111分,所有権,80,商業地域,68.63,500,111,2025/5/19,-,-,更地渡し,サーラ不動産(株)　浜松仲介チーム,053-464-6105,34.7052914,137.7274135
49,一般,売地,浜松市中央区大平台１丁目8-18,5281,バス停大平台２丁目北停歩10分,所有権,40,1種低層,40.76,60,428,2025/6/9,-,-,更地渡し,(株)マルショウ企画,053-447-1115,34.7204625,137.6878728
58,媒介,売地,浜松市中央区大平台１丁目8-18,5281,バス停大平台２丁目北停歩9分,所有権,40,1種低層,40.76,60,428,2025/7/14,-,-,更地渡し,ＲＥコンサルタント静岡(株),053-489-6088,34.7204625,137.6878728
59,専任,売地,浜松市中央区大平台２丁目2-8,3981,バス停大平台二丁目北停歩4分,所有権,40,1種低層,23.78,60,553,2025/6/27,-,-,更地渡し,伸光不動産(株),053-448-0001,34.7162262,137.6870198
60,一般,売地,浜松市中央区大平台４丁目128-7,3324,-,所有権,60,1種中高,32.51,200,338,2025/7/3,-,-,現況渡し,(株)丸浜不動産コンサルティング,053-447-8817,34.7089652,137.6756675
61,一般,売地,浜松市中央区大柳町842-1,821,-,所有権,60,無指定,3,200,905,2025/7/11,-,-,現況渡し,(株)リデコ,053-488-4537,34.6772836,137.7575916
39,一般媒介,売地,浜松市中央区大瀬町,650,遠州鉄道 さぎの宮 徒歩1133分,所有権,60,無指定,10.72,200,200,2025/5/19,-,-,現況渡し,(株)マストレ,053-448-5656,34.7592816,137.7711552
54,一般,売地,浜松市中央区大瀬町,1077,バス幹停線下浜大松瀬停歩7分,所有権,60,無指定,8,200,445,2025/7/9,-,-,現況渡し,(株)マストレ　高林支店,053-472-5656,34.7592816,137.7711552
46,一般,売地,浜松市中央区大瀬町,455,バス海4道1本分線バス浜停松下大瀬停歩4分,所有権,60,無指定,7.01,200,215,2025/7/9,-,-,現況渡し,(株)マストレ　高林支店,053-472-5656,34.7592816,137.7711552
52,専任,売地,浜松市中央区大瀬町,623,バス停下大瀬停歩4分,所有権,60,無指定,7.01,200,294,2025/7/7,-,-,現況渡し,(株)宅建堂,053-568-2169,34.7592816,137.7711552
49,一般,売地,浜松市中央区大瀬町1156-1,708,徒歩14分,所有権,70,-,10,176,234,2025/7/3,-,-,現況渡し,(有)西遠土地建物センター,053-587-7255,34.7592816,137.7711552
38,媒介,売地,浜松市中央区大瀬町1328番内（北側）,588,遠州鉄道 積志 徒歩1144分,,,,,,,,,,,,,,
44,専属専任,売地,浜松市中央区大瀬町2446-1・2447-2,800,バス停さぎの宮北停歩2分,所有権,60,無指定,7.98,200,332,2025/6/16,-,-,現況渡し,アイエス宅建,053-434-6810,34.7592816,137.7711552
51,媒介,売地,浜松市中央区大瀬町2682,1580,徒歩20分,所有権,70,無指定,25.04,200,209,2025/7/1,-,-,更地渡し,アスティア,053-543-9988,34.7540881,137.7710204
47,媒介,売地,浜松市中央区大瀬町2751,460,バス海3道5分,所有権,60,無指定,6.39,200,238,2025/7/1,-,-,現況渡し,(有)イーエム,053-437-1980,34.7592816,137.7711552
51,専任,売地,浜松市中央区大瀬町１２９０番１,400,徒歩14分,所有権,60,無指定,4.91,200,270,2025/7/10,-,-,現況渡し,遠州鉄道(株)　高台店,053-437-1976,34.761382,137.7663269
53,専任,売地,浜松市中央区大瀬町２２１７－１,775,徒歩28分,所有権,60,無指定,8.51,200,301,2025/7/16,-,-,現況渡し,アライブ企画営業部,053-476-7112,34.7567067,137.7747035
44,専任,売地,浜松市中央区大瀬町２５３８－２,299,徒歩17分,所有権,60,無指定,4.87,200,203,2025/7/7,-,-,現況渡し,遠州鉄道(株)　浜北店,053-581-1124,34.7592816,137.7711552
28,一般媒介,売地,浜松市中央区大蒲町,1780,東海道本線 天竜川,,,,,,,,,,,,,,
31,一般媒介,売地,浜松市中央区大蒲町,2290,東海道本線 天竜川 徒歩1155分,所有権,60,１種住居,41.39,200,183,2025/5/22,-,-,更地渡し,(株)マストレ,053-448-5656,34.7141717,137.7680723
30,一般媒介,売地,浜松市中央区大蒲町,2287,東海道本線 天竜川 徒歩1155分,所有権,60,１種住居,41.16,200,184,2025/5/22,-,-,更地渡し,(株)マストレ,053-448-5656,34.7141717,137.7680723
32,専任,売地,浜松市中央区大蒲町,2591,バス海1道0本分線バス天停竜大川蒲西停歩3分,所有権,60,1種住居,36.76,200,233,2025/6/29,-,-,更地渡し,(株)マストレ,053-448-5656,34.7141717,137.7680723
31,専任,売地,浜松市中央区大蒲町,2521,バス海1道0本分線バス天停竜大川蒲西停歩5分,所有権,60,1種住居,34.01,200,245,2025/6/26,-,-,更地渡し,(株)マストレ,053-448-5656,34.7141717,137.7680723
38,一般,売地,浜松市中央区大蒲町115-6,5472,徒歩16分,所有権,60,工業地域,34,200,532,2025/7/23,-,-,現況渡し,ＳＭＤ不動産(株),053-401-4235,34.712802,137.7688266
37,一般,売地,浜松市中央区大蒲町115-6,2736,徒歩16分,所有権,60,工業地域,34,200,266,2025/7/23,-,-,現況渡し,ＳＭＤ不動産(株),053-401-4235,34.712802,137.7688266
30,一般,売地,浜松市中央区大蒲町124-36,2000,徒歩14分,所有権,60,工業地域,29.54,200,224,2025/7/10,-,-,現況渡し,(株)アクト建設　本社,053-445-4350,34.7147723,137.7711902
32,売主,売地,浜松市中央区大蒲町81番8,2343,東海道本線 天竜川 徒歩2200分,所有権,60,１種住居,41,200,189,2025/5/16,-,-,現況渡し,(株)リサイクルクリーン　天竜不動産,053-926-2511,34.7157088,137.7636987
29,売主,売地,浜松市中央区大蒲町A区画,1850,東海道本線 天竜川 徒歩1155分,,,,,,,,,,,,,,
301,媒介,売地,浜松市中央区天王町1810、1811-2,1362,バス停天王停歩4分,所有権,60,-,5.01,200,899,2025/7/15,-,-,現況渡し,(株)村こし,053-423-2220,34.7365309,137.7711552
303,専任,売地,浜松市中央区天王町1830,6970,バス停与進小停歩5分,所有権,60,-,8,200,2880,2025/7/2,-,-,現況渡し,上島不動産(株),053-473-5000,34.7365309,137.7711552
297,媒介,売地,浜松市中央区天王町309番5,370,バス海停道下本石線田天南竜停川歩徒5分,所有権,60,無指定,5.01,200,244,2025/7/1,-,-,現況渡し,とぴあ浜松農業協同組合不動産センター有玉店,053-476-3152,34.7365309,137.7711552
298,媒介,売地,浜松市中央区天王町522-2,450,徒歩36分,所有権,-,-,4.43,-,336,2025/7/12,-,-,相談,(株)にわとり不動産,053-569-1122,34.7365309,137.7711552
299,媒介,売地,浜松市中央区天王町551,632,徒歩36分,所有権,60,-,2,200,1045,2025/7/7,-,-,現況渡し,(株)竹林不動産,053-433-4451,34.7365309,137.7711552
302,一般,売地,浜松市中央区天王町734-1,4295,徒歩29分,所有権,60,1種住居,35,200,406,2025/7/18,-,-,現況渡し,(株)Ｐａｄｄｌｅ,053-482-7733,34.7365309,137.7711552
574,専任媒介,売地,浜松市中央区天王町１２０１番１,1450,浜松市中央区天王町１２０１番１,所有権,60,-,43.94,2,109,2025/5/3,-,-,相談,遠州鉄道(株)　浜松店,053-471-0202,34.7363211,137.7717929
300,専任,売地,浜松市中央区天王町２４番１,1221,バス停市野上停歩1分,所有権,60,無指定,15.96,200,253,2025/6/29,-,-,現況渡し,遠州鉄道(株)　浜北店,053-581-1124,34.7365309,137.7711552
302,売主,売地,浜松市中央区天龍川町８２４－１,1480,徒歩1分,所有権,60,1種住居,8.69,200,563,2025/6/26,-,-,相談,遠州鉄道(株)　買取再生グループ,053-488-8807,34.7235289,137.7794628
240,一般,売地,浜松市中央区子安町,2188,バス海1道2分,所有権,60,1種住居,35,200,207,2025/6/26,-,-,現況渡し,(株)マストレ,053-448-5656,34.7120756,137.76314
243,一般,売地,浜松市中央区子安町,2301,徒歩30分,所有権,60,準住居,27.26,200,279,2025/6/30,-,-,現況渡し,中部ガス不動産（株）浜松中央支店,053-451-0525,34.7120756,137.76314
239,一般,売地,浜松市中央区子安町335-4,2188,バス海停道遠本鉄線バ天ス竜「大川蒲徒西歩」停18停分歩9分,所有権,60,1種住居,35,200,207,2025/7/12,-,-,更地渡し,しずなび(株)　浜松駅南店,053-453-3731,34.7112807,137.7667172
371,一般媒介,売地,浜松市中央区子安町336-3,1511,浜松市中央区子安町336-3,所有権,60,-,35.99,2,139,2025/5/1,-,-,現況渡し,ＳＭＤ不動産(株),053-401-4235,34.7118184,137.7666439
93,一般媒介,売地,浜松市中央区子安町３００番７,2300,東海道本線 天竜川 徒歩3300分,所有権,60,準住居,27.26,200,279,2025/5/20,-,-,現況渡し,サーラ不動産(株)　浜松仲介チーム,053-464-6105,34.7127194,137.7592222
242,一般,売地,浜松市中央区子安町３００－７,2301,バス停子安停歩5分,所有権,60,準住居,27.26,200,279,2025/7/22,-,-,現況渡し,遠州鉄道(株)　浜松店,053-471-0202,34.7127194,137.7592222
9,一般媒介,売地,浜松市中央区安新町８２－１,1370,東海道本線 天竜川 徒歩2222分,所有権,60,１種住居,27.03,200,168,2025/5/22,-,-,現況渡し,サーラ不動産(株)　浜松仲介チーム,053-464-6105,34.7308278,137.7871894
437,専任,売地,浜松市中央区安松町60-7・60-8,3296,徒歩32分,所有権,60,準住居,24,200,454,2025/6/28,-,-,更地渡し,(株)アモルテ,053-522-8885,34.6966275,137.77282
10,一般媒介,売地,浜松市中央区安間町405番4,608,東海道本線 天竜川 徒歩1199分,所有権,60,-,10,200,201,2025/5/19,-,-,現況渡し,とぴあ浜松農業協同組合不動産センター有玉店,053-476-3152,34.7215434,137.792124
13,媒介,売地,浜松市中央区安間町725番1の一部,950,バス停遠鉄バス安間停歩6分,所有権,60,-,10.41,200,302,2025/7/17,-,-,現況渡し,コイケ総建(株),053-422-3003,34.7215434,137.792124
148,専任媒介,売地,浜松市中央区富塚町,2500,バス停 うさぎ橋バス停 停歩5分,所有権,40,１種住居,36.24,60,228,2025/5/19,-,-,更地渡し,(株)豊栄不動産,053-450-5011,34.7232056,137.6988992
172,媒介,売地,浜松市中央区富塚町,814,バス停弥生橋停歩6分,所有権,50,1種低層,18.66,80,144,2025/6/8,-,-,-,(株)ＬＩＦＥＦＵＮＤ,053-488-8912,34.7232056,137.6988992
305,一般,売地,浜松市中央区富塚町,1801,-,所有権,40,無指定,15.49,200,384,2025/7/6,-,-,相談,(株)マストレ　高林支店,053-472-5656,34.7232056,137.6988992
312,専任,売地,浜松市中央区富塚町,12802,徒歩50分,所有権,50,1種低層,38.79,80,1091,2025/6/26,-,-,更地渡し,浜松損害保険サービス(株),053-459-4180,34.7232056,137.6988992
310,専任,売地,浜松市中央区富塚町,3500,バス停弥生団地西停歩3分,所有権,50,1種低層,37.94,80,305,2025/7/4,-,-,更地渡し,(株)ニイノプラン　第一支店,053-401-2105,34.7232056,137.6988992
309,専任,売地,浜松市中央区富塚町,1950,バス海2道5分,所有権,50,1種低層,30.62,80,211,2025/7/9,-,-,現況渡し,(株)マストレ　高林支店,053-472-5656,34.7232056,137.6988992
169,媒介,売地,浜松市中央区富塚町,1271,バス停富塚小学校停歩5分,所有権,50,1種低層,15.51,80,271,2025/6/2,-,-,現況渡し,(有)カミヤプランニングオフィス,053-453-5564,34.7232056,137.6988992
145,一般媒介,売地,浜松市中央区富塚町,1732,東海道本線 浜松,,,,,,,,,,,,,,
308,一般,売地,浜松市中央区富塚町1220-52/1220-68,2650,バス海4道4本分線バス浜停松あけぼの団地停歩4分,所有権,50,1種低層,33.63,80,261,2025/7/21,-,-,現況渡し,(株)丸八アセットマネージメント　売買資産活用部 053-450-8008,053-450-8008,34.7232056,137.6988992
146,媒介,売地,浜松市中央区富塚町1749,1800,バス停 富塚小学校 停歩5分,所有権,50,１種低層,31.98,80,186,2025/5/22,-,-,現況渡し,(株)プラス,053-478-5511,34.7232056,137.6988992
307,一般,売地,浜松市中央区富塚町2132-187,1900,徒歩70分,所有権,60,1種住居,21.69,200,290,2025/7/8,-,-,更地渡し,浜松損害保険サービス(株),053-459-4180,34.7287019,137.6929278
143,一般媒介,売地,浜松市中央区富塚町2259番16,1240,"東海道本線 浜松 距離55,000000m",所有権,50,１種低層,21.74,80,189,2025/5/16,-,-,建築条件付,まちかど相談室,053-485-0626,34.7217349,137.6963427
311,専任,売地,浜松市中央区富塚町2269-15,2401,バス停安座停歩5分,所有権,50,1種低層,37.22,80,213,2025/6/27,-,-,更地渡し,Ｕｌｕ・コンサルティング(株),053-523-8188,34.7211943,137.6956498
144,媒介,売地,浜松市中央区富塚町2575,1594,バス停 弥生橋 停歩5分,所有権,40,１種低層,25.9,60,203,2025/5/22,-,-,相談,(株)プラス,053-478-5511,34.7232056,137.6988992
589,媒介,売地,浜松市中央区富塚町2961-17,1620,浜松市中央区富塚町2961-17,所有権,60,-,27.69,2,193,2025/5/2,-,-,更地渡し,アスティア,053-543-9988,34.7262083,137.6937093
310,媒介,売地,浜松市中央区富塚町3003番31,2400,バス停弥生団地西停歩2分,所有権,60,1種住居,39.67,200,200,2025/7/4,-,-,更地渡し,(株)ニイノプラン　第一支店,053-401-2105,34.7296219,137.6909117
147,媒介,売地,浜松市中央区富塚町3412-3,2460,バス停 富塚停 停歩6分,所有権,60,１種低層,25,200,325,2025/5/22,-,-,相談,(株)プラス,053-478-5511,34.7277064,137.7010912
151,一般媒介,売地,浜松市中央区富塚町3500-3,3789,東海道本線 浜松,,,,,,,,,,,,,,
306,一般,売地,浜松市中央区富塚町3780-166,1806,-,所有権,50,無指定,10,200,597,2025/7/21,-,-,現況渡し,冨士物産(株)　浜松店,053-411-2223,34.7303722,137.6887189
152,一般媒介,売地,浜松市中央区富塚町4681-9他,6000,東海道本線 浜松 徒歩6600分,,,,,,,,,,,,,,
304,媒介,売地,浜松市中央区富塚町919-260,1390,-,所有権,50,1種低層,21.05,80,218,2025/7/4,-,-,更地渡し,(株)大亜住建,053-436-9115,34.7254834,137.7114868
173,媒介,売地,浜松市中央区富塚町字古平2647,2137,バス停安座停歩5分,所有権,30,無指定,7.01,200,1008,2025/6/17,-,-,相談,あきやま不動産,053-437-7330,34.7232056,137.6988992
311,専任,売地,浜松市中央区富塚町１１５０－１７,3700,バス停長坂橋停歩2分,所有権,50,1種低層,25.03,80,489,2025/7/24,-,-,更地渡し,アライブ企画営業部,053-476-7112,34.7300826,137.7128038
304,専任,売地,浜松市中央区富塚町１６１８－１２３,1581,バス停うさぎ橋停歩9分,所有権,50,1種低層,16.53,80,316,2025/6/26,-,-,更地渡し,遠州鉄道(株)　浜松店,053-471-0202,34.7308,137.7043534
309,専任,売地,浜松市中央区富塚町２１３２－１７５,2701,バス停弥生団地（静岡県）停歩4分,所有権,50,1種低層,31.55,80,283,2025/7/22,-,-,更地渡し,遠州鉄道(株)　広沢プラザ,053-456-0055,34.7287346,137.6942636
142,専任媒介,売地,浜松市中央区富塚町２２１－８　他,999,バス停 富塚 停歩3分,所有権,50,１種低層,17.48,80,189,2025/5/16,-,-,更地渡し,遠州鉄道(株)　広沢プラザ,053-456-0055,34.7202087,137.7070381
306,一般,売地,浜松市中央区富塚町２６－１,1732,バス停おかめ坂停歩2分,所有権,50,1種低層,28,80,205,2025/6/28,-,-,現況渡し,アライブ企画営業部,053-476-7112,34.7232056,137.6988992
303,一般,売地,浜松市中央区富塚町７７０－７６,930,バス停豊橋大橋停歩4分,所有権,50,1種低層,13.34,80,230,2025/7/5,-,-,現況渡し,アライブ企画営業部,053-476-7112,34.7256255,137.7082773
295,一般,売地,浜松市中央区寺島町531-1・532・533,4329,徒歩13分,所有権,70,2種住居,42,200,341,2025/7/21,-,-,相談,(株)アランアール,053-488-5590,34.6993181,137.7384852
297,専任,売地,浜松市中央区寺脇町,848,バス海1道5分,所有権,60,無指定,7.01,200,400,2025/7/7,-,-,相談,(株)ＡＦＣスマイルプラス　Ｓｍｉｆｅ浜松西支店,053-449-7111,34.6799213,137.7477294
560,一般媒介,売地,浜松市中央区寺脇町,642,浜松市中央区寺脇町,所有権,60,用途地域,21.97,2,97,2025/5/2,-,-,更地渡し,マストレ企画営業所,053-401-3456,34.6799213,137.7477294
140,媒介,売地,浜松市中央区寺脇町1455-7,642,バス停 寺脇橋 停歩5分,所有権,60,無指定,21.97,200,97,2025/5/22,-,-,更地渡し,(株)プラス,053-478-5511,34.6781939,137.7518381
296,媒介,売地,浜松市中央区寺脇町1527,681,バス停寺脇南停歩1分,所有権,60,無指定,6.99,200,322,2025/7/22,-,-,現況渡し,(株)旭ビジョン,053-458-1355,34.6799213,137.7477294
294,媒介,売地,浜松市中央区寺脇町1585、1586,300,バス停本田停歩2分,所有権,60,無指定,4.89,200,203,2025/6/27,-,-,現況渡し,(株)Ｐａｄｄｌｅ,053-482-7733,34.6799213,137.7477294
563,媒介,売地,浜松市中央区寺脇町331-2,990,浜松市中央区寺脇町331-2,所有権,60,-,22.48,2,146,2025/5/2,-,-,更地渡し,アスティア,053-543-9988,34.682643,137.7440508
564,一般媒介,売地,浜松市中央区寺脇町945,1100,浜松市中央区寺脇町945,所有権,60,-,21.52,2,169,2025/5/1,-,-,更地渡し,(株)Ｐａｄｄｌｅ,053-482-7733,34.6794144,137.749068
228,専任,売地,浜松市中央区小池町,2680,-,所有権,60,無指定,20.17,200,439,2025/7/3,-,-,更地渡し,(株)マストレ　高林支店,053-472-5656,34.7484403,137.7563588
224,媒介,売地,"浜松市中央区小池町1232,1233",806,徒歩12分,所有権,60,-,6.5,200,410,2025/7/14,-,-,建築条件付,(株)アトラック,053-454-4551,34.7484403,137.7563588
225,媒介,売地,"浜松市中央区小池町1268,1269",900,徒歩1分,所有権,60,-,7.46,200,399,2025/7/25,-,-,建築条件付,(株)アトラック,053-454-4551,34.7484403,137.7563588
221,媒介,売地,浜松市中央区小池町1286,330,徒歩12分,所有権,60,無指定,4.92,200,222,2025/7/2,-,-,現況渡し,(有)伊藤会計不動産部,053-422-9181,34.7484403,137.7563588
223,媒介,売地,浜松市中央区小池町2732番3,500,バス州停鉄遠道鉄自バ動ス車「小学池校南前」停徒停歩123分,所有権,60,無指定,5.88,200,281,2025/7/15,-,-,現況渡し,(株)ヤマセ不動産,053-474-2188,34.7407252,137.7556605
226,一般,売地,浜松市中央区小池町2780，2781，2782,1194,徒歩1分,所有権,60,無指定,9.01,200,438,2025/7/17,-,-,更地渡し,(有)金原物産,0538-24-7024,34.7484403,137.7563588
227,専任,売地,浜松市中央区小池町2928-5,2480,徒歩13分,所有権,60,無指定,31.06,200,264,2025/7/25,-,-,建築条件付,ひだまり工房(株),053-596-3900,34.7405895,137.7545518
231,専任,売地,浜松市中央区小沢渡町,750,バス海3道0本分線バス高停塚西徒脇歩停1停6歩分3分,所有権,60,無指定,8.07,200,307,2025/7/16,-,-,現況渡し,(株)三キュウ,053-489-9937,34.6789181,137.6812072
233,一般,売地,浜松市中央区小沢渡町,1150,バス海1道8本分線バス浜停松スズキ入口停歩6分,所有権,60,無指定,13.72,200,277,2025/7/20,-,-,更地渡し,(株)マストレ,053-448-5656,34.6789181,137.6812072
234,売主,売地,浜松市中央区小沢渡町,1200,バス海4道0本分線バス高停塚高徒塚歩西1停3分,所有権,60,無指定,11.43,200,347,2025/7/16,-,-,更地渡し,(株)三キュウ,053-489-9937,34.6789181,137.6812072
91,専任媒介,売地,浜松市中央区小沢渡町,900,東海道本線 高塚 徒歩99分,,,,,,,,,,,,,,
235,一般,売地,浜松市中央区小沢渡町,1491,バス海3道0本分線バス浜停松小沢渡停歩4分,所有権,60,無指定,9.03,200,546,2025/7/1,-,-,現況渡し,(株)マストレ,053-448-5656,34.6789181,137.6812072
229,専任,売地,浜松市中央区小沢渡町,900,バス海3道0本分線バス高停塚西徒小歩沢9渡分停歩5分,所有権,60,無指定,14.31,200,208,2025/7/7,-,-,現況渡し,(株)三キュウ,053-489-9937,34.6789181,137.6812072
232,一般,売地,浜松市中央区小沢渡町1057の一部,1000,徒歩14分,所有権,60,-,9.25,180,358,2025/6/26,-,-,現況渡し,とぴあ浜松農業協同組合不動産センター有玉店,053-476-3152,34.6834487,137.6795973
230,媒介,売地,浜松市中央区小沢渡町1198,646,バス海停道西本小線沢高渡塚停徒歩6分,所有権,60,-,5,200,427,2025/6/26,-,-,現況渡し,とぴあ浜松農業協同組合不動産センター有玉店,053-476-3152,34.6789181,137.6812072
109,媒介,売地,浜松市中央区小沢渡町364-5,1181,徒歩16分,所有権,60,無指定,13.4,200,291,2025/6/22,-,-,現況渡し,(有)フクエイ,053-435-0913,34.6835913,137.6869615
358,媒介,売地,浜松市中央区小沢渡町417-2,1200,浜松市中央区小沢渡町417-2,所有権,60,-,18.2,2,218,2025/5/2,-,-,更地渡し,アスティア,053-543-9988,34.6828004,137.6921152
2,専任媒介,売地,浜松市中央区小豆餅２丁目20-6,2250,東海道本線 浜松,,,,,,,,,,,,,,
23,-,売地,浜松市中央区小豆餅３丁目,1527,浜松市中央区小豆餅３丁目,所有権,70,-,33.44,2,151,2025/5/2,-,-,現況渡し,藤田土地開発(株),053-922-3007,34.7542656,137.7286265
49,一般媒介,売地,浜松市中央区尾張町125番28,2999,遠州鉄道 遠州病院 徒歩66分,所有権,80,商業地域,73.89,500,134,2025/5/22,-,-,現況渡し,松屋不動産販売(株),053-401-6610,34.7108495,137.7298717
285,一般,売地,浜松市中央区山下町117,4501,徒歩7分,所有権,80,近隣商業,49.46,300,301,2025/6/10,-,-,現況渡し,(株)美建コーポレーション,053-473-1208,34.7171713,137.7302919
439,一般,売地,浜松市中央区山手町,4901,バス海1道0本分線バス浜停松佐鳴台坂下停歩2分,所有権,60,1種中高,26.96,200,601,2025/7/1,-,-,現況渡し,(株)マストレ,053-448-5656,34.7079112,137.7052194
240,一般媒介,売地,浜松市中央区山手町(地番4877-14),5000,東海道本線 浜松 徒歩4455分,,,,,,,,,,,,,,
288,媒介,売地,浜松市中央区山手町44-18,4986,バス停佐鳴台団地停歩6分,所有権,60,1種中高,53,200,311,2025/6/18,-,-,更地渡し,ニイノプラン,053-485-7700,34.7073329,137.7021117
440,一般,売地,浜松市中央区山手町4904番4,4985,徒歩37分,所有権,60,1種中高,52.99,200,311,2025/7/11,-,-,更地渡し,大東建託リーシング(株)　中村公園店,052-483-7011,34.7079112,137.7052194
438,媒介,売地,浜松市中央区山手町4991-187．4991-188,2401,バス海1道5分,所有権,60,2種住居,27.75,200,286,2025/7/11,-,-,現況渡し,(株)リンク,053-424-5000,34.7079112,137.7052194
286,一般,売地,浜松市中央区山手町４４番１８号,4985,バス海1道9分,所有権,60,1種中高,52.99,200,311,2025/6/25,-,-,更地渡し,遠州鉄道(株)　事業用不動産流通グループ,053-488-8811,34.7073329,137.7021117
27,専任,売地,浜松市中央区市野町,1916,バス海3道9分,所有権,60,無指定,24.4,200,260,2025/7/10,-,-,更地渡し,(株)マストレ,053-448-5656,34.7456318,137.7711552
26,専属専任,売地,浜松市中央区市野町1061-1，1062-3，1062-4,800,バス州停鉄浜道松さホぎトのニ宮クス徒停歩354分,所有権,60,無指定,5.39,200,491,2025/7/22,-,-,現況渡し,川井建設(株),053-461-9491,34.7489745,137.7777477
20,専任媒介,売地,浜松市中央区市野町1478-2,990,ＪＲ東海道新幹線 浜松,,,,,,,,,,,,,,
28,媒介,売地,浜松市中央区市野町650-2,2100,徒歩23分,所有権,60,無指定,19.76,180,351,2025/7/15,-,-,相談,(株)ヤマセ不動産,053-474-2188,34.7502559,137.7699784
740,専任媒介,売地,浜松市中央区布橋１丁目１,300,浜松市中央区布橋１丁目１,所有権,60,用途地域,13.85,2,72,2025/5/7,-,-,現況渡し,アライブ企画営業部,053-476-7112,34.7181735,137.7223117
213,専任,売地,浜松市中央区布橋２丁目,424,バス停さいが崖停歩3分,所有権,60,1種住居,29.25,200,48,2025/6/17,-,-,-,あきやま不動産,053-437-7330,34.7205924,137.7163057
140,媒介,売地,浜松市中央区常光町277,1301,-,所有権,60,無指定,9.35,200,460,2025/6/9,-,-,現況渡し,(株)竹林不動産,053-433-4451,34.7549609,137.8046629
269,専任,売地,浜松市中央区常光町883,1101,徒歩60分,所有権,60,無指定,10.71,200,340,2025/7/24,-,-,更地渡し,(株)不動産Ｌａｂｏ．,0538-33-6118,34.7545745,137.8053543
243,専任,売地,浜松市中央区平松町575,1000,バス海4道6本分線バス浜停松遠鉄バス鳥居先停歩15分,所有権,60,-,8.89,200,372,2025/6/23,-,-,相談,（株）桜花不動産,053-401-2924,34.7549405,137.6377738
244,専任,売地,浜松市中央区幸１丁目228-2,2200,徒歩24分,所有権,60,2種中高,32.04,200,227,2025/6/29,-,-,現況渡し,(株)不動産Ｌａｂｏ．,0538-33-6118,34.7401844,137.7249299
246,媒介,売地,浜松市中央区幸２丁目260-137、260-138,1998,徒歩17分,所有権,40,1種住居,14.39,60,459,2025/7/14,-,-,更地渡し,ＲＥコンサルタント静岡(株),053-489-6088,34.7382584,137.731091
247,専任,売地,浜松市中央区幸２丁目285-3,2500,徒歩18分,所有権,60,1種中高,12.62,200,655,2025/7/25,-,-,現況渡し,水嶋宅建(株),053-433-7660,34.7382584,137.731091
248,専任,売地,浜松市中央区幸３丁目７－１,2981,バス停幸中停歩5分,所有権,30,1種低層,28.12,60,350,2025/7/3,-,-,現況渡し,遠州鉄道(株)　高台店,053-437-1976,34.7408031,137.7294963
206,一般媒介,売地,浜松市中央区広沢１丁目,990,東海道本線 浜松,,,,,,,,,,,,,,
371,一般,売地,浜松市中央区広沢１丁目252-79,2600,バス海1道5分,所有権,60,1種中高,38,160,226,2025/7/8,-,-,現況渡し,(有)アイ・プラン,053-451-4656,34.7165678,137.7175376
391,一般,売地,浜松市中央区広沢２丁目,3980,-,所有権,60,1種中高,31.08,200,423,2025/7/22,-,-,現況渡し,松屋不動産販売(株),053-401-6610,34.7161317,137.7138419
207,売主,売地,浜松市中央区広沢２丁目42-19、48-7の一部,2980,東海道本線 浜松,,,,,,,,,,,,,,
392,一般,売地,"浜松市中央区広沢２丁目78-80,78-76",3980,徒歩32分,所有権,60,1種中高,31.08,200,423,2025/6/30,-,-,相談,中部ガス不動産（株）浜松中央支店,053-451-0525,34.7161317,137.7138419
390,一般,売地,浜松市中央区広沢２丁目２２－１５,2951,バス停浜松病院停歩2分,所有権,60,1種中高,30.98,200,315,2025/7/13,-,-,現況渡し,アライブ企画営業部,053-476-7112,34.7142885,137.7122305
389,専任,売地,浜松市中央区広沢２丁目２２－８,2773,バス停浜松病院停歩4分,所有権,60,1種中高,20,200,458,2025/7/16,-,-,更地渡し,アライブ企画営業部,053-476-7112,34.7144492,137.7124904
208,媒介,売地,浜松市中央区広沢３丁目363-91,2982,"東海道本線 浜松 距離22,000000m",,,,,,,,,,,,,,
229,媒介,売地,浜松市中央区御給町180,2346,バス停御給停歩4分,所有権,60,無指定,5,200,1551,2025/7/11,-,-,現況渡し,(株)山崎不動産,053-463-8713,34.675999,137.7693054
52,一般媒介,売地,浜松市中央区恩地町,740,ＪＲ東海道新幹線 浜松,,,,,,,,,,,,,,
62,一般,売地,浜松市中央区恩地町168-1,1500,"バス海1道6本分線バス浜停松本距郷離南3停,2歩070分",所有権,60,工業地域,18.87,200,263,2025/7/7,-,-,更地渡し,コリー(株),053-433-3808,34.6899881,137.7599714
51,媒介,売地,浜松市中央区恩地町２５４－２,740,バス停 芳川西 停歩6分,所有権,60,工業地域,24.9,200,98,2025/5/22,142.98,1月10日,現況渡し,とぴあ浜松農業協同組合不動産センター有玉店,053-476-3152,34.6888969,137.7618994
375,専任,売地,浜松市中央区文丘町,2981,徒歩34分,所有権,60,1種中高,41.3,200,239,2025/7/4,-,-,現況渡し,(株)ＡＦＣスマイルプラス　Ｓｍｉｆｅ浜松西支店,053-449-7111,34.7252293,137.7138419
376,売主,売地,浜松市中央区文丘町9番12,2981,徒歩3分,所有権,60,1種中高,41.27,200,239,2025/7/3,-,-,更地渡し,(株)ＡＦＣスマイル不動産　営業本部　浜松支社,053-450-3964,34.7240864,137.7149968
360,一般,売地,浜松市中央区新橋町,1812,-,所有権,60,無指定,16.5,200,363,2025/7/20,-,-,更地渡し,マストレ企画営業所,053-401-3456,34.681355,137.7082987
359,一般,売地,浜松市中央区新橋町,1250,徒歩57分,所有権,60,無指定,8.89,200,465,2025/7/22,-,-,現況渡し,浜松損害保険サービス(株),053-459-4180,34.681355,137.7082987
346,一般,売地,浜松市中央区新橋町,741,バス海2道0本分線バス浜停松新橋町停歩8分,所有権,60,無指定,10,200,245,2025/7/8,-,-,現況渡し,(株)マストレ,053-448-5656,34.681355,137.7082987
357,一般,売地,浜松市中央区新橋町,990,バス海2道0本分線バス高停塚新津小学校停歩2分,所有権,60,無指定,8.31,200,394,2025/6/28,-,-,現況渡し,(株)マストレ,053-448-5656,34.681355,137.7082987
355,一般,売地,浜松市中央区新橋町,795,バス海2道0本分線バス浜停松前組停歩5分,所有権,60,無指定,10,200,263,2025/7/3,-,-,更地渡し,(株)マストレ,053-448-5656,34.681355,137.7082987
358,専任,売地,浜松市中央区新橋町,1000,バス海3道0本分線バス浜停松新津小学校停歩4分,所有権,60,無指定,6.79,200,487,2025/7/16,-,-,現況渡し,(株)三キュウ,053-489-9937,34.681355,137.7082987
362,一般,売地,浜松市中央区新橋町1141、1142、1143,6900,バス停新橋東停歩4分,所有権,70,-,10.35,200,2204,2025/6/27,-,-,現況渡し,(株)Ｐａｄｄｌｅ,053-482-7733,34.681355,137.7082987
356,媒介,売地,浜松市中央区新橋町812,990,バス海停道新本津線小高学塚校徒停歩23分,所有権,60,-,8.31,200,394,2025/7/15,-,-,現況渡し,とぴあ浜松農業協同組合不動産センター有玉店,053-476-3152,34.681355,137.7082987
361,一般,売地,浜松市中央区新橋町98、99、100-1,4405,バス停体育センター停歩6分,所有権,70,-,8.33,200,1748,2025/6/27,-,-,現況渡し,(株)Ｐａｄｄｌｅ,053-482-7733,34.681355,137.7082987
127,専任媒介,売地,浜松市中央区新津町315-1,2200,遠州鉄道 八幡 徒歩88分,所有権,80,近隣商業,36.5,200,199,2025/5/16,-,-,更地渡し,(株)創継コンサルタンツ,053-545-7450,34.7188018,137.7407477
272,媒介,売地,浜松市中央区新貝町852-1,1000,徒歩32分,所有権,60,-,12.75,200,259,2025/7/1,-,-,更地渡し,(株)丸玉,053-421-7360,34.7039111,137.7897637
281,専任,売地,浜松市中央区早出町１０４１－３,2500,徒歩8分,所有権,60,1種住居,29.31,200,282,2025/7/12,-,-,更地渡し,遠州鉄道(株)　事業用不動産流通グループ,053-488-8811,34.7330129,137.7461657
63,一般媒介,売地,浜松市中央区春日町,800,東海道本線 浜松,,,,,,,,,,,,,,
205,媒介,売地,浜松市中央区曳馬６丁目112番3,1500,遠州鉄道 曳馬 徒歩1100分,所有権,60,１種住居,3.06,200,150,2025/5/21,-,-,現況渡し,(株)ヤマセ不動産,053-474-2188,34.7363317,137.7372527
242,専任,売地,浜松市中央区曳馬６丁目3057-3、3060-4,1791,徒歩13分,所有権,60,1種中高,14.91,200,397,2025/6/10,-,-,現況渡し,SKY,053-414-2100,34.7363317,137.7372527
2,専任,売地,浜松市中央区有玉北町,780,徒歩6分,所有権,60,無指定,8,200,322,2025/6/11,-,-,現況渡し,藤田土地開発(株),053-922-3007,34.7649747,137.7551259
4,専任,売地,浜松市中央区有玉北町,1580,バス海2道5分,所有権,60,無指定,19.49,200,268,2025/7/25,-,-,更地渡し,(株)マストレ東営業所,053-462-5656,34.7649747,137.7551259
3,専任,売地,浜松市中央区有玉北町1048,830,バス海2道6本分線バス浜停松半田大橋停歩6分,所有権,60,無指定,6.95,200,395,2025/7/22,-,-,現況渡し,センチュリー21中央不動産浜松店,053-584-0021,34.7649747,137.7551259
32,★売主,売地,浜松市中央区有玉北町1315-1他,1875,浜松市中央区有玉北町1315-1他,所有権,60,-,19,2,326,2025/5/7,-,-,相談,犬塚産業(株),053-455-0588,34.7628123,137.7602727
2,一般,売地,浜松市中央区有玉北町2013-1,591,バス停有玉北停歩7分,所有権,60,無指定,9.21,200,212,2025/7/10,-,-,現況渡し,アイエス宅建,053-434-6810,34.763879,137.7503993
5,媒介,売地,"浜松市中央区有玉北町2182,2183",5253,徒歩1分,所有権,-,-,15.01,,1157,2025/6/12,-,-,現況渡し,（株）五興不動産開発,053-413-2625,34.7604592,137.7518416
1,媒介,売地,浜松市中央区有玉北町556,758,バス停上瀬停歩6分,所有権,60,-,8.01,200,313,2025/7/2,-,-,現況渡し,上島不動産(株),053-473-5000,34.7649747,137.7551259
3,一般媒介,売地,浜松市中央区有玉北町２０１３－１,490,遠州鉄道 さぎの宮 徒歩1155分,所有権,60,無指定,7.65,200,212,2025/5/20,-,-,現況渡し,遠州鉄道(株)　浜北店,053-581-1124,34.763879,137.7503993
2,一般,売地,浜松市中央区有玉北町２０９７,760,徒歩13分,所有権,60,無指定,7.07,200,355,2025/7/24,-,-,現況渡し,遠州鉄道(株)　浜北店,053-581-1124,34.7649747,137.7551259
10,専任,売地,浜松市中央区有玉南町,990,徒歩12分,所有権,60,-,9.89,200,331,2025/6/16,-,-,相談,マークスライフ(株),050-8885-0772,34.7533433,137.7464967
14,一般,売地,浜松市中央区有玉南町,6202,徒歩15分,所有権,-,-,10.04,,2042,2025/6/5,-,-,現況渡し,ミタカ不動産,058-246-4770,34.7533433,137.7464967
13,一般,売地,浜松市中央区有玉南町,2755,徒歩14分,所有権,-,-,9.01,,1011,2025/6/5,-,-,現況渡し,ミタカ不動産,058-246-4770,34.7533433,137.7464967
9,一般,売地,浜松市中央区有玉南町1160-1他,1028,バス停有玉神社停歩8分,所有権,60,-,7.01,200,485,2025/7/22,-,-,現況渡し,ＦＰ・マンション管理士事務所　あんず,053-545-6500,34.7533433,137.7464967
12,売主,売地,浜松市中央区有玉南町1643,13804,徒歩7分,所有権,60,無指定,32.99,200,1383,2025/7/9,-,-,現況渡し,(株)エステート・パートナー,053-443-8856,34.7509216,137.7511978
7,売主,売地,浜松市中央区有玉南町1643,2341,遠州鉄道 自動車学校前 徒歩77分,所有権,60,無指定,3,200,235,2025/5/22,-,-,現況渡し,(株)エステート・パートナー,053-443-8856,34.7509216,137.7511978
8,媒介,売地,"浜松市中央区有玉南町175-1,175-2",5000,遠州鉄道 さぎの宮 徒歩88分,所有権,60,無指定,2.7,200,726,2025/5/16,-,-,現況渡し,(株)リンク,053-424-5000,34.7532433,137.7544902
11,媒介,売地,浜松市中央区有玉南町2230,2300,徒歩10分,所有権,70,-,28.06,200,271,2025/7/1,-,-,現況渡し,(株)丸玉,053-421-7360,34.749132,137.7457448
8,媒介,売地,浜松市中央区有玉南町780番1、781番1の一部,650,徒歩13分,所有権,60,-,4.98,600,432,2025/7/15,-,-,現況渡し,とぴあ浜松農業協同組合不動産センター有玉店,053-476-3152,34.7533433,137.7464967
48,一般媒介,売地,浜松市中央区有玉南町１２０３－１０,1053,浜松市中央区有玉南町１２０３－１０,所有権,60,-,8.52,2,409,2025/5/8,-,-,現況渡し,浩世不動産,053-522-8631,34.7565106,137.7469531
10,一般,売地,浜松市中央区有玉南町３９５－１,1101,徒歩5分,所有権,60,無指定,7.38,200,493,2025/6/29,-,-,現況渡し,遠州鉄道(株)　浜北店,053-581-1124,34.7567296,137.7543202
6,一般,売地,浜松市中央区有玉台１丁目,2634,バス海2道8本分線バス浜停松有玉団地南停歩6分,所有権,60,2種中高,33,200,264,2025/6/7,-,-,現況渡し,センチュリー21中央不動産浜松店,053-584-0021,34.7595993,137.7384852
7,一般,売地,浜松市中央区有玉台２丁目,1300,バス海2道6本分線バス浜停松有玉団地南停歩4分,所有権,70,1種中高,17,200,253,2025/6/16,-,-,更地渡し,(株)マストレ,053-448-5656,34.7623101,137.7421827
5,一般,売地,浜松市中央区有玉台２丁目,3982,徒歩24分,所有権,60,1種中高,22.31,200,590,2025/7/8,-,-,相談,浜松損害保険サービス(株),053-459-4180,34.7623101,137.7421827
8,一般,売地,浜松市中央区有玉台２丁目３７－１４,3982,バス停有玉団地停歩5分,所有権,60,1種中高,22.31,200,590,2025/6/25,-,-,更地渡し,遠州鉄道(株)　浜北店,053-581-1124,34.764521,137.7410648
6,一般媒介,売地,浜松市中央区有玉台３丁目,2607,東海道本線 浜松,,,,,,,,,,,,,,
7,媒介,売地,浜松市中央区有玉西町2415‐8,2401,-,所有権,60,2種住居,26.21,200,303,2025/6/26,-,-,更地渡し,(株)浜賑不動産,053-443-8602,34.7500126,137.7365403
6,一般,売地,浜松市中央区有玉西町２４１５－８,2401,バス州停鉄宇道藤上停島歩徒8分,所有権,60,2種住居,26.21,200,303,2025/7/16,-,-,更地渡し,(有)北伸土地,053-438-1200,34.7500126,137.7365403
839,専任媒介,売地,浜松市中央区本郷町,700,浜松市中央区本郷町,所有権,60,-,14.46,2,160,2025/5/8,-,-,更地渡し,あららぎ不動産(株),053-464-5557,34.6975892,137.7625235
255,一般,売地,浜松市中央区本郷町1308-20,2600,バス海停道本郷線北天停竜歩川2分,所有権,60,2種中高,33.34,200,258,2025/6/17,-,-,更地渡し,しずなび(株)　浜松東店,053-467-6700,34.7001528,137.7651612
256,一般,売地,浜松市中央区本郷町1308番20,2600,バス海1道0本分線バス浜停松本郷北停歩1分,所有権,60,2種中高,33.34,200,258,2025/6/12,-,-,現況渡し,松屋不動産販売(株),053-401-6610,34.7001528,137.7651612
840,媒介,売地,"浜松市中央区本郷町1326-5,1626-6",1580,"浜松市中央区本郷町1326-5,1626-6",所有権,60,用途地域,29.02,2,180,2025/5/2,-,-,更地渡し,アスティア,053-543-9988,34.698866,137.763955
244,媒介,売地,浜松市中央区材木町29番の一部,850,徒歩19分,所有権,60,-,7.09,200,396,2025/7/1,-,-,現況渡し,とぴあ浜松農業協同組合不動産センター有玉店,053-476-3152,34.7169909,137.792124
117,媒介,売地,浜松市中央区材木町468,3602,徒歩2分,所有権,60,工業地域,16.2,200,735,2025/6/6,-,-,現況渡し,エヌ・ワイ・エフ(株),053-522-7207,34.7169909,137.792124
419,一般,売地,浜松市中央区村櫛町,720,バス海6道0本分線バス浜停松村櫛停歩5分,所有権,60,1種住居,10.03,200,237,2025/7/7,-,-,現況渡し,(株)マストレ　高林支店,053-472-5656,34.7259423,137.5931621
435,一般,売地,浜松市中央区村櫛町,931,バス海6道0本分線バス浜停松村櫛停歩5分,所有権,60,1種住居,10.07,200,306,2025/7/7,-,-,建築条件付,(株)マストレ　高林支店,053-472-5656,34.7259423,137.5931621
430,一般,売地,浜松市中央区村櫛町,540,徒歩74分,所有権,60,1種住居,3.69,200,484,2025/7/15,-,-,現況渡し,浜松損害保険サービス(株),053-459-4180,34.7259423,137.5931621
280,売主,売地,浜松市中央区村櫛町2642番1、他4筆,500,バス停徒歩7分,所有権,60,1種住居,4.05,200,408,2025/6/23,-,-,相談,ユウナンエイト(株),053-401-9723,34.7281929,137.5966348
422,媒介,売地,"浜松市中央区村櫛町2936-1,3,4,5の一部",900,-,所有権,60,1種住居,4.96,200,600,2025/7/8,-,-,更地渡し,グッド不動産売買,053-488-9440,34.726513,137.5940204
433,媒介,売地,浜松市中央区村櫛町2939-10,890,バス停村櫛小学校入口停歩2分,所有権,60,1種住居,11,200,267,2025/7/10,-,-,更地渡し,とぴあ浜松農業協同組合不動産センター有玉店,053-476-3152,34.7259142,137.5940357
236,媒介,売地,浜松市中央区村櫛町3331,300,"東海道本線 弁天島 距離55,770000m",,,,,,,,,,,,,,
429,媒介,売地,浜松市中央区村櫛町3331,301,-,所有権,60,1種住居,3.63,200,274,2025/7/14,-,-,更地渡し,(有)アイエムティ,053-545-6314,34.7246236,137.5909451
283,媒介,売地,浜松市中央区村櫛町3355番、3352番4,920,バス停村櫛中停歩4分,所有権,60,1種住居,6.75,200,451,2025/6/12,-,-,更地渡し,とぴあ浜松農業協同組合不動産センター有玉店,053-476-3152,34.7241793,137.5913066
417,専任,売地,浜松市中央区村櫛町3663-1,571,バス停村櫛停歩3分,所有権,60,1種住居,7.91,200,238,2025/7/4,-,-,更地渡し,(株)不動産Ｌａｂｏ．,0538-33-6118,34.7259423,137.5931621
434,一般,売地,浜松市中央区村櫛町3667,896,バス海6道0本分線バス浜停松村櫛停歩3分,所有権,60,1種住居,8,160,370,2025/7/8,-,-,更地渡し,(有)アイ・プラン,053-451-4656,34.7220525,137.5948124
432,一般,売地,"浜松市中央区村櫛町3706-7,3707-7",820,バス海6道5本分線バス浜停松村櫛停歩5分,所有権,60,1種住居,7.97,200,340,2025/7/24,-,-,更地渡し,(株)丸浜不動産コンサルティング,053-447-8817,34.7215427,137.5966166
284,専任,売地,浜松市中央区村櫛町3803-1,1196,バス幹停線村浜櫛松中停歩4分,所有権,70,1種住居,10.01,200,395,2025/6/2,-,-,更地渡し,(株)丸浜不動産コンサルティング,053-447-8817,34.7243485,137.5961434
436,一般,売地,浜松市中央区村櫛町3882-1,1648,バス海6道0本分線バス浜停松村櫛停歩5分,所有権,60,1種住居,10,200,545,2025/7/8,-,-,現況渡し,(有)アイ・プラン,053-451-4656,34.7259423,137.5931621
282,媒介,売地,浜松市中央区村櫛町3896番3、3897番3,885,バス停村櫛小学校入口停歩7分,所有権,60,1種住居,10,200,293,2025/6/9,-,-,現況渡し,とぴあ浜松農業協同組合不動産センター有玉店,053-476-3152,34.7268098,137.5968655
431,一般,売地,浜松市中央区村櫛町4221-1,652,徒歩7分,所有権,60,1種住居,2.28,200,946,2025/7/8,-,-,現況渡し,浜松損害保険サービス(株),053-459-4180,34.7259423,137.5931621
384,媒介,売地,浜松市中央区東三方町447-16,1502,バス停赤松坂停歩9分,所有権,60,-,5.01,200,991,2025/7/8,-,-,現況渡し,(有)天商,053-436-6708,34.7839561,137.7228876
386,媒介,売地,浜松市中央区東三方町519-1他,7237,バス海4道0本分線バス浜停松愛隣停歩10分,所有権,60,-,9.5,200,2518,2025/7/19,-,-,建築条件付,RBS有限会社,053-443-8578,34.7853515,137.7375137
385,一般,売地,浜松市中央区東三方町４４７－１６,1502,バス停愛隣停歩8分,所有権,60,無指定,5.01,200,991,2025/7/2,-,-,更地渡し,遠州鉄道(株)　高台店,053-437-1976,34.7839561,137.7228876
200,専属専任,売地,浜松市中央区東伊場１丁目35-18,2590,遠州鉄道 新浜松 徒歩2277分,所有権,60,１種中高,4.73,200,191,2025/5/17,-,-,相談,オーク不動産(株),053-555-1074,34.701069,137.7131265
383,一般,売地,浜松市中央区東町,634,バス海2道7分,所有権,60,無指定,8,200,262,2025/7/5,-,-,更地渡し,(株)マストレ浜松医大前営業所,053-424-7747,34.6819759,137.7847223
382,媒介,売地,浜松市中央区東町61,573,バス停東町停歩1分,所有権,60,-,6.01,200,315,2025/7/11,-,-,現況渡し,(株)山崎不動産,053-463-8713,34.6819759,137.7847223
798,一般媒介,売地,浜松市中央区東町83-2,1480,浜松市中央区東町83-2,所有権,60,-,14.8,2,331,2025/5/5,-,-,現況渡し,(株)アランアール,053-488-5590,34.6815446,137.7836471
202,専任媒介,売地,浜松市中央区東若林町,1600,バス停 八丁畷 停歩2分,所有権,60,工業地域,2.69,200,233,2025/5/19,-,-,相談,あららぎ不動産(株),053-464-5557,34.6902778,137.7132259
387,一般,売地,浜松市中央区東若林町,1700,バス海1道1分,所有権,60,1種住居,20.87,200,269,2025/7/7,-,-,現況渡し,(株)マストレ,053-448-5656,34.6902778,137.7132259
388,一般,売地,浜松市中央区東若林町,1700,徒歩39分,所有権,60,1種住居,20.87,200,269,2025/6/30,-,-,更地渡し,中部ガス不動産（株）浜松中央支店,053-451-0525,34.6902778,137.7132259
370,一般,売地,浜松市中央区東若林町1273-6,2200,徒歩36分,所有権,60,工業地域,29.36,200,248,2025/7/8,-,-,更地渡し,浜松損害保険サービス(株),053-459-4180,34.6880791,137.7126823
204,媒介,売地,浜松市中央区東若林町1410番・1405番3,2980,バス停 遠鉄バス「八丁畷」 停歩3分,所有権,60,-,2.02,200,448,2025/5/22,-,-,現況渡し,とぴあ浜松農業協同組合不動産センター有玉店,053-476-3152,34.6902778,137.7132259
203,一般媒介,売地,浜松市中央区東若林町１６８３‐２、１６８３‐５,1700,遠州鉄道 新浜松 徒歩3388分,所有権,60,１種住居,20.87,200,269,2025/5/18,-,-,更地渡し,サーラ不動産(株)　浜松仲介チーム,053-464-6105,34.6873491,137.7096568
393,一般,売地,浜松市中央区松小池町,610,バス海3道5分,所有権,60,無指定,10.04,200,201,2025/7/9,-,-,現況渡し,(株)マストレ　高林支店,053-472-5656,34.7351994,137.792124
386,一般媒介,売地,浜松市中央区栄町,900,浜松市中央区栄町,所有権,80,-,20.69,2,144,2025/5/2,-,-,現況渡し,マストレ企画営業所,053-401-3456,34.7042057,137.725238
188,一般媒介,売地,浜松市中央区根洗町,4150,東海道本線 浜松,,,,,,,,,,,,,,
220,専任,売地,浜松市中央区根洗町,5003,バス停三方原墓園停歩4分,所有権,60,無指定,12.83,200,1289,2025/6/18,-,-,相談,ニイノプラン,053-485-7700,34.798104,137.7021403
367,一般,売地,浜松市中央区根洗町,4153,バス海4道2本分線バス浜停松別院停歩1分,所有権,60,無指定,8.99,200,1527,2025/7/17,-,-,現況渡し,(株)マストレ浜松医大前営業所,053-424-7747,34.798104,137.7021403
366,一般,売地,浜松市中央区根洗町,3523,バス海4道5本分線バス浜停松三方原墓園停歩1分,所有権,70,無指定,11.41,200,1021,2025/7/5,-,-,更地渡し,(株)マストレ,053-448-5656,34.798104,137.7021403
364,媒介,売地,浜松市中央区根洗町1101-3,800,バス停三方原墓園停歩5分,所有権,60,-,5.93,200,446,2025/7/18,-,-,現況渡し,(株)Ｐａｄｄｌｅ,053-482-7733,34.798104,137.7021403
217,媒介,売地,浜松市中央区根洗町1405-11の一部、1405-15の一部,1051,バス海3道6本分線バス浜停松別院停歩5分,所有権,60,無指定,6.95,200,500,2025/6/17,-,-,建築条件付,エヌ・ワイ・エフ(株),053-522-7207,34.7912541,137.7062609
363,媒介,売地,浜松市中央区根洗町1558の一部,583,バス停別所停歩2分,所有権,60,-,4.08,200,472,2025/7/8,-,-,更地渡し,(有)天商,053-436-6708,34.798104,137.7021403
215,一般,売地,浜松市中央区根洗町字東400-3,802,-,所有権,60,-,4.01,200,661,2025/6/15,-,-,現況渡し,川井建設(株),053-461-9491,34.798104,137.7021403
365,一般,売地,浜松市中央区根洗町１１０８－１,950,バス停三方原墓園停歩1分,所有権,60,無指定,11.34,200,277,2025/7/20,-,-,現況渡し,遠州鉄道(株)　高台店,053-437-1976,34.798104,137.7021403
238,専任媒介,売地,浜松市中央区森田町５１－１３,1280,東海道本線 浜松 徒歩2233分,所有権,60,工業地域,34.46,200,123,2025/5/22,-,-,更地渡し,遠州鉄道(株)　浜松店,053-471-0202,34.6955431,137.719937
21,媒介,売地,浜松市中央区植松町77-10,3880,ＪＲ東海道新幹線 浜松 徒歩3355分,所有権,60,１種住居,41.59,200,308,2025/5/20,-,-,現況渡し,(株)浜賑不動産,053-443-8602,34.7095828,137.7591441
459,専任,売地,浜松市中央区楊子町214,1781,徒歩23分,所有権,60,1種住居,19.49,200,302,2025/6/29,-,-,更地渡し,AGILE,053-568-2073,34.6929298,137.7472222
1004,★売主,売地,浜松市中央区楊子町461-2 外,1170,浜松市中央区楊子町461-2 外,所有権,60,-,24.81,2,156,2025/5/7,-,-,更地渡し,(株)ビルド２１,053-461-2100,34.6925292,137.7452641
31,専任,売地,浜松市中央区江之島町５２４番１、５２５番１,2782,バス停江之島町停歩2分,所有権,60,無指定,8.21,200,1120,2025/6/16,-,-,相談,遠州鉄道(株)　浜松店,053-471-0202,34.6619618,137.7563588
30,専任,売地,浜松市中央区江之島町５２６－１,951,バス停江之島町停歩2分,所有権,60,無指定,6.83,200,460,2025/6/12,-,-,現況渡し,遠州鉄道(株)　浜松店,053-471-0202,34.6619618,137.7563588
95,一般,売地,浜松市中央区河輪町126-1,690,バス停河輪停歩2分,所有権,60,無指定,7,200,326,2025/7/11,-,-,現況渡し,(株)山崎不動産,053-463-8713,34.6780467,137.7854358
96,媒介,売地,浜松市中央区河輪町126番1,690,バス停河輪停歩2分,所有権,60,-,7,200,326,2025/7/8,-,-,現況渡し,とぴあ浜松農業協同組合不動産センター有玉店,053-476-3152,34.6780467,137.7854358
94,媒介,売地,浜松市中央区河輪町260,240,バス停河輪停歩4分,所有権,60,無指定,3,200,264,2025/7/11,-,-,現況渡し,(株)山崎不動産,053-463-8713,34.6745298,137.7859558
78,媒介,売地,浜松市中央区泉１丁目837-1192,1690,浜松市中央区泉１丁目837-1192,所有権,60,-,28.41,2,197,2025/5/2,-,-,現況渡し,アスティア,053-543-9988,34.7397478,137.7212337
23,媒介,売地,浜松市中央区泉１丁目837-61の一部,5252,徒歩29分,所有権,80,近隣商業,40,200,434,2025/7/24,-,-,更地渡し,とぴあ浜松農業協同組合不動産センター有玉店,053-476-3152,34.7397478,137.7212337
24,一般,売地,浜松市中央区泉２丁目,1481,-,所有権,60,1種中高,5.93,200,826,2025/6/30,-,-,現況渡し,センチュリー21浜松FP不動産,053-482-7444,34.7431589,137.7212337
25,一般,売地,浜松市中央区泉２丁目,2982,バス海20道分本バス線停遠浜鉄松ストアフードワン泉店停歩3分,所有権,60,1種中高,11.94,200,826,2025/7/22,-,-,相談,松屋不動産販売(株),053-401-6610,34.7431589,137.7212337
18,専任媒介,売地,浜松市中央区泉２丁目636-10,700,ＪＲ東海道新幹線 浜松,,,,,,,,,,,,,,
87,媒介,売地,浜松市中央区泉３丁目780-1,1440,浜松市中央区泉３丁目780-1,所有権,60,-,33.06,2,144,2025/5/7,-,-,現況渡し,(株)アトラック,053-454-4551,34.7470946,137.7224657
368,専任,売地,浜松市中央区法枝町,1337,バス海2道1分,所有権,60,無指定,11.02,200,401,2025/7/12,-,-,現況渡し,(株)マストレ,053-448-5656,34.6673447,137.7181536
190,媒介,売地,浜松市中央区法枝町403,667,バス停 能力開発短大 停歩4分,所有権,60,-,9.51,200,232,2025/5/22,-,-,現況渡し,とぴあ浜松農業協同組合不動産センター有玉店,053-476-3152,34.6673447,137.7181536
17,★売主,売地,浜松市中央区浅田町169-4,1730,浜松市中央区浅田町169-4,所有権,60,-,35.34,2,162,2025/5/7,-,-,建築条件付,(株)マルショウ企画,053-447-1115,34.69507,137.7323794
24,一般媒介,売地,浜松市中央区海老塚町828,1280,東海道本線 浜松 徒歩1155分,所有権,60,１種住居,29.91,200,141,2025/5/22,-,-,現況渡し,(株)ニットーホーム,053-443-2100,34.6953918,137.7327015
237,媒介,売地,浜松市中央区湖東町1169-32,1570,-,所有権,60,-,18.24,200,285,2025/7/1,-,-,更地渡し,(株)丸玉,053-421-7360,34.7619932,137.6704046
112,専任,売地,浜松市中央区湖東町1484-177,1480,"バス州停鉄遠道鉄上バ島ス／距き離が8の,4や0東0坂m停歩1分",所有権,60,無指定,19.4,200,252,2025/6/7,-,-,相談,しずなび(株)　浜松駅南店,053-453-3731,34.7601094,137.6678782
111,一般,売地,浜松市中央区湖東町2808-1,700,バス停遠鉄バス停湖東団地東停歩3分,所有権,60,無指定,7.9,200,293,2025/6/10,-,-,現況渡し,第一伊藤建設(株),053-457-1181,34.7621033,137.6826919
238,専任,売地,浜松市中央区湖東町5609-1,2242,-,所有権,70,無指定,5,200,1482,2025/7/22,-,-,現況渡し,藤田土地開発(株),053-922-3007,34.7621033,137.6826919
236,一般,売地,浜松市中央区湖東町２７２６－３,981,バス停大平西停歩2分,所有権,60,無指定,4.23,200,766,2025/7/1,-,-,更地渡し,遠州鉄道(株)　高台店,053-437-1976,34.7686902,137.6799184
113,専任媒介,売地,浜松市中央区瓜内町,1658,浜松市中央区瓜内町,所有権,60,-,27,2,203,2025/5/1,-,-,更地渡し,マストレ企画営業所,053-401-3456,34.6883365,137.7354041
35,一般,売地,浜松市中央区瓜内町323ー1,2825,バス停浜松神社停歩8分,所有権,60,1種住居,23,200,406,2025/7/23,-,-,相談,ユタカ土地,053-425-5771,34.6914701,137.7337134
34,専任,売地,浜松市中央区瓜内町８４１,1100,バス停瓜内東停歩4分,所有権,60,無指定,8.36,200,435,2025/7/9,-,-,現況渡し,アライブ企画営業部,053-476-7112,34.6883365,137.7354041
284,一般,売地,浜松市中央区田尻町,450,バス海1道7分,所有権,60,無指定,6,200,248,2025/7/3,-,-,現況渡し,(株)マストレ,053-448-5656,34.6671652,137.7230818
291,一般,売地,浜松市中央区田町227-2,13000,徒歩1分,所有権,80,商業地域,133.57,600,322,2025/7/13,-,-,現況渡し,しずなび(株)　浜松東店,053-467-6700,34.7096372,137.7316141
471,一般媒介,売地,浜松市中央区白羽町,600,浜松市中央区白羽町,所有権,60,-,13.29,2,149,2025/5/7,-,-,更地渡し,浜松損害保険サービス(株),053-459-4180,34.6808954,137.7366365
271,専任,売地,浜松市中央区白羽町2424,1425,-,所有権,60,2種中高,8.01,160,588,2025/7/11,-,-,更地渡し,(株)リデコ,053-488-4537,34.6808954,137.7366365
142,専任,売地,浜松市中央区白羽町419の一部,551,バス停遠鉄バス・大畑バス停歩7分,所有権,60,無指定,5.37,200,339,2025/6/17,-,-,現況渡し,アースデイ不動産,053-441-2103,34.6808954,137.7366365
21,媒介,売地,浜松市中央区石原町,861,バス停古川停歩2分,所有権,60,-,7.01,200,406,2025/7/11,-,-,現況渡し,(株)山崎不動産,053-463-8713,34.6918443,137.7717718
18,一般,売地,浜松市中央区石原町,151,バス停石原西停歩1分,所有権,60,無指定,1.32,200,378,2025/7/14,-,-,現況渡し,あららぎ不動産(株),053-464-5557,34.6918443,137.7717718
22,媒介,売地,浜松市中央区石原町,1060,バス停古川停歩5分,所有権,60,無指定,8,200,438,2025/6/26,-,-,現況渡し,とぴあ浜松農業協同組合不動産センター有玉店,053-476-3152,34.6918443,137.7717718
14,一般,売地,浜松市中央区石原町155 付近,480,バス停遠鉄バス「石原西」停歩2分,所有権,60,-,7.9,200,201,2025/6/26,-,-,相談,(株)ベスト・ハウジング,053-474-6252,34.6921026,137.7741805
19,媒介,売地,浜松市中央区石原町222,400,バス停びしゃ門寺停歩5分,所有権,60,無指定,2.65,200,499,2025/7/11,-,-,現況渡し,(株)山崎不動産,053-463-8713,34.6918443,137.7717718
20,媒介,売地,浜松市中央区石原町760,553,バス停四本松北停歩3分,所有権,60,無指定,7,200,261,2025/7/13,-,-,現況渡し,(株)山崎不動産,053-463-8713,34.6918443,137.7717718
88,一般,売地,浜松市中央区神原町,1182,バス海2道8本分線バス浜停松神原上停歩4分,所有権,70,無指定,8.01,200,488,2025/7/24,-,-,現況渡し,(株)マストレ,053-448-5656,34.7338415,137.6713592
477,専任媒介,売地,浜松市中央区神明町218-19,6300,浜松市中央区神明町218-19,所有権,80,商業地域,149.88,2,139,2025/5/1,-,-,現況渡し,(株)東洋エージェンシー,053-421-0700,34.7082863,137.7280456
87,専任,売地,浜松市中央区神田町,3350,バス海7道分本バ線ス停浜松南浅田停歩3分,所有権,60,1種住居,25.48,200,435,2025/7/21,-,-,更地渡し,(株)マストレ,053-448-5656,34.6865976,137.7206176
84,一般,売地,浜松市中央区神田町,800,バス海1道4本分線バス浜停松八丁畷停歩6分,所有権,70,無指定,12.19,200,217,2025/7/14,-,-,現況渡し,(株)マストレ東営業所,053-462-5656,34.6865976,137.7206176
278,一般媒介,売地,浜松市中央区神田町957,2500,浜松市中央区神田町957,所有権,60,-,22.9,2,361,2025/5/1,-,-,現況渡し,(株)Ｐａｄｄｌｅ,053-482-7733,34.6865976,137.7206176
279,一般,売地,浜松市中央区積志町,751,徒歩8分,所有権,60,無指定,6.01,200,413,2025/7/18,-,-,現況渡し,(株)マストレ,053-448-5656,34.7679446,137.7674557
