No,取引態様,物件種目,住所,登録価格（万円）,交通,土地権利,建ぺい率,用途地域,坪単価（万円）,容積率,土地面積（㎡）,公開日,私道面積,私道持分,条件等,登録会員,TEL,latitude,longitude
800,一般,売地,周智郡森町一宮,291,天竜浜名湖鉄道 遠江一宮 徒歩3分,所有権,60,無指定,3.37,200,285,2025/6/9,-,-,現況渡し,(株)マストレ,053-448-5656,34.8311135,137.8921477
2341,専任媒介,売地,周智郡森町一宮1866番1,300,周智郡森町一宮1866番1,所有権,60,-,4.49,2,221,2025/5/1,-,-,現況渡し,センチュリー21中央不動産磐田店,0538-39-0500,34.8242865,137.8912494
802,専任,売地,周智郡森町一宮3031-16,2202,天竜浜名湖鉄道 遠江一宮 徒歩10 分,所有権,60,無指定,5.51,200,1321,2025/6/16,-,-,更地渡し,小林不動産,0538-85-1050,34.8206131,137.8936074
522,媒介,売地,周智郡森町一宮3498-2、3498-3、3499-7,1672,天竜浜名湖鉄道 円田 徒歩2233分,所有権,60,無指定,6.8,200,814,2025/5/20,-,-,現況渡し,さくら不動産販売(株),0538-24-7772,34.8297407,137.8981611
801,専任,売地,周智郡森町一宮６３３２－２,480,天竜浜名湖鉄道 敷地 徒歩25分,所有権,60,無指定,1.94,200,818,2025/6/25,-,-,現況渡し,(株)アライブ　中東遠支店,0538-36-8851,34.8311135,137.8921477
2364,専任媒介,売地,周智郡森町三倉,180,周智郡森町三倉,所有権,-,-,4.25,2,140,2025/2/15,-,-,相談,(株)アーガス,0537-21-7777,34.9290672,137.9515096
2363,専任媒介,売地,周智郡森町三倉835-2,151,周智郡森町三倉835-2,所有権,60,-,3,2,166,2025/3/7,-,-,現況渡し,(株)イイダ開発,0538-31-2708,34.9003409,137.9440194
2356,一般媒介,売地,周智郡森町中川104番6、106番6,310,周智郡森町中川104番6、106番6,所有権,60,-,5.84,2,176,2025/2/26,-,-,更地渡し,(株)財産ドック,053-421-5244,34.8062135,137.8970055
93,一般,売地,周智郡森町中川365-1,780,-,所有権,60,無指定,5.35,200,482,2025/6/5,-,-,更地渡し,センチュリー21中央不動産磐田店,0538-39-0500,34.8025702,137.8946198
2361,専任媒介,売地,周智郡森町中川365-1、365-2,2600,周智郡森町中川365-1、365-2,所有権,60,-,8.95,2,961,2025/2/10,-,-,更地渡し,(株)覚堂,053-423-1333,34.8025702,137.8946198
2358,一般媒介,売地,周智郡森町中川365-2,780,周智郡森町中川365-2,所有権,60,-,5.39,2,479,2025/5/5,-,-,更地渡し,センチュリー21中央不動産磐田店,0538-39-0500,34.8025702,137.8946198
94,一般,売地,周智郡森町中川365-2,781,-,所有権,60,無指定,5.39,200,479,2025/6/5,-,-,更地渡し,センチュリー21中央不動産磐田店,0538-39-0500,34.8025702,137.8946198
526,媒介,売地,周智郡森町中川508、510-1,360,"東海道本線 袋井 距離77,000000m",所有権,60,無指定,3.01,200,396,2025/5/16,-,-,更地渡し,(株)新栄,0538-85-4690,34.7976014,137.9026066
95,一般,売地,周智郡森町中川２５５－１,1851,天竜浜名湖鉄道 遠江一宮 徒歩32分,所有権,60,無指定,4.16,200,1471,2025/6/5,-,-,更地渡し,遠州鉄道(株)　袋井店,0538-31-8711,34.8021932,137.8961503
2349,媒介,売地,周智郡森町円田1081-3,441,周智郡森町円田1081-3,所有権,60,-,4.07,2,359,2025/3/7,-,-,現況渡し,(株)イイダ開発,0538-31-2708,34.8179586,137.9094547
2350,専任媒介,売地,"周智郡森町円田1424-1,-2,-3",790,"周智郡森町円田1424-1,-2,-3",所有権,60,用途地域,4.62,2,566,2025/4/15,-,-,現況渡し,アースデイ不動産,053-441-2103,34.8165648,137.9066048
2348,専任媒介,売地,周智郡森町円田367-1,400,周智郡森町円田367-1,所有権,70,-,3.29,2,403,2025/3/7,-,-,現況渡し,(株)イイダ開発,0538-31-2708,34.8179586,137.9094547
805,専任,売地,周智郡森町円田465-3,550,天竜浜名湖鉄道 円田 徒歩19分,所有権,60,無指定,5.97,200,305,2025/6/2,-,-,更地渡し,(株)不動産Ｌａｂｏ．,0538-33-6118,34.816131,137.9172795
804,専任,売地,周智郡森町円田465-4,401,天竜浜名湖鉄道 円田 徒歩19分,所有権,60,無指定,4.96,200,267,2025/6/2,-,-,更地渡し,(株)不動産Ｌａｂｏ．,0538-33-6118,34.816131,137.9172795
803,媒介,売地,周智郡森町円田543-1,281,天竜浜名湖鉄道 森町病院前 徒歩13分,所有権,60,無指定,3.12,200,297,2025/6/4,-,-,更地渡し,(株)新栄,0538-85-4690,34.8193514,137.9196254
524,媒介,売地,周智郡森町円田543-1,330,天竜浜名湖鉄道 森町病院前 徒歩1133分,所有権,60,無指定,3.67,200,297,2025/5/20,-,-,現況渡し,さくら不動産販売(株),0538-24-7772,34.8193514,137.9196254
2355,媒介,売地,周智郡森町問詰1223-15,250,周智郡森町問詰1223-15,所有権,-,-,4.2,2,197,2025/4/3,-,-,相談,アイエス宅建,053-434-6810,34.8697812,137.9498772
525,一般媒介,売地,周智郡森町城下５８１－１,500,バス停 天の宮 停歩3分,所有権,60,１種中高,3.14,150,528,2025/5/20,-,-,現況渡し,遠州鉄道(株)　袋井店,0538-31-8711,34.8526725,137.9403742
807,一般,売地,周智郡森町城下５８１－１,502,バス停 天の宮 停歩3分,所有権,60,1種中高,3.14,150,528,2025/6/20,-,-,現況渡し,遠州鉄道(株)　袋井店,0538-31-8711,34.8526725,137.9403742
806,専属専任,売地,周智郡森町大鳥居12-2,750,天竜浜名湖鉄道 戸綿 徒歩4 4 分,所有権,60,無指定,8.19,200,303,2025/6/16,-,-,現況渡し,アイエス宅建,053-434-6810,34.8587964,137.938868
797,一般,売地,周智郡森町天宮,1586,天竜浜名湖鉄道 戸綿 徒歩21分,所有権,50,1種中高,7,150,749,2025/6/16,-,-,相談,釜慶鉄工株式会社,053-421-0571,34.849099,137.9292411
2323,一般媒介,売地,周智郡森町天宮1389-1,450,周智郡森町天宮1389-1,所有権,60,-,6.1,2,244,2025/3/19,-,-,現況渡し,小林不動産,0538-85-1050,34.8417069,137.930436
2326,専任媒介,売地,周智郡森町天宮1413-2,550,周智郡森町天宮1413-2,所有権,50,-,5.03,2,362,2025/4/6,-,-,現況渡し,小林不動産,0538-85-1050,34.8437648,137.9309716
2322,専任媒介,売地,"周智郡森町天宮1439,1438",436,"周智郡森町天宮1439,1438",所有権,50,-,8.01,2,180,2025/3/7,-,-,現況渡し,(株)イイダ開発,0538-31-2708,34.842779,137.9305087
520,媒介,売地,周智郡森町天宮1564,719,天竜浜名湖鉄道 遠州森 徒歩2266分,所有権,50,１種低層,8.01,80,297,2025/5/20,-,-,現況渡し,さくら不動産販売(株),0538-24-7772,34.8447643,137.9292802
796,専任,売地,周智郡森町天宮722,540,天竜浜名湖鉄道 戸綿 徒歩16 分,所有権,80,近隣商業,7,200,255,2025/6/9,-,-,更地渡し,(株)クレセント若月,053-449-4711,34.840554,137.9327296
2321,専任媒介,売地,周智郡森町天宮899-6,430,周智郡森町天宮899-6,所有権,60,-,6.35,2,224,2025/4/10,-,-,現況渡し,センチュリー21中央不動産磐田店,0538-39-0500,34.8452928,137.9312463
2328,媒介,売地,周智郡森町天宮字小田ケ谷８８５－３,790,周智郡森町天宮字小田ケ谷８８５－３,所有権,60,-,7,2,373,2025/2/26,-,-,現況渡し,岡野建設(株),0538-85-2197,34.849099,137.9292411
101,一般,売地,周智郡森町森,2292,天竜浜名湖鉄道 遠州森 徒歩7分,所有権,60,2種中高,10.01,150,757,2025/6/23,-,-,相談,小林不動産,0538-85-1050,34.8333467,137.9242939
528,専任媒介,売地,周智郡森町森,500,天竜浜名湖鉄道 戸綿 徒歩77分,所有権,60,１種住居,9.67,200,171,2025/5/17,-,-,現況渡し,(株)トダックス,0537-26-2161,34.8333467,137.9242939
2372,一般媒介,売地,周智郡森町森,600,周智郡森町森,所有権,60,-,10.05,2,197,2025/3/19,-,-,現況渡し,小林不動産,0538-85-1050,34.8333467,137.9242939
529,一般媒介,売地,周智郡森町森,880,天竜浜名湖鉄道 遠州森 徒歩1111分,所有権,60,１種中高,14.42,100,202,2025/5/20,-,-,現況渡し,遠州鉄道(株)　袋井店,0538-31-8711,34.8333467,137.9242939
2384,媒介,売地,周智郡森町森113,1050,周智郡森町森113,所有権,60,-,8.32,2,418,2025/2/14,-,-,現況渡し,(株)創建,0538-42-5550,34.8385396,137.9290084
2380,一般媒介,売地,周智郡森町森1577-3,880,周智郡森町森1577-3,所有権,60,用途地域,14.42,2,202,2025/4/29,-,-,相談,しずなび(株)　浜松東店,053-467-6700,34.831031,137.9202938
2378,媒介,売地,周智郡森町森1702-1，1702-5,790,周智郡森町森1702-1，1702-5,所有権,60,-,12.07,2,216,2025/5/2,-,-,現況渡し,(株)丸玉,053-421-7360,34.8341749,137.92298
2376,★売主,売地,周智郡森町森1952-5,750,周智郡森町森1952-5,所有権,70,-,9.83,2,252,2025/5/1,-,-,現況渡し,(株)新栄,0538-85-4690,34.8354737,137.9228392
96,媒介,売地,周智郡森町森2337-2、2339,690,天竜浜名湖鉄道 戸綿 徒歩14 分,所有権,60,1種中高,8.47,150,269,2025/6/2,-,-,現況渡し,(株)丸玉,053-421-7360,34.8333467,137.9242939
2371,一般媒介,売地,周智郡森町森447,540,周智郡森町森447,所有権,80,-,8.11,2,220,2025/2/20,-,-,現況渡し,豊和不動産(株),0538-43-1880,34.835918,137.9302162
97,一般,売地,周智郡森町森１０５３－５，１０５３－６,970,天竜浜名湖鉄道 遠州森 徒歩4 分,所有権,60,1種住居,11.97,200,268,2025/6/1,-,-,相談,遠州鉄道(株)　袋井店,0538-31-8711,34.8318596,137.9262926
98,専任,売地,周智郡森町森１２０６－１７,990,天竜浜名湖鉄道 遠州森 徒歩2分,所有権,60,1種住居,11.45,200,286,2025/6/2,-,-,現況渡し,遠州鉄道(株)　袋井店,0538-31-8711,34.8299475,137.9238551
99,一般,売地,周智郡森町森１７０１－２,1390,天竜浜名湖鉄道 遠州森 徒歩14 分,所有権,60,2種中高,14.01,150,328,2025/6/25,-,-,更地渡し,遠州鉄道(株)　袋井店,0538-31-8711,34.8343002,137.9234233
100,一般,売地,周智郡森町森２１１７－４,1490,天竜浜名湖鉄道 遠州森 徒歩1分,所有権,60,1種住居,11.93,200,413,2025/6/25,-,-,現況渡し,遠州鉄道(株)　袋井店,0538-31-8711,34.8347129,137.926781
2379,専任媒介,売地,周智郡森町森２２３１番１・２２３１番２,850,周智郡森町森２２３１番１・２２３１番２,所有権,50,-,14.83,2,190,2025/5/1,-,-,更地渡し,遠州鉄道(株)　袋井店,0538-31-8711,34.8377789,137.9253839
2354,一般媒介,売地,周智郡森町橘,450,周智郡森町橘,所有権,60,-,6.36,2,820,2025/4/24,-,-,現況渡し,(株)マストレ,053-448-5656,34.8601553,137.906982
523,一般媒介,売地,周智郡森町牛飼282-5,350,バス停 秋葉バス牛飼 停歩1分,所有権,60,無指定,6.41,200,181,2025/5/21,-,-,現況渡し,遠州トラック(株)不動産営業所,0538-42-0001,34.7954904,137.8997258
2368,媒介,売地,周智郡森町睦実1443-4,871,周智郡森町睦実1443-4,所有権,60,-,4,2,720,2025/3/31,-,-,現況渡し,(株)イイダ開発,0538-31-2708,34.8315591,137.9302852
2365,専任媒介,売地,周智郡森町睦実1695-9,344,周智郡森町睦実1695-9,所有権,60,-,8,2,142,2025/3/7,-,-,現況渡し,(株)イイダ開発,0538-31-2708,34.8309783,137.9302497
2367,専任媒介,売地,周智郡森町睦実2122,747,周智郡森町睦実2122,所有権,60,-,5,2,494,2025/3/7,-,-,現況渡し,(株)イイダ開発,0538-31-2708,34.8315591,137.9302852
2366,専任媒介,売地,周智郡森町睦実2605-1,428,周智郡森町睦実2605-1,所有権,60,-,7,2,202,2025/3/7,-,-,現況渡し,(株)イイダ開発,0538-31-2708,34.8188132,137.9235608
527,★売主,売地,周智郡森町睦実３７５－１他,17924,天竜浜名湖鉄道 戸綿 徒歩1155分,所有権,60,-,10.01,200,5925,2025/5/20,-,-,相談,さくら不動産販売(株),0538-24-7772,34.8315591,137.9302852
2352,専任媒介,売地,周智郡森町草ケ谷２２６－２,680,周智郡森町草ケ谷２２６－２,所有権,60,-,7.57,2,297,2025/4/29,-,-,更地渡し,遠州鉄道(株)　袋井店,0538-31-8711,34.8254651,137.9158557
2362,一般媒介,売地,周智郡森町西俣１,300,周智郡森町西俣１,所有権,-,-,2.28,2,436,2025/5/1,-,-,現況渡し,(株)エフエフ住宅,0537-23-2265,34.8750926,137.9471117
799,専任,売地,周智郡森町飯田,581,停 停歩5分,所有権,60,無指定,5.73,200,335,2025/6/9,-,-,現況渡し,栄和ハウジング,0538-43-0821,34.806392,137.9144007
2334,一般媒介,売地,周智郡森町飯田,650,周智郡森町飯田,所有権,60,-,9.91,2,217,2025/3/3,-,-,更地渡し,栄和ハウジング,0538-43-0821,34.806392,137.9144007
2333,専任媒介,売地,周智郡森町飯田,580,周智郡森町飯田,所有権,60,-,5.73,2,335,2025/3/18,-,-,現況渡し,栄和ハウジング,0538-43-0821,34.806392,137.9144007
2340,専任媒介,売地,周智郡森町飯田,2368,周智郡森町飯田,所有権,60,用途地域,10,2,783,2025/2/14,-,-,現況渡し,(株)イイダ開発,0538-31-2708,34.806392,137.9144007
2332,媒介,売地,周智郡森町飯田2047-1、2051-2,572,周智郡森町飯田2047-1、2051-2,所有権,60,-,5,2,378,2025/5/1,-,-,現況渡し,こみき不動産,053-421-5521,34.806392,137.9144007
521,★売主,売地,周智郡森町飯田2104-2,398,"天竜浜名湖鉄道 円田 距離33,660000m",所有権,60,-,8.03,200,164,2025/5/20,-,-,現況渡し,さくら不動産販売(株),0538-24-7772,34.7965316,137.911704
2337,★売主,売地,周智郡森町飯田3190-14,1141,周智郡森町飯田3190-14,所有権,60,-,7,2,539,2025/4/4,-,-,現況渡し,(株)イイダ開発,0538-31-2708,34.8098481,137.9202281
2336,専任媒介,売地,周智郡森町飯田3257-3他,1020,周智郡森町飯田3257-3他,所有権,60,-,3.73,2,906,2025/2/14,-,-,現況渡し,(株)イイダ開発,0538-31-2708,34.806392,137.9144007
798,媒介,売地,周智郡森町飯田3522-1,125,天竜浜名湖鉄道 森町病院前 徒歩36 分,所有権,60,無指定,6.36,200,65,2025/6/10,-,-,-,(株)創建,0538-42-5550,34.8100546,137.9270008
2330,媒介,売地,周智郡森町飯田4078-8,230,周智郡森町飯田4078-8,所有権,60,用途地域,7.69,2,99,2025/2/14,-,-,相談,(株)イイダ開発,0538-31-2708,34.806392,137.9144007
1966,媒介,売地,掛川市七日町117,1670,掛川市七日町117,所有権,50,-,22.7,2,243,2025/3/24,-,-,更地渡し,アスティア,053-543-9988,34.7808936,138.0042093
653,一般,売地,掛川市三俣,401,-,所有権,60,2種住居,3.63,200,365,2025/6/4,-,-,相談,(株)アーガス,0537-21-7777,34.6660952,138.0493528
2098,一般媒介,売地,掛川市三俣,440,掛川市三俣,所有権,60,-,3.99,2,365,2025/5/4,-,-,相談,(株)アーガス,0537-21-7777,34.6660952,138.0493528
2097,専任媒介,売地,掛川市三俣2-6,360,掛川市三俣2-6,所有権,60,-,3,2,398,2025/4/5,-,-,更地渡し,(有)ワクダ総合企画,0537-72-6044,34.6665695,138.0498845
1901,-,売地,掛川市上内田1227-1他,595,掛川市上内田1227-1他,所有権,60,-,9.28,2,212,2025/4/26,-,-,現況渡し,(有)サンケイ開発,0537-22-0366,34.7488787,138.0481132
582,専属専任,売地,掛川市上内田20-1,1160,-,所有権,60,無指定,7.99,200,480,2025/6/23,-,-,現況渡し,(株)Ｅａｒｎｅｓｔ,053-544-7344,34.7488787,138.0481132
1900,専任媒介,売地,掛川市上内田814-1,460,掛川市上内田814-1,所有権,60,-,10.01,2,152,2025/4/26,-,-,現況渡し,(有)サンケイ開発,0537-22-0366,34.7488787,138.0481132
1903,専任媒介,売地,掛川市上内田841-1、848-1,1000,掛川市上内田841-1、848-1,所有権,60,用途地域,5.63,2,588,2025/5/4,-,-,現況渡し,しずなび(株)　浜松東店,053-467-6700,34.7461255,138.042632
581,専任,売地,掛川市上内田892,653,-,所有権,60,無指定,7.5,200,288,2025/6/7,-,-,更地渡し,(有)サンケイ開発,0537-22-0366,34.7488787,138.0481132
2056,専任媒介,売地,掛川市上土方,970,掛川市上土方,所有権,60,-,3.66,2,876,2025/3/9,-,-,相談,(株)アーガス,0537-21-7777,34.7066489,138.0412957
2054,専任媒介,売地,掛川市上土方167,250,掛川市上土方167,所有権,60,-,2.01,2,413,2025/4/26,-,-,更地渡し,(有)サンケイ開発,0537-22-0366,34.7066489,138.0412957
2055,媒介,売地,掛川市上土方旦付新田,380,掛川市上土方旦付新田,所有権,60,-,3.58,2,351,2025/2/20,-,-,現況渡し,(有)鈴木不動産,0537-74-3388,34.71354,138.0183705
636,一般,売地,掛川市上土方落合,1300,バス停 落合下 停歩2分,所有権,60,無指定,2.28,200,1885,2025/6/4,-,-,更地渡し,(株)アーガス,0537-21-7777,34.7191828,138.034479
2057,-,売地,掛川市上土方落合,317,掛川市上土方落合,所有権,60,-,3.25,2,323,2025/4/26,-,-,現況渡し,(株)アーガス,0537-21-7777,34.7191828,138.034479
2058,-,売地,掛川市上土方落合,368,掛川市上土方落合,所有権,60,-,2.95,2,413,2025/4/9,-,-,現況渡し,(株)アーガス,0537-21-7777,34.7191828,138.034479
1874,専任媒介,売地,掛川市上張,660,掛川市上張,所有権,60,-,20.4,2,107,2025/5/7,-,-,相談,(株)アーガス,0537-21-7777,34.7595854,138.0220874
583,専任,売地,掛川市上西郷,701,-,所有権,60,無指定,6.48,180,357,2025/6/22,-,-,相談,(株)金田工務店,0537-22-9883,34.7923626,138.0127594
1906,一般媒介,売地,掛川市上西郷,490,掛川市上西郷,所有権,60,-,6.75,2,240,2025/4/28,-,-,相談,(株)アーガス,0537-21-7777,34.7923626,138.0127594
1909,-,売地,掛川市上西郷351,1250,掛川市上西郷351,所有権,60,-,16.91,2,244,2025/3/6,-,-,現況渡し,(株)まえざわ不動産,0537-28-8366,34.7923626,138.0127594
584,一般,売地,掛川市上西郷１７９３－２,1200,バス停 花屋敷入口 停歩2分,所有権,60,無指定,15.39,200,258,2025/6/21,-,-,更地渡し,遠州鉄道(株)　掛川店・掛川住宅プラザ,0537-23-5103,34.7981396,138.0123504
1905,一般媒介,売地,掛川市上西郷２５７８番３,490,掛川市上西郷２５７８番３,所有権,60,-,6.75,2,240,2025/5/3,-,-,現況渡し,遠州鉄道(株)　掛川店・掛川住宅プラザ,0537-23-5103,34.8050471,138.011671
591,専任,売地,掛川市下俣458,1122,-,所有権,60,工業専用,10.01,200,371,2025/6/7,-,-,現況渡し,(有)サンケイ開発,0537-22-0366,34.7535103,138.0022667
2018,★売主,売地,掛川市下俣南１丁目11-7,990,掛川市下俣南１丁目11-7,所有権,60,-,24.63,2,133,2025/3/21,-,-,現況渡し,(株)大亜住建,053-436-9115,34.7648583,138.0041682
413,★売主,売地,掛川市下俣南１丁目52-1,1490,東海道本線 掛川 徒歩1144分,所有権,60,２種中高,30.29,150,163,2025/5/17,-,-,建築条件付,山口建設(株),0538-32-0161,34.7657417,138.002886
638,専任,売地,掛川市下土方,300,バス停 土方 停歩4分,所有権,60,無指定,3.14,200,316,2025/6/12,-,-,相談,釜慶鉄工株式会社,053-421-0571,34.6965902,138.0431549
639,一般,売地,掛川市下土方,301,バス停 土方 停歩8分,所有権,60,無指定,2.38,200,418,2025/6/4,-,-,相談,(株)アーガス,0537-21-7777,34.6965902,138.0431549
640,専任,売地,掛川市下土方,680,-,所有権,60,無指定,4.34,200,518,2025/6/15,-,-,相談,(株)アーガス,0537-21-7777,34.6965902,138.0431549
641,専任,売地,掛川市下土方,750,-,所有権,60,無指定,1.84,200,1348,2025/6/1,-,-,相談,(株)アーガス,0537-21-7777,34.6965902,138.0431549
2065,専任媒介,売地,掛川市下土方,350,掛川市下土方,所有権,60,-,4.37,2,265,2025/2/15,-,-,相談,(株)アーガス,0537-21-7777,34.6965902,138.0431549
418,専任媒介,売地,掛川市下土方1415-10,298,"東海道本線 掛川 距離99,990000m",,,,,,,,,,,,,,
419,媒介,売地,"掛川市下土方1612-1,1612-2,1612-3",300,"東海道本線 掛川 距離99,770000m",所有権,60,無指定,2.38,200,418,2025/5/20,-,-,現況渡し,(株)ライフイン企画,0537-73-6262,34.6965902,138.0431549
637,媒介,売地,"掛川市下土方1612-1,1612-2,1612-3",301,-,所有権,60,無指定,2.38,200,418,2025/6/19,-,-,現況渡し,(株)ライフイン企画,0537-73-6262,34.6965902,138.0431549
1935,専任媒介,売地,掛川市下垂木,2498,掛川市下垂木,所有権,60,-,11,2,751,2025/4/9,-,-,相談,(株)アーガス,0537-21-7777,34.7876715,137.9857685
1933,専任媒介,売地,掛川市下垂木,1200,掛川市下垂木,所有権,50,用途地域,19.36,2,205,2025/5/1,-,-,相談,(株)アーガス,0537-21-7777,34.7876715,137.9857685
1928,専任媒介,売地,掛川市下垂木,890,掛川市下垂木,所有権,60,-,14.32,2,206,2025/4/10,-,-,相談,(株)アーガス,0537-21-7777,34.7876715,137.9857685
1925,専任媒介,売地,掛川市下垂木,800,掛川市下垂木,所有権,40,-,13.22,2,86,2025/4/11,-,-,相談,(株)アーガス,0537-21-7777,34.7876715,137.9857685
1929,一般媒介,売地,掛川市下垂木,950,掛川市下垂木,所有権,50,-,16.4,2,192,2025/4/12,-,-,相談,(株)アーガス,0537-21-7777,34.7876715,137.9857685
590,専任,売地,掛川市下垂木,2499,天竜浜名湖鉄道 桜木 徒歩6 分,所有権,60,1種中高,11,150,751,2025/6/10,-,-,相談,(株)アーガス,0537-21-7777,34.7876715,137.9857685
1932,-,売地,掛川市下垂木1360-15,1080,掛川市下垂木1360-15,所有権,60,-,7.24,2,494,2025/4/11,-,-,更地渡し,しずなび(株)　浜松東店,053-467-6700,34.7918224,137.9851518
1922,媒介,売地,掛川市下垂木1983-5,650,掛川市下垂木1983-5,所有権,60,-,10.07,2,214,2025/3/16,-,-,更地渡し,(株)ミサワホーム静岡　浜松支店不動産課,053-478-0350,34.7819871,137.9795736
1923,専属専任,売地,掛川市下垂木2200‐4,768,掛川市下垂木2200‐4,所有権,60,用途地域,12.29,2,207,2025/4/10,-,-,現況渡し,(株)Ｅａｒｎｅｓｔ,053-544-7344,34.7832014,137.9768909
1924,★売主,売地,掛川市下垂木2852-1,800,掛川市下垂木2852-1,所有権,40,-,13.23,2,200,2025/4/18,-,-,更地渡し,(株)愛野土地開発,0537-29-7570,34.7876715,137.9857685
1930,★売主,売地,掛川市下垂木578-18,972,掛川市下垂木578-18,所有権,60,-,15,2,214,2025/4/30,-,-,現況渡し,(株)スエヒロ産業,0536-32-0506,34.7876715,137.9857685
405,一般媒介,売地,掛川市下垂木２００８－３７,950,天竜浜名湖鉄道 桜木 徒歩1144分,所有権,50,１種低層,16.4,80,192,2025/5/19,-,-,更地渡し,遠州鉄道(株)　掛川店・掛川住宅プラザ,0537-23-5103,34.7816411,137.980551
589,専任,売地,掛川市下垂木２１９２－２７,1300,天竜浜名湖鉄道 桜木 徒歩12分,所有権,50,1種低層,15.15,80,284,2025/6/25,-,-,更地渡し,釜慶鉄工株式会社,053-421-0571,34.7801676,137.9798797
2076,専任媒介,売地,掛川市中,1000,掛川市中,所有権,60,-,3.99,2,829,2025/4/11,-,-,相談,(株)アーガス,0537-21-7777,34.6866704,138.0629907
2072,一般媒介,売地,掛川市中2787-1,315,掛川市中2787-1,所有権,60,-,4.83,2,216,2025/4/17,-,-,更地渡し,(有)ワクダ総合企画,0537-72-6044,34.6866704,138.0629907
2073,専任媒介,売地,掛川市中3462-1,390,掛川市中3462-1,所有権,60,用途地域,2.01,2,642,2025/4/26,-,-,現況渡し,(有)サンケイ開発,0537-22-0366,34.6866704,138.0629907
644,一般,売地,掛川市中819,756,-,所有権,60,無指定,4.99,200,501,2025/6/12,-,-,現況渡し,(株)金田工務店,0537-22-9883,34.6866704,138.0629907
2074,一般媒介,売地,掛川市中819,755,掛川市中819,所有権,60,-,4.99,2,501,2025/3/18,-,-,現況渡し,(株)金田工務店,0537-22-9883,34.6866704,138.0629907
646,媒介,売地,"掛川市中880-1,881-11",1100,-,所有権,60,-,4.39,200,829,2025/6/23,-,-,相談,戸塚建設(株)　駅南センターアーバンクリエイト,0537-21-5588,34.6806624,138.0631331
2075,媒介,売地,掛川市中935-1,770,掛川市中935-1,所有権,60,-,5,2,510,2025/4/28,-,-,現況渡し,島田掛川パートナーズ(株)　掛川支社,0537-25-7211,34.6814212,138.0648174
2077,★売主,売地,"掛川市中方2402-1,2402-4",290,"掛川市中方2402-1,2402-4",所有権,60,-,5.93,2,162,2025/4/5,-,-,更地渡し,(有)ワクダ総合企画,0537-72-6044,34.7071081,138.0582301
645,一般,売地,掛川市中２７７２－２,801,バス停 三本松 停歩7分,所有権,60,無指定,5.33,200,497,2025/6/19,-,-,現況渡し,遠州鉄道(株)　掛川店・掛川住宅プラザ,0537-23-5103,34.6866704,138.0629907
421,一般媒介,売地,掛川市中２７７２－２,800,バス停 三本松 停歩7分,所有権,60,無指定,5.3,200,497,2025/5/19,-,-,現況渡し,遠州鉄道(株)　掛川店・掛川住宅プラザ,0537-23-5103,34.6866704,138.0629907
2012,媒介,売地,掛川市久保１丁目163番1,580,掛川市久保１丁目163番1,所有権,60,-,23.12,2,83,2025/3/14,-,-,現況渡し,(株)金田組,0537-22-7158,34.7661688,138.0066019
2013,専任媒介,売地,掛川市久保２丁目,1250,掛川市久保２丁目,所有権,60,用途地域,24.31,2,170,2025/4/26,-,-,更地渡し,(有)サンケイ開発,0537-22-0366,34.7637933,138.0090793
620,専任,売地,掛川市久保２丁目,2621,東海道本線 掛川 徒歩13分,所有権,60,1種住居,25.14,200,345,2025/6/1,-,-,相談,(株)アーガス,0537-21-7777,34.7637933,138.0090793
618,専任,売地,掛川市久保２丁目,1891,東海道本線 掛川 徒歩14 分,所有権,60,1種住居,21.12,200,296,2025/6/15,-,-,相談,(株)アーガス,0537-21-7777,34.7637933,138.0090793
2016,専任媒介,売地,掛川市久保２丁目,2620,掛川市久保２丁目,所有権,60,-,25.14,2,345,2025/5/1,-,-,相談,(株)アーガス,0537-21-7777,34.7637933,138.0090793
2014,専任媒介,売地,掛川市久保２丁目,1890,掛川市久保２丁目,所有権,60,-,21.12,2,296,2025/4/14,-,-,相談,(株)アーガス,0537-21-7777,34.7637933,138.0090793
619,一般,売地,掛川市久保２丁目22-2,1951,-,所有権,60,1種住居,24.98,200,258,2025/6/17,-,-,更地渡し,釜慶鉄工株式会社,053-421-0571,34.7626774,138.0076832
2015,一般媒介,売地,掛川市久保２丁目22-2,1950,掛川市久保２丁目22-2,所有権,60,-,24.98,2,258,2025/3/25,-,-,更地渡し,アースデイ不動産,053-441-2103,34.7626774,138.0076832
2017,一般媒介,売地,掛川市久保２丁目１７,3480,掛川市久保２丁目１７,所有権,60,工業地域,23.98,2,480,2025/5/8,-,-,現況渡し,遠州鉄道(株)　高台店,053-437-1976,34.7652127,138.007376
621,一般,売地,掛川市久保２丁目１７,3481,バス停 亀の甲二丁目 停歩2分,所有権,60,工業地域,23.98,200,480,2025/6/8,-,-,現況渡し,遠州鉄道(株)　高台店,053-437-1976,34.7652127,138.007376
622,専任,売地,掛川市二瀬川,601,天竜浜名湖鉄道 西掛川 徒歩13分,所有権,50,1種低層,7.88,80,252,2025/6/23,-,-,更地渡し,(株)丸玉,053-421-7360,34.7766181,138.0016474
624,一般,売地,掛川市二瀬川,5005,天竜浜名湖鉄道 西掛川 徒歩10 分,所有権,60,準工業,10.01,200,1653,2025/6/7,-,-,現況渡し,浜松損害保険サービス(株),053-459-4180,34.7766181,138.0016474
2021,専任媒介,売地,掛川市二瀬川1311-2,465,掛川市二瀬川1311-2,所有権,60,-,17.21,2,89,2025/4/15,-,-,更地渡し,アースデイ不動産,053-441-2103,34.7766181,138.0016474
623,一般,売地,掛川市二瀬川１２１０,5004,バス停 二瀬川東 停歩5分,所有権,60,準工業,9.69,200,1707,2025/6/19,-,-,相談,遠州鉄道(株)　掛川店・掛川住宅プラザ,0537-23-5103,34.7766181,138.0016474
414,一般媒介,売地,掛川市二瀬川１２１０,5000,バス停 二瀬川東 停歩5分,所有権,60,準工業,9.69,200,1707,2025/5/19,-,-,相談,遠州鉄道(株)　掛川店・掛川住宅プラザ,0537-23-5103,34.7766181,138.0016474
1919,-,売地,掛川市五明407-2,975,掛川市五明407-2,所有権,60,-,11.84,2,272,2025/4/26,-,-,更地渡し,(有)サンケイ開発,0537-22-0366,34.803419,138.0060788
588,売主,売地,掛川市五明407-2,977,-,所有権,60,無指定,4.74,200,681,2025/6/7,-,-,更地渡し,(有)サンケイ開発,0537-22-0366,34.803419,138.0060788
1971,★売主,売地,掛川市仁藤90,1630,掛川市仁藤90,所有権,60,-,32.25,2,167,2025/3/16,-,-,現況渡し,(株)スズキビジネス,053-451-3900,34.7748668,138.0192971
2023,-,売地,掛川市仁藤町16-9,1393,掛川市仁藤町16-9,所有権,80,用途地域,25.5,2,181,2025/3/13,-,-,建築条件付,桂ハウステック(株),0537-23-8588,34.778535,138.0216584
1969,専任媒介,売地,掛川市仁藤７７－１,1200,掛川市仁藤７７－１,所有権,80,-,23.76,2,167,2025/4/29,-,-,現況渡し,遠州鉄道(株)　掛川店・掛川住宅プラザ,0537-23-5103,34.7749487,138.020968
599,専任,売地,掛川市伊達方1183-1,936,-,所有権,60,無指定,9.77,200,317,2025/6/7,-,-,現況渡し,釜慶鉄工株式会社,053-421-0571,34.7817183,138.0598715
1953,媒介,売地,掛川市伊達方36-4,518,掛川市伊達方36-4,所有権,-,用途地域,7.99,2,214,2025/3/18,-,-,更地渡し,丸和観光開発(株),0537-23-1271,34.7866447,138.0681655
597,一般,売地,掛川市伊達方553-1,559,-,所有権,60,無指定,6,200,308,2025/6/7,-,-,現況渡し,(有)サンケイ開発,0537-22-0366,34.7800404,138.0679507
585,専任,売地,掛川市倉真300,281,-,所有権,60,-,1.98,200,469,2025/6/7,-,-,現況渡し,(有)サンケイ開発,0537-22-0366,34.8434121,138.0505925
1995,-,売地,掛川市八坂15,70,掛川市八坂15,所有権,-,-,1.06,2,220,2025/3/11,-,-,現況渡し,五右衛門(株),0466-53-9133,34.7979916,138.0742516
1972,一般媒介,売地,掛川市初馬868-7,1211,掛川市初馬868-7,所有権,60,-,15,2,267,2025/4/28,-,-,現況渡し,丸友開発(株),053-454-8118,34.7963839,138.0266648
2020,専任媒介,売地,掛川市南２丁目,400,掛川市南２丁目,所有権,60,-,4.19,2,316,2025/4/12,-,-,現況渡し,(株)アーガス,0537-21-7777,34.766309,138.017751
572,専任,売地,掛川市印内19-1,1400,-,所有権,60,1種住居,12.02,200,385,2025/6/7,-,-,現況渡し,(有)サンケイ開発,0537-22-0366,34.7754204,138.0309162
1892,専任媒介,売地,掛川市各和,310,掛川市各和,所有権,60,-,7.07,2,145,2025/4/12,-,-,相談,(株)アーガス,0537-21-7777,34.7751117,137.9589345
576,専任,売地,掛川市各和,300,天竜浜名湖鉄道 桜木 徒歩23分,所有権,60,無指定,2.59,200,383,2025/6/12,-,-,現況渡し,(株)アーガス,0537-21-7777,34.7751117,137.9589345
1893,一般媒介,売地,掛川市各和1712-1,640,掛川市各和1712-1,所有権,60,用途地域,5.62,2,377,2025/4/21,-,-,現況渡し,(株)金田工務店,0537-22-9883,34.7751117,137.9589345
577,一般,売地,掛川市各和1712-1,641,東海道本線 愛野 徒歩39分,所有権,60,無指定,5.62,200,377,2025/6/12,-,-,現況渡し,(株)金田工務店,0537-22-9883,34.7751117,137.9589345
1897,専任媒介,売地,掛川市各和614－5,850,掛川市各和614－5,所有権,60,-,6.54,2,430,2025/3/13,-,-,相談,(株)アーガス,0537-21-7777,34.7704707,137.9675032
579,専任,売地,掛川市各和614－5,851,バス停 各和公民館南 停歩13分,所有権,60,無指定,6.54,200,430,2025/6/4,-,-,相談,(株)アーガス,0537-21-7777,34.7704707,137.9675032
1896,一般媒介,売地,掛川市各和815-1,780,掛川市各和815-1,所有権,60,-,5.13,2,503,2025/3/18,-,-,現況渡し,(株)金田工務店,0537-22-9883,34.7640246,137.9635056
578,一般,売地,掛川市各和815-1,781,東海道本線 愛野 徒歩29分,所有権,60,無指定,5.13,200,503,2025/6/12,-,-,現況渡し,(株)金田工務店,0537-22-9883,34.7640246,137.9635056
1895,専任媒介,売地,掛川市各和819-2,750,掛川市各和819-2,所有権,60,-,12.4,2,200,2025/3/29,-,-,更地渡し,(株)エフエフ住宅,0537-23-2265,34.765894,137.9634925
402,専任媒介,売地,掛川市各和876,870,東海道本線 愛野 徒歩2244分,所有権,60,無指定,7.78,200,370,2025/5/16,-,-,現況渡し,トダックスアパマン掛川,0537-23-6700,34.764336,137.9657318
2001,専任媒介,売地,掛川市吉岡,1332,掛川市吉岡,所有権,60,-,6,2,734,2025/5/7,-,-,相談,(株)アーガス,0537-21-7777,34.793712,137.9490349
613,専任,売地,掛川市吉岡,590,天竜浜名湖鉄道 細谷 徒歩14 分,所有権,60,無指定,6.24,200,313,2025/6/2,-,-,現況渡し,栄和ハウジング,0538-43-0821,34.793712,137.9490349
1999,-,売地,掛川市吉岡1139-1.1141-1.1141-4,495,掛川市吉岡1139-1.1141-1.1141-4,所有権,60,-,6.6,2,248,2025/4/26,-,-,更地渡し,(有)サンケイ開発,0537-22-0366,34.793712,137.9490349
612,専任,売地,掛川市吉岡774,435,-,所有権,60,無指定,4.78,200,301,2025/6/7,-,-,現況渡し,(有)サンケイ開発,0537-22-0366,34.793712,137.9490349
1997,一般媒介,売地,掛川市吉岡７７４,435,掛川市吉岡７７４,所有権,60,-,4.78,2,301,2025/4/29,-,-,現況渡し,遠州鉄道(株)　掛川店・掛川住宅プラザ,0537-23-5103,34.793712,137.9490349
426,一般媒介,売地,掛川市和光２丁目,1376,バス停 戸塚橋 距離480m,所有権,50,１種低層,18.9,80,241,2025/5/18,-,-,建築条件付,(株)アーガス,0537-21-7777,34.7843119,138.0090793
2122,専任媒介,売地,掛川市和光２丁目３－１０,1650,掛川市和光２丁目３－１０,所有権,50,-,19.14,2,285,2025/4/29,-,-,更地渡し,遠州鉄道(株)　掛川店・掛川住宅プラザ,0537-23-5103,34.7843119,138.0090793
2060,専任媒介,売地,掛川市国安,150,掛川市国安,所有権,50,-,2.48,2,200,2025/5/2,-,-,相談,(株)アーガス,0537-21-7777,34.6574061,138.0667107
615,媒介,売地,掛川市城北１丁目,780,バス停 中宿 停歩4分,所有権,50,1種低層,10.25,80,252,2025/6/14,-,-,更地渡し,(有)Ｋ・Ｈ・Ｌ,054-259-9671,34.7786127,138.0090793
2037,専任媒介,売地,掛川市大坂,800,掛川市大坂,所有権,50,-,6.36,2,416,2025/4/29,-,-,現況渡し,(株)アーガス,0537-21-7777,34.6698829,138.0454266
2026,専任媒介,売地,掛川市大坂,280,掛川市大坂,所有権,60,-,4.56,2,203,2025/3/19,-,-,相談,(株)アーガス,0537-21-7777,34.6698829,138.0454266
627,専任,売地,掛川市大坂1027-3,606,-,所有権,60,1種住居,5.01,200,400,2025/6/10,-,-,現況渡し,(有)ワクダ総合企画,0537-72-6044,34.6692494,138.0451885
2034,専任媒介,売地,掛川市大坂1027-3,605,掛川市大坂1027-3,所有権,60,-,5.01,2,400,2025/4/5,-,-,現況渡し,(有)ワクダ総合企画,0537-72-6044,34.6692494,138.0451885
2036,一般媒介,売地,掛川市大坂1573-2,728,掛川市大坂1573-2,所有権,60,-,6,2,401,2025/5/1,-,-,現況渡し,ＳＭＤ不動産(株),053-401-4235,34.6700474,138.0393003
2025,一般媒介,売地,掛川市大坂1580-31,210,掛川市大坂1580-31,所有権,60,-,1.24,2,564,2025/4/5,-,-,現況渡し,(有)ワクダ総合企画,0537-72-6044,34.6697827,138.0394171
626,専任,売地,掛川市大坂1892-1,451,-,所有権,60,無指定,4.44,200,336,2025/6/11,-,-,現況渡し,(有)ワクダ総合企画,0537-72-6044,34.6698563,138.0357765
2030,専任媒介,売地,掛川市大坂1892-1,450,掛川市大坂1892-1,所有権,60,-,4.44,2,336,2025/4/5,-,-,現況渡し,(有)ワクダ総合企画,0537-72-6044,34.6698563,138.0357765
2029,専任媒介,売地,掛川市大坂2049-1,400,掛川市大坂2049-1,所有権,60,-,3.52,2,376,2025/4/5,-,-,現況渡し,(有)ワクダ総合企画,0537-72-6044,34.6698829,138.0454266
2032,一般媒介,売地,掛川市大坂2698,550,掛川市大坂2698,所有権,60,-,6.25,2,291,2025/4/5,-,-,現況渡し,(有)ワクダ総合企画,0537-72-6044,34.6698829,138.0454266
2035,媒介,売地,掛川市大坂2998-1,650,掛川市大坂2998-1,所有権,60,-,3.9,2,552,2025/4/28,-,-,現況渡し,島田掛川パートナーズ(株)　掛川支社,0537-25-7211,34.6698829,138.0454266
415,専任媒介,売地,掛川市大坂5759-1,450,"東海道本線 掛川 距離1100,000000m",所有権,60,-,8.52,200,175,2025/5/19,-,-,現況渡し,(有)サンケイ開発,0537-22-0366,34.6698829,138.0454266
628,一般,売地,掛川市大坂6708-3,781,停歩18分,所有権,60,無指定,6.49,200,398,2025/6/4,-,-,更地渡し,釜慶鉄工株式会社,053-421-0571,34.6763043,138.0507668
2027,専任媒介,売地,掛川市大坂706-8,365,掛川市大坂706-8,所有権,60,-,5,2,241,2025/4/5,-,-,現況渡し,(有)ワクダ総合企画,0537-72-6044,34.6704957,138.042448
2031,専任媒介,売地,掛川市大坂１２７４－２,550,掛川市大坂１２７４－２,所有権,50,-,7.49,2,243,2025/4/13,-,-,更地渡し,遠州鉄道(株)　掛川店・掛川住宅プラザ,0537-23-5103,34.6698829,138.0454266
2033,一般媒介,売地,掛川市大坂５０００－９,550,掛川市大坂５０００－９,所有権,-,用途地域,8.96,2,203,2025/3/18,-,-,現況渡し,丸和観光開発(株),0537-23-1271,34.6818389,138.0439102
629,一般,売地,掛川市大坪台５９,1200,バス停 土方小学校前 停歩4分,所有権,60,無指定,15.54,200,255,2025/6/24,-,-,現況渡し,遠州鉄道(株)　掛川店・掛川住宅プラザ,0537-23-5103,34.7099172,138.0416055
1887,一般媒介,売地,掛川市大多郎126-1,1100,掛川市大多郎126-1,所有権,60,-,9.7,2,375,2025/5/2,-,-,現況渡し,ランドデザイン(株),0537-29-6585,34.7860372,138.0268755
1885,-,売地,掛川市大多郎32,750,掛川市大多郎32,所有権,60,-,12.53,2,198,2025/2/26,-,-,更地渡し,(株)不動産Ｌａｂｏ．,0538-33-6118,34.7863887,138.0254948
1886,一般媒介,売地,掛川市大多郎65-6,880,掛川市大多郎65-6,所有権,60,-,16.94,2,172,2025/2/8,-,-,更地渡し,しずなび(株)　浜松駅南店,053-453-3731,34.7868835,138.0234708
400,専任媒介,売地,掛川市大池,380,天竜浜名湖鉄道 西掛川 徒歩1100分,所有権,60,１種住居,8.37,200,150,2025/5/20,-,-,現況渡し,(株)トダックス,0537-26-2161,34.7760715,137.9935975
401,専任媒介,売地,掛川市大池２１２６,750,天竜浜名湖鉄道 西掛川 徒歩1122分,所有権,40,無指定,14.25,60,174,2025/5/21,-,-,相談,遠州鉄道(株)　事業用不動産流通グループ,053-488-8811,34.7760715,137.9935975
574,専任,売地,掛川市大池２１２６,850,天竜浜名湖鉄道 西掛川 徒歩12分,所有権,40,1種低層,10.85,60,259,2025/6/9,-,-,相談,遠州鉄道(株)　事業用不動産流通グループ,053-488-8811,34.7760715,137.9935975
1882,専任媒介,売地,掛川市大池２６３－４,850,掛川市大池２６３－４,所有権,30,-,17.03,2,165,2025/4/29,-,-,相談,遠州鉄道(株)　掛川店・掛川住宅プラザ,0537-23-5103,34.7819125,137.9969656
2045,一般媒介,売地,掛川市大渕,490,掛川市大渕,所有権,60,-,4.77,2,340,2025/4/11,-,-,更地渡し,(株)マストレ,053-448-5656,34.6832229,138.0059825
635,専任,売地,掛川市大渕,106,-,所有権,60,無指定,4.35,200,81,2025/6/2,-,-,-,(株)日成,0538-23-2850,34.6832229,138.0059825
2050,専任媒介,売地,掛川市大渕,750,掛川市大渕,所有権,60,-,4.35,2,81,2025/5/2,-,-,現況渡し,(株)日成,0538-23-2850,34.6832229,138.0059825
417,専任媒介,売地,掛川市大渕,304,東海道本線 愛野,,,,,,,,,,,,,,
2048,専任媒介,売地,掛川市大渕,530,掛川市大渕,所有権,60,-,2.79,2,628,2025/3/13,-,-,更地渡し,(株)アーガス,0537-21-7777,34.6832229,138.0059825
631,一般,売地,掛川市大渕,491,停歩9分,所有権,60,無指定,4.77,200,340,2025/6/12,-,-,更地渡し,(株)マストレ,053-448-5656,34.6832229,138.0059825
2042,一般媒介,売地,掛川市大渕,300,掛川市大渕,所有権,60,-,2.87,2,347,2025/4/12,-,-,相談,(株)アーガス,0537-21-7777,34.6832229,138.0059825
2044,専任媒介,売地,掛川市大渕,320,掛川市大渕,所有権,60,-,4.31,2,246,2025/5/6,-,-,更地渡し,(株)アーガス,0537-21-7777,34.6832229,138.0059825
633,一般,売地,掛川市大渕10430-26,500,-,所有権,60,無指定,4.77,200,347,2025/6/5,-,-,現況渡し,すぎやま不動産株式会社,0537-28-9901,34.6797063,137.9972392
416,一般媒介,売地,掛川市大渕10483-18,200,東海道本線 袋井,,,,,,,,,,,,,,
2049,媒介,売地,掛川市大渕12000-2,550,掛川市大渕12000-2,所有権,60,-,5.35,2,340,2025/4/3,-,-,現況渡し,豊和不動産(株),0538-43-1880,34.6754551,138.0081551
2040,★売主,売地,掛川市大渕439-1,120,掛川市大渕439-1,所有権,60,-,1.94,2,205,2025/4/5,-,-,現況渡し,(有)ワクダ総合企画,0537-72-6044,34.669583,138.0292072
630,専任,売地,掛川市大渕5615,450,停歩8分,所有権,60,無指定,5.44,200,274,2025/6/20,-,-,現況渡し,合同フリーダムソリューションズ,0537-28-8604,34.6713628,138.0139497
632,専任,売地,掛川市大渕5652,495,-,所有権,60,無指定,4.56,200,359,2025/6/7,-,-,現況渡し,(有)サンケイ開発,0537-22-0366,34.6832229,138.0059825
634,専任,売地,掛川市大渕5652-1,515,-,所有権,60,無指定,5.19,200,328,2025/6/7,-,-,現況渡し,(有)サンケイ開発,0537-22-0366,34.6832229,138.0059825
2051,専任媒介,売地,掛川市大渕字野中10318番1,1180,掛川市大渕字野中10318番1,所有権,60,-,8.44,2,462,2025/5/7,-,-,更地渡し,(有)東邦宅建,053-434-8339,34.6758401,138.0024127
1918,専任媒介,売地,掛川市子隣,850,掛川市子隣,所有権,60,-,3.87,2,726,2025/2/19,-,-,更地渡し,(株)アーガス,0537-21-7777,34.7405661,138.0419154
587,専任,売地,掛川市子隣175-18,686,-,所有権,60,無指定,6.85,200,331,2025/6/7,-,-,現況渡し,(有)サンケイ開発,0537-22-0366,34.7408526,138.040669
1875,★一般媒介,売地,掛川市安養寺2-1,800,掛川市安養寺2-1,所有権,30,-,6.79,2,390,2025/3/25,-,-,相談,(有)マイスター工房,0537-37-2811,34.7896402,138.0372676
569,一般,売地,掛川市安養寺2-1,801,-,所有権,30,1種低層,6.79,50,390,2025/6/14,-,-,相談,(有)マイスター工房,0537-37-2811,34.7896402,138.0372676
570,媒介,売地,掛川市安養寺46番1 外5筆,1362,-,所有権,60,無指定,2.55,200,1766,2025/6/6,-,-,相談,釜慶鉄工株式会社,053-421-0571,34.7896402,138.0372676
412,一般媒介,売地,掛川市宮脇,1180,東海道本線 掛川 徒歩3344分,所有権,60,１種中高,14.46,150,270,2025/5/17,-,-,相談,(株)トダックス,0537-26-2161,34.7842856,138.0320005
1989,★一般媒介,売地,掛川市宮脇,700,掛川市宮脇,所有権,60,-,3.73,2,621,2025/4/26,-,-,現況渡し,(株)アーガス,0537-21-7777,34.7842856,138.0320005
609,専任,売地,掛川市宮脇,980,-,所有権,30,1種低層,10.66,50,304,2025/6/25,-,-,更地渡し,釜慶鉄工株式会社,053-421-0571,34.7842856,138.0320005
1992,専任媒介,売地,掛川市宮脇1-1,1180,掛川市宮脇1-1,所有権,60,-,9.66,2,29,2025/3/22,-,-,現況渡し,トヨタホームふじ,055-929-8855,34.7844574,138.036
610,専任,売地,掛川市宮脇1-1,85,停歩9分,所有権,60,1種住居,9.66,200,29,2025/6/14,-,-,-,トヨタホームふじ,055-929-8855,34.7844574,138.036
1987,一般媒介,売地,掛川市宮脇1177-2,500,掛川市宮脇1177-2,所有権,40,-,11.6,2,143,2025/4/12,-,-,現況渡し,センチュリー21中央不動産磐田店,0538-39-0500,34.784984,138.0362478
1990,★売主,売地,掛川市宮脇32-1,900,掛川市宮脇32-1,所有権,60,-,14.88,2,200,2025/4/10,-,-,更地渡し,(株)愛野土地開発,0537-29-7570,34.7829356,138.0364807
1986,-,売地,掛川市宮脇4-1,382,掛川市宮脇4-1,所有権,60,-,5,2,253,2025/3/13,-,-,相談,(有)マイスター工房,0537-37-2811,34.7834767,138.0355681
1988,専任媒介,売地,掛川市宮脇907-5,505,掛川市宮脇907-5,所有権,30,-,9.56,2,175,2025/4/26,-,-,現況渡し,(有)サンケイ開発,0537-22-0366,34.7849568,138.0306365
611,専任,売地,掛川市宮脇910-7,1195,東海道本線 掛川 徒歩34 分,所有権,30,1種低層,12.01,50,329,2025/6/7,-,-,現況渡し,(有)サンケイ開発,0537-22-0366,34.7848379,138.0306402
1877,一般媒介,売地,掛川市家代301-7,600,掛川市家代301-7,所有権,60,-,9.07,2,219,2025/5/7,-,-,現況渡し,ウイングホーム(株),0537-36-3425,34.7957595,137.9838834
571,専属専任,売地,掛川市家代63,1150,天竜浜名湖鉄道 桜木 徒歩23分,所有権,60,無指定,9.21,200,413,2025/6/14,-,-,現況渡し,不動産ショップあさい(株),0586-85-8851,34.7886627,137.9833831
1878,専任媒介,売地,掛川市家代734,980,掛川市家代734,所有権,60,-,7.29,2,445,2025/4/26,-,-,現況渡し,(有)サンケイ開発,0537-22-0366,34.7971481,137.9787391
600,専任,売地,掛川市富部,501,天竜浜名湖鉄道 桜木 徒歩6 分,所有権,60,1種中高,3.47,150,477,2025/6/7,-,-,更地渡し,(株)アーガス,0537-21-7777,34.7809559,137.9700737
601,専任,売地,掛川市富部,681,-,所有権,40,1種低層,7.76,60,290,2025/6/23,-,-,更地渡し,(株)アーガス,0537-21-7777,34.7809559,137.9700737
1959,専任媒介,売地,掛川市富部,600,掛川市富部,所有権,60,-,10.96,2,181,2025/5/5,-,-,相談,(株)アーガス,0537-21-7777,34.7809559,137.9700737
1957,一般媒介,売地,掛川市富部,330,掛川市富部,所有権,60,工業地域,2.61,2,419,2025/4/9,-,-,相談,(株)アーガス,0537-21-7777,34.7809559,137.9700737
408,専任媒介,売地,掛川市富部,680,バス停 桜が丘中学入口オークワ前 距離400m,所有権,40,１種低層,7.76,60,290,2025/5/23,-,-,更地渡し,(株)アーガス,0537-21-7777,34.7809559,137.9700737
1956,専任媒介,売地,掛川市富部,250,掛川市富部,所有権,60,-,5.11,2,162,2025/2/19,-,-,相談,(株)アーガス,0537-21-7777,34.7809559,137.9700737
1961,専任媒介,売地,掛川市富部,1250,掛川市富部,所有権,60,-,6,2,690,2025/4/26,-,-,相談,(株)アーガス,0537-21-7777,34.7809559,137.9700737
1958,専任媒介,売地,掛川市富部,500,掛川市富部,所有権,60,-,3.47,2,477,2025/5/7,-,-,更地渡し,(株)アーガス,0537-21-7777,34.7809559,137.9700737
602,専任,売地,掛川市富部745-1,2501,天竜浜名湖鉄道 桜木 徒歩5分,所有権,60,1種中高,10.88,150,760,2025/6/24,-,-,現況渡し,(株)泰平不動産,0538-45-3766,34.7809559,137.9700737
1962,専任媒介,売地,掛川市富部745-1,2500,掛川市富部745-1,所有権,60,-,10.88,2,760,2025/4/2,-,-,現況渡し,(株)泰平不動産,0538-45-3766,34.7809559,137.9700737
2053,専任媒介,売地,掛川市小貫1498-1,660,掛川市小貫1498-1,所有権,60,用途地域,6.89,2,317,2025/4/5,-,-,更地渡し,(有)ワクダ総合企画,0537-72-6044,34.7187928,138.0443944
654,一般,売地,掛川市山崎,481,-,所有権,60,無指定,4.67,200,340,2025/6/1,-,-,更地渡し,(株)アーガス,0537-21-7777,34.7013986,137.9787391
2099,一般媒介,売地,掛川市山崎,480,掛川市山崎,所有権,60,-,4.67,2,340,2025/5/1,-,-,更地渡し,(株)アーガス,0537-21-7777,34.7013986,137.9787391
1889,専任媒介,売地,掛川市岡津,800,掛川市岡津,所有権,60,-,2.98,2,890,2025/3/19,-,-,相談,(株)アーガス,0537-21-7777,34.7718403,137.9700737
1888,一般媒介,売地,掛川市岡津,675,掛川市岡津,所有権,60,-,11.44,2,195,2025/4/25,-,-,相談,(株)アーガス,0537-21-7777,34.7718403,137.9700737
575,代理,売地,掛川市岡津356,128,-,所有権,60,無指定,4.22,200,100,2025/6/24,-,-,-,ウイングホーム(株),0537-36-3425,34.7718403,137.9700737
1890,-,売地,掛川市岡津356,890,掛川市岡津356,所有権,60,-,4.22,2,100,2025/5/7,-,-,現況渡し,ウイングホーム(株),0537-36-3425,34.7718403,137.9700737
625,専任,売地,掛川市岩滑１２７７－１,351,バス停 稲荷部公会堂 停歩19分,所有権,60,無指定,2,200,580,2025/6/8,-,-,現況渡し,遠州鉄道(株)　掛川店・掛川住宅プラザ,0537-23-5103,34.7041166,138.0691908
2024,専任媒介,売地,掛川市岩滑１２７７－１,350,掛川市岩滑１２７７－１,所有権,60,-,2,2,580,2025/5/8,-,-,現況渡し,遠州鉄道(株)　掛川店・掛川住宅プラザ,0537-23-5103,34.7041166,138.0691908
604,一般,売地,掛川市成滝,1895,バス停 成滝 停歩3分,所有権,60,1種住居,12,200,522,2025/6/12,-,-,現況渡し,(株)アーガス,0537-21-7777,34.7784893,138.034479
580,専任,売地,掛川市掛川1035-7,901,-,所有権,80,2種低層,10.47,200,284,2025/6/7,-,-,現況渡し,(有)サンケイ開発,0537-22-0366,34.7765961,138.0193128
1899,専任媒介,売地,掛川市掛川1035-7,900,掛川市掛川1035-7,所有権,80,-,10.47,2,284,2025/4/26,-,-,現況渡し,(有)サンケイ開発,0537-22-0366,34.7765961,138.0193128
2008,専任媒介,売地,掛川市旭ケ丘１丁目,1600,掛川市旭ケ丘１丁目,所有権,50,-,22.09,2,240,2025/5/8,-,-,更地渡し,(株)トダックス,0537-26-2161,34.7820786,138.0227069
617,媒介,売地,掛川市旭ケ丘２丁目1番2、1番3 計2筆,4522,-,所有権,60,1種中高,18.94,150,789,2025/6/5,-,-,相談,(株)金田組,0537-22-7158,43.0404095,141.3210684
2009,媒介,売地,掛川市旭ケ丘２丁目1番2、1番3　　計2筆,4520,掛川市旭ケ丘２丁目1番2、1番3　　計2筆,所有権,60,-,18.94,2,789,2025/3/10,-,-,相談,(株)金田組,0537-22-7158,43.0404095,141.3210684
1980,専任媒介,売地,掛川市本所297,650,掛川市本所297,所有権,60,-,7.41,2,290,2025/4/26,-,-,現況渡し,(有)サンケイ開発,0537-22-0366,34.7889312,138.0592709
1974,★一般媒介,売地,掛川市本郷,200,掛川市本郷,所有権,60,-,3.34,2,198,2025/3/13,-,-,相談,(株)アーガス,0537-21-7777,34.8070079,137.9589345
1976,一般媒介,売地,掛川市本郷1449-10,980,掛川市本郷1449-10,所有権,60,-,7.68,2,422,2025/3/18,-,-,更地渡し,(株)金田工務店,0537-22-9883,34.8098636,137.9556279
605,一般,売地,掛川市本郷1449-10,981,天竜浜名湖鉄道 原谷 徒歩3分,所有権,60,無指定,7.68,200,422,2025/6/12,-,-,更地渡し,(株)金田工務店,0537-22-9883,34.8098636,137.9556279
1975,専任媒介,売地,掛川市本郷22-11,566,掛川市本郷22-11,所有権,60,-,11.01,2,170,2025/5/1,-,-,更地渡し,朝日住宅(株),0538-35-3500,34.8070354,137.9561434
1978,一般媒介,売地,掛川市本郷61,2500,掛川市本郷61,所有権,60,-,2.57,2,254,2025/3/28,-,-,現況渡し,アソシオ不動産(株),0538-48-6667,34.8070079,137.9589345
606,専任,売地,掛川市本郷730,1969,-,所有権,60,無指定,10,200,651,2025/6/7,-,-,現況渡し,(有)サンケイ開発,0537-22-0366,34.8070079,137.9589345
410,専任媒介,売地,掛川市本郷861-1,3740,天竜浜名湖鉄道 原谷 徒歩77分,所有権,60,無指定,5.07,200,2442,2025/5/16,-,-,現況渡し,トダックスアパマン掛川,0537-23-6700,34.8070079,137.9589345
592,一般,売地,掛川市杉谷,1001,-,所有権,60,無指定,7.01,200,472,2025/6/19,-,-,更地渡し,(株)アーガス,0537-21-7777,34.7651156,138.0338594
406,一般媒介,売地,掛川市杉谷,1000,バス停 杉谷 距離720m,所有権,60,無指定,7.01,200,472,2025/5/19,-,-,更地渡し,(株)アーガス,0537-21-7777,34.7651156,138.0338594
2116,専任媒介,売地,掛川市杉谷南１丁目,1143,掛川市杉谷南１丁目,所有権,60,-,14,2,270,2025/4/29,-,-,相談,(株)アーガス,0537-21-7777,34.7625051,138.0276633
425,専任媒介,売地,掛川市杉谷南１丁目22番6、22番7、22番8、22番15,2700,ＪＲ東海道新幹線 掛川 徒歩2233分,所有権,60,準工業,9.7,200,914,2025/5/16,-,-,現況渡し,トダックスアパマン掛川,0537-23-6700,35.6142488,139.6877873
2120,一般媒介,売地,掛川市杉谷南２丁目,980,掛川市杉谷南２丁目,所有権,60,-,13.91,2,233,2025/4/10,-,-,相談,(株)アーガス,0537-21-7777,34.7629311,138.0313809
2118,-,売地,掛川市杉谷南２丁目23番2,780,掛川市杉谷南２丁目23番2,所有権,60,-,7.41,2,348,2025/4/15,-,-,相談,グッド不動産売買,053-488-9440,34.7654136,138.0191425
2119,媒介,売地,掛川市杉谷南２丁目3-6,980,掛川市杉谷南２丁目3-6,所有権,60,-,13.91,2,233,2025/5/8,-,-,現況渡し,戸塚建設(株)　駅南センターアーバンクリエイト,0537-21-5588,34.7647478,138.0157378
1939,専任媒介,売地,掛川市杉谷１丁目876-1他2筆,1520,掛川市杉谷１丁目876-1他2筆,所有権,60,-,20.1,2,250,2025/3/31,-,-,現況渡し,(株)山本組,0537-22-5275,34.766352,138.0313809
1941,媒介,売地,掛川市杉谷２丁目111-5 他8筆,1911,掛川市杉谷２丁目111-5 他8筆,所有権,60,-,13,2,486,2025/3/28,-,-,現況渡し,アソシオ不動産(株),0538-48-6667,34.7656377,138.0350987
593,専任,売地,掛川市杉谷２丁目390,3552,-,所有権,60,1種住居,17.99,200,653,2025/6/7,-,-,現況渡し,(有)サンケイ開発,0537-22-0366,34.7656377,138.0350987
1942,専任媒介,売地,掛川市杉谷２丁目390,3550,掛川市杉谷２丁目390,所有権,60,-,17.99,2,653,2025/4/26,-,-,現況渡し,(有)サンケイ開発,0537-22-0366,34.7656377,138.0350987
573,専任,売地,掛川市梅橋,6509,東海道本線 愛野 徒歩17分,所有権,60,無指定,5.08,200,4236,2025/6/16,-,-,更地渡し,(株)アーガス,0537-21-7777,34.7560749,137.9651226
655,専任,売地,掛川市横須賀,360,-,所有権,60,2種住居,3.98,200,299,2025/6/4,-,-,相談,(株)アーガス,0537-21-7777,34.7026758,137.9898825
2106,-,売地,掛川市横須賀,300,掛川市横須賀,所有権,80,-,3.95,2,252,2025/4/26,-,-,相談,(株)アーガス,0537-21-7777,34.7026758,137.9898825
2115,一般媒介,売地,掛川市横須賀,1000,掛川市横須賀,所有権,60,-,5.12,2,646,2025/5/2,-,-,更地渡し,(株)日成,0538-23-2850,34.7026758,137.9898825
2105,-,売地,掛川市横須賀,280,掛川市横須賀,所有権,80,-,4.01,2,231,2025/4/26,-,-,相談,(株)アーガス,0537-21-7777,34.7026758,137.9898825
2114,一般媒介,売地,掛川市横須賀,990,掛川市横須賀,所有権,60,-,5.07,2,646,2025/4/13,-,-,現況渡し,(株)ＡＦＣスマイルプラス　Ｓｍｉｆｅ浜松東店,053-423-4690,34.7026758,137.9898825
658,一般,売地,掛川市横須賀,991,-,所有権,60,1種住居,5.07,200,646,2025/6/14,-,-,現況渡し,釜慶鉄工株式会社,053-421-0571,34.7026758,137.9898825
659,一般,売地,掛川市横須賀,1001,-,所有権,60,1種住居,5.12,200,646,2025/6/2,-,-,更地渡し,(株)日成,0538-23-2850,34.7026758,137.9898825
656,媒介,売地,掛川市横須賀1038-3,500,-,所有権,60,1種中高,6.38,100,259,2025/6/2,-,-,現況渡し,(株)丸玉,053-421-7360,34.6849699,137.9870094
2109,一般媒介,売地,掛川市横須賀1183-2,398,掛川市横須賀1183-2,所有権,60,-,5.23,2,252,2025/4/21,-,-,現況渡し,(株)ザ・トーカイ　不動産部,054-273-4805,34.6799372,137.9771104
2111,一般媒介,売地,掛川市横須賀1401-6,650,掛川市横須賀1401-6,所有権,60,-,4.08,2,527,2025/3/31,-,-,現況渡し,ＬＵＣＫＹ　ＨＯＭＥ(株),054-202-8166,34.6805197,137.9819096
657,一般,売地,掛川市横須賀1401-6,651,-,所有権,60,無指定,4.08,200,527,2025/6/12,-,-,現況渡し,ＬＵＣＫＹ　ＨＯＭＥ(株),054-202-8166,34.6805197,137.9819096
2108,媒介,売地,掛川市横須賀1453番1,380,掛川市横須賀1453番1,所有権,80,-,6.99,2,180,2025/4/26,-,-,現況渡し,坂口不動産事務所,053-437-3154,34.6815523,137.9810798
2100,★売主,売地,掛川市横須賀1716-43,175,掛川市横須賀1716-43,所有権,60,-,3.73,2,155,2025/4/25,-,-,現況渡し,平成不動産,0537-48-0576,34.6853947,137.969039
2104,専任媒介,売地,掛川市横須賀193,280,掛川市横須賀193,所有権,60,-,4.64,2,200,2025/5/5,-,-,現況渡し,センチュリー21中央不動産磐田店,0538-39-0500,34.6826811,137.9763067
2113,一般媒介,売地,掛川市横須賀403-1,990,掛川市横須賀403-1,所有権,60,用途地域,5.07,2,646,2025/4/21,-,-,現況渡し,富士ヶ丘サービス(株),0538-31-3308,34.6842003,137.9744256
2101,一般媒介,売地,掛川市横須賀492,183,掛川市横須賀492,所有権,60,-,4.5,2,135,2025/4/9,-,-,現況渡し,平成不動産,0537-48-0576,34.6830169,137.9798877
2103,専任媒介,売地,掛川市横須賀507,252,掛川市横須賀507,所有権,60,用途地域,4.01,2,208,2025/4/9,-,-,現況渡し,平成不動産,0537-48-0576,34.683341,137.9787574
2112,専任媒介,売地,掛川市横須賀３９１，５３６１,818,掛川市横須賀３９１，５３６１,所有権,60,-,5.7,2,474,2025/2/28,-,-,現況渡し,平成不動産,0537-48-0576,34.7026758,137.9898825
424,専任媒介,売地,掛川市横須賀４０９－１,232,バス停 西田町 停歩5分,所有権,60,１種住居,4,200,192,2025/5/16,-,-,現況渡し,平成不動産,0537-48-0576,34.7026758,137.9898825
411,専任媒介,売地,掛川市水垂,1200,バス停 水垂 距離160m,所有権,60,無指定,9.7,200,406,2025/5/20,-,-,相談,(株)アーガス,0537-21-7777,34.7859026,138.0196094
608,専任,売地,掛川市水垂,1101,-,所有権,60,無指定,8.96,200,406,2025/6/20,-,-,相談,(株)アーガス,0537-21-7777,34.7859026,138.0196094
1982,一般媒介,売地,掛川市水垂114-6,580,掛川市水垂114-6,所有権,30,-,7.35,2,261,2025/2/23,-,-,現況渡し,(株)不動産Ｌａｂｏ．,0538-33-6118,34.7826683,138.019431
607,一般,売地,掛川市水垂114-6,400,東海道本線 掛川 徒歩23分,所有権,30,1種低層,5.07,50,261,2025/6/21,-,-,現況渡し,(株)不動産Ｌａｂｏ．,0538-33-6118,34.7826683,138.019431
1981,専任媒介,売地,掛川市水垂204-1,530,掛川市水垂204-1,所有権,30,-,6.31,2,278,2025/3/1,-,-,更地渡し,(株)不動産Ｌａｂｏ．,0538-33-6118,34.7859026,138.0196094
2052,専任媒介,売地,掛川市沖之須,260,掛川市沖之須,所有権,60,-,4.02,2,214,2025/5/2,-,-,現況渡し,(株)日成,0538-23-2850,34.6669849,137.9836915
662,専任,売地,掛川市洋望台,790,-,所有権,60,1種低層,7.75,80,337,2025/6/20,-,-,相談,(株)アーガス,0537-21-7777,34.682975,137.9905016
661,専任,売地,掛川市洋望台,764,-,所有権,50,1種低層,6.28,80,402,2025/6/20,-,-,相談,(株)アーガス,0537-21-7777,34.682975,137.9905016
660,専任,売地,掛川市洋望台,601,-,所有権,50,1種低層,4.14,80,480,2025/6/10,-,-,相談,(株)アーガス,0537-21-7777,34.682975,137.9905016
2123,一般媒介,売地,掛川市洋望台,350,掛川市洋望台,所有権,50,用途地域,5.41,2,214,2025/4/9,-,-,現況渡し,(株)アーガス,0537-21-7777,34.682975,137.9905016
428,専任媒介,売地,掛川市洋望台,763,バス停 大須賀支所前 距離480m,所有権,50,１種低層,6.28,80,402,2025/5/20,-,-,相談,(株)アーガス,0537-21-7777,34.682975,137.9905016
2132,専任媒介,売地,掛川市洋望台,900,掛川市洋望台,所有権,50,-,4.39,2,679,2025/4/11,-,-,更地渡し,(株)アーガス,0537-21-7777,34.682975,137.9905016
2129,専任媒介,売地,掛川市洋望台,600,掛川市洋望台,所有権,50,-,4.14,2,480,2025/4/9,-,-,相談,(株)アーガス,0537-21-7777,34.682975,137.9905016
2127,専任媒介,売地,掛川市洋望台,450,掛川市洋望台,所有権,50,-,7.48,2,199,2025/4/26,-,-,更地渡し,(株)アーガス,0537-21-7777,34.682975,137.9905016
2126,-,売地,掛川市洋望台,430,掛川市洋望台,所有権,50,-,7.12,2,200,2025/4/26,-,-,現況渡し,(株)アーガス,0537-21-7777,34.682975,137.9905016
2124,一般媒介,売地,掛川市洋望台,360,掛川市洋望台,所有権,50,-,6.3,2,189,2025/5/3,-,-,更地渡し,(株)アーガス,0537-21-7777,34.682975,137.9905016
427,一般媒介,売地,掛川市洋望台,420,バス停 横須賀車庫前 距離400m,所有権,60,１種低層,7.94,80,175,2025/5/20,-,-,相談,(株)アーガス,0537-21-7777,34.682975,137.9905016
663,専任,売地,掛川市洋望台,902,-,所有権,50,1種低層,4.39,80,679,2025/6/12,-,-,更地渡し,(株)アーガス,0537-21-7777,34.682975,137.9905016
2128,専任媒介,売地,掛川市洋望台6-16.6-2.6-1.,582,掛川市洋望台6-16.6-2.6-1.,所有権,50,-,7,2,275,2025/4/28,-,-,現況渡し,平成不動産,0537-48-0576,34.682975,137.9905016
2094,専任媒介,売地,掛川市浜川新田356-1,485,掛川市浜川新田356-1,所有権,60,-,5.82,2,276,2025/4/11,-,-,現況渡し,(株)プラスワン,0537-85-6550,34.6619833,138.0515803
2096,一般媒介,売地,掛川市浜野新田571-2,585,掛川市浜野新田571-2,所有権,60,-,5,2,387,2025/4/5,-,-,現況渡し,(有)ワクダ総合企画,0537-72-6044,34.6678424,138.0358146
2095,専任媒介,売地,掛川市浜野新田842-1,100,掛川市浜野新田842-1,所有権,60,-,0.77,2,430,2025/4/5,-,-,現況渡し,(有)ワクダ総合企画,0537-72-6044,34.6679268,138.0389911
1911,専任媒介,売地,掛川市清崎,1320,掛川市清崎,所有権,60,-,20.91,2,209,2025/5/9,-,-,相談,(株)アーガス,0537-21-7777,34.7751102,138.0000993
1948,専任媒介,売地,掛川市満水,520,掛川市満水,所有権,60,-,2.43,2,708,2025/5/2,-,-,更地渡し,(株)アーガス,0537-21-7777,34.7719078,138.0543668
407,専任媒介,売地,掛川市満水,370,バス停 原下 距離160m,所有権,60,無指定,5.64,200,217,2025/5/19,-,-,更地渡し,(株)アーガス,0537-21-7777,34.7719078,138.0543668
1947,専任媒介,売地,掛川市満水130,385,掛川市満水130,所有権,60,工業地域,6.63,2,192,2025/4/26,-,-,現況渡し,(有)サンケイ開発,0537-22-0366,34.7719078,138.0543668
1949,専任媒介,売地,掛川市満水377-1,747,掛川市満水377-1,所有権,60,-,8,2,309,2025/4/26,-,-,現況渡し,(有)サンケイ開発,0537-22-0366,34.7719078,138.0543668
594,専任,売地,掛川市満水377-1,748,-,所有権,60,-,8,200,309,2025/6/7,-,-,現況渡し,(有)サンケイ開発,0537-22-0366,34.7719078,138.0543668
1952,専任媒介,売地,掛川市満水623-1,1000,掛川市満水623-1,所有権,60,-,6.67,2,496,2025/4/26,-,-,更地渡し,(有)サンケイ開発,0537-22-0366,34.7730424,138.0437515
596,専任,売地,掛川市満水623-1,1001,-,所有権,60,-,6.67,200,496,2025/6/7,-,-,更地渡し,(有)サンケイ開発,0537-22-0366,34.7730424,138.0437515
1950,★売主,売地,掛川市満水90-2,980,掛川市満水90-2,所有権,60,工業地域,11.92,2,272,2025/4/22,-,-,建築条件付,林工住宅(株),053-463-0258,34.7719078,138.0543668
595,一般,売地,掛川市満水90-2,981,停歩10分,所有権,60,工業地域,11.92,200,272,2025/6/16,-,-,現況渡し,(株)大隅土地建物,053-443-8443,34.7719078,138.0543668
2133,★売主,売地,掛川市紅葉台1-1,1023,掛川市紅葉台1-1,所有権,60,用途地域,16.91,2,200,2025/4/22,-,-,建築条件付,林工住宅(株),053-463-0258,34.7711612,138.0339957
2134,一般媒介,売地,掛川市紅葉台11-1,1121,掛川市紅葉台11-1,所有権,60,用途地域,18.15,2,204,2025/3/28,-,-,現況渡し,アソシオ不動産(株),0538-48-6667,34.7698828,138.035418
1920,専任媒介,売地,掛川市細田,195,掛川市細田,所有権,60,-,1.06,2,614,2025/4/9,-,-,相談,(株)アーガス,0537-21-7777,34.7725083,137.9824533
1973,専任媒介,売地,掛川市細谷227,601,掛川市細谷227,所有権,60,用途地域,9.99,2,199,2025/4/26,-,-,現況渡し,(有)サンケイ開発,0537-22-0366,34.7908743,137.9638849
409,専任媒介,売地,掛川市細谷９３３－１,420,天竜浜名湖鉄道 細谷 徒歩66分,所有権,60,無指定,8,200,174,2025/5/20,-,-,更地渡し,遠州鉄道(株)　掛川店・掛川住宅プラザ,0537-23-5103,34.7935814,137.9632765
1985,★売主,売地,掛川市緑ケ丘１丁目13-5,1399,掛川市緑ケ丘１丁目13-5,所有権,60,-,25.99,2,178,2025/4/5,-,-,建築条件付,(有)ワクダ総合企画,0537-72-6044,34.7692051,138.0223672
403,専任媒介,売地,掛川市葛ケ丘３丁目１３－４,1480,バス停 葛ヶ丘三丁目 停歩6分,所有権,60,１種中高,20.48,150,239,2025/5/20,-,-,更地渡し,遠州鉄道(株)　掛川店・掛川住宅プラザ,0537-23-5103,34.7866656,138.0300263
1912,専任媒介,売地,掛川市葛川,600,掛川市葛川,所有権,60,-,3.28,2,606,2025/5/2,-,-,相談,(株)アーガス,0537-21-7777,34.7761551,138.0279375
1914,一般媒介,売地,掛川市葛川151-1,860,掛川市葛川151-1,所有権,80,-,22.67,2,125,2025/4/10,-,-,現況渡し,(株)金田工務店,0537-22-9883,34.7730838,138.0227312
1915,媒介,売地,掛川市葛川1番1,950,掛川市葛川1番1,所有権,60,-,15.58,2,202,2025/2/17,-,-,現況渡し,アスティア,053-543-9988,34.7771392,138.0235394
1913,専属専任,売地,掛川市葛川628-5,700,掛川市葛川628-5,所有権,60,用途地域,12.59,2,184,2025/3/17,-,-,現況渡し,(有)剛健エンタープライズ,055-929-2555,34.7744814,138.0275391
1944,専任媒介,売地,掛川市薗ケ谷13-1,850,掛川市薗ケ谷13-1,所有権,60,工業地域,11.98,2,235,2025/4/26,-,-,現況渡し,(有)サンケイ開発,0537-22-0366,34.782485,138.0418866
1943,専任媒介,売地,掛川市薗ケ谷675-2,525,掛川市薗ケ谷675-2,所有権,60,工業地域,10.1,2,172,2025/4/26,-,-,現況渡し,(有)サンケイ開発,0537-22-0366,34.7839026,138.0419154
1945,★売主,売地,掛川市薗ケ谷859-1,1100,掛川市薗ケ谷859-1,所有権,60,工業地域,14.34,2,254,2025/4/10,-,-,更地渡し,(株)愛野土地開発,0537-29-7570,34.7839026,138.0419154
422,専任媒介,売地,掛川市西大渕,648,バス停 東番町 距離240m,所有権,60,１種中高,4.91,100,436,2025/5/19,25.83,-,更地渡し,(株)アーガス,0537-21-7777,34.6756257,137.9823679
651,一般,売地,掛川市西大渕,670,-,所有権,60,2種中高,6.62,100,335,2025/6/23,-,-,更地渡し,(株)アーガス,0537-21-7777,34.6756257,137.9823679
650,専任,売地,掛川市西大渕,91,-,所有権,60,1種中高,4.91,100,26,2025/6/19,-,-,-,(株)アーガス,0537-21-7777,34.6756257,137.9823679
649,一般,売地,掛川市西大渕,499,バス停 大須賀支所 停歩9分,所有権,50,1種低層,3.93,80,419,2025/6/12,-,-,更地渡し,(株)アーガス,0537-21-7777,34.6756257,137.9823679
647,一般,売地,掛川市西大渕,400,-,所有権,60,無指定,3.36,200,394,2025/6/11,-,-,相談,(株)アーガス,0537-21-7777,34.6756257,137.9823679
2088,一般媒介,売地,掛川市西大渕,498,掛川市西大渕,所有権,50,-,3.93,2,419,2025/3/21,-,-,更地渡し,(株)アーガス,0537-21-7777,34.6756257,137.9823679
2084,一般媒介,売地,掛川市西大渕,450,掛川市西大渕,所有権,50,-,6.66,2,224,2025/4/12,-,-,相談,(株)アーガス,0537-21-7777,34.6756257,137.9823679
2082,専任媒介,売地,掛川市西大渕,412,掛川市西大渕,所有権,40,-,2.75,2,496,2025/3/5,-,-,現況渡し,(株)アーガス,0537-21-7777,34.6756257,137.9823679
2078,専任媒介,売地,掛川市西大渕,150,掛川市西大渕,所有権,60,-,2.13,2,233,2025/2/15,-,-,相談,(株)アーガス,0537-21-7777,34.6756257,137.9823679
648,一般,売地,掛川市西大渕155-1,400,バス停 大須賀役場前 停歩3分,所有権,60,無指定,3.36,200,394,2025/6/10,-,-,現況渡し,釜慶鉄工株式会社,053-421-0571,34.6782302,137.9889693
2086,一般媒介,売地,掛川市西大渕155-1,450,掛川市西大渕155-1,所有権,60,-,3.78,2,394,2025/3/26,-,-,現況渡し,平成不動産,0537-48-0576,34.6782302,137.9889693
2079,一般媒介,売地,"掛川市西大渕2581-22,2581-24",164,"掛川市西大渕2581-22,2581-24",所有権,60,-,2,2,272,2025/4/9,-,-,相談,三方不動産(株),053-528-7800,34.6713898,137.9779176
2089,専任媒介,売地,掛川市西大渕4311-2,518,掛川市西大渕4311-2,所有権,60,-,4.5,2,381,2025/4/29,-,-,現況渡し,平成不動産,0537-48-0576,34.6826531,137.9734226
2093,専任媒介,売地,掛川市西大渕4332-1,820,掛川市西大渕4332-1,所有権,60,用途地域,8.98,2,302,2025/2/27,-,-,現況渡し,ユウナンエイト(株),053-401-9723,34.6821718,137.9753449
652,一般,売地,掛川市西大渕5289-2,670,-,所有権,70,2種中高,6.62,100,335,2025/6/20,-,-,相談,しずなび(株)　浜松東店,053-467-6700,34.6813529,137.9777444
2080,媒介,売地,掛川市西大渕7347-2,350,掛川市西大渕7347-2,所有権,60,-,3.8,2,305,2025/3/28,-,-,現況渡し,アソシオ不動産(株),0538-48-6667,34.717002,137.9959872
2087,専任媒介,売地,掛川市西大渕５６７０－１２,480,掛川市西大渕５６７０－１２,所有権,60,-,5.83,2,272,2025/4/30,-,-,現況渡し,遠州鉄道(株)　掛川店・掛川住宅プラザ,0537-23-5103,34.683176,137.986961
2083,専任媒介,売地,掛川市西大渕５９２５－２０,436,掛川市西大渕５９２５－２０,所有権,50,用途地域,7.2,2,200,2025/4/29,-,-,更地渡し,平成不動産,0537-48-0576,34.684153,137.9898922
1968,専任媒介,売地,掛川市西山,1000,掛川市西山,所有権,60,-,3.92,2,845,2025/2/15,-,-,相談,(株)アーガス,0537-21-7777,34.8079948,137.9477975
1963,専任媒介,売地,掛川市長谷196-3,457,掛川市長谷196-3,所有権,60,用途地域,8,2,189,2025/4/26,-,-,現況渡し,(有)サンケイ開発,0537-22-0366,34.7663358,137.9948358
603,売主,売地,掛川市長谷46番1外3筆,3984,天竜浜名湖鉄道 西掛川 徒歩12分,所有権,60,準工業,13,200,1013,2025/6/4,-,-,更地渡し,(株)リサイクルクリーン　天竜不動産,053-926-2511,34.7686961,137.9863153
1964,専任媒介,売地,掛川市長谷２２８、２２９－１,600,掛川市長谷２２８、２２９－１,所有権,70,-,10.38,2,191,2025/5/8,-,-,更地渡し,遠州鉄道(株)　掛川店・掛川住宅プラザ,0537-23-5103,34.7663358,137.9948358
2005,専任媒介,売地,掛川市青葉台,780,掛川市青葉台,所有権,70,-,14.43,2,179,2025/4/28,-,-,相談,(株)アーガス,0537-21-7777,34.7725753,138.0326201
2006,専任媒介,売地,掛川市青葉台５６１番地の１０７,800,掛川市青葉台５６１番地の１０７,所有権,60,-,12.33,2,214,2025/4/27,-,-,現況渡し,遠州鉄道(株)　掛川店・掛川住宅プラザ,0537-23-5103,34.7725753,138.0326201
616,専任,売地,掛川市青葉台６１８・６１９,1050,東海道本線 掛川 徒歩24 分,所有権,60,1種中高,13.29,150,261,2025/6/25,-,-,現況渡し,遠州鉄道(株)　掛川店・掛川住宅プラザ,0537-23-5103,34.7725753,138.0326201
614,一般,売地,掛川市領家３６－１、３５－１,7003,停歩13分,所有権,60,工業地域,18.93,200,1223,2025/6/25,-,-,相談,遠州鉄道(株)　事業用不動産流通グループ,053-488-8811,34.7648142,137.9750252
1916,-,売地,掛川市高御所107-1,1600,掛川市高御所107-1,所有権,60,工業地域,24.61,2,215,2025/5/7,-,-,現況渡し,ＦｉｒｓｔＧｌａｓｓ(株),054-295-5344,34.758905,137.9930421
586,専任,売地,掛川市高御所1690,1615,-,所有権,60,工業地域,20,200,267,2025/6/7,-,-,現況渡し,(有)サンケイ開発,0537-22-0366,34.7574069,137.9898825
2070,一般媒介,売地,掛川市高瀬,800,掛川市高瀬,所有権,60,-,9.17,2,289,2025/4/25,-,-,相談,(株)アーガス,0537-21-7777,34.7285394,138.0431549
2069,専任媒介,売地,掛川市高瀬2105,800,掛川市高瀬2105,所有権,60,-,9.17,2,289,2025/4/26,-,-,現況渡し,(有)サンケイ開発,0537-22-0366,34.7213937,138.0518932
643,専任,売地,掛川市高瀬2105,801,-,所有権,60,無指定,9.17,200,289,2025/6/7,-,-,現況渡し,(有)サンケイ開発,0537-22-0366,34.7213937,138.0518932
420,一般媒介,売地,掛川市高瀬2105-1,800,東海道本線 掛川,,,,,,,,,,,,,,
642,一般,売地,掛川市高瀬2105-1,801,停歩1分,所有権,60,無指定,9.17,200,289,2025/6/17,-,-,更地渡し,センチュリー21中央不動産磐田店,0538-39-0500,34.7213937,138.0518932
125,一般,売地,浜松市中央区三和町,1095,停歩8分,所有権,70,無指定,10,200,362,2025/6/20,-,-,相談,(株)マストレ,053-448-5656,34.7065131,137.7674557
126,一般,売地,浜松市中央区三和町539,2339,東海道本線 天竜川 徒歩24 分,所有権,60,無指定,11,200,703,2025/6/8,-,-,現況渡し,みき不動産(株),053-581-9266,34.7065131,137.7674557
411,専任媒介,売地,浜松市中央区三和町７３６－２,2285,浜松市中央区三和町７３６－２,所有権,60,-,20,2,378,2025/2/14,-,-,相談,(株)東洋エージェンシー,053-421-0700,34.7010446,137.7683708
274,一般,売地,浜松市中央区三島町,2505,東海道本線 浜松 徒歩30 分,所有権,60,無指定,4.86,200,1704,2025/6/7,-,-,現況渡し,浜松損害保険サービス(株),053-459-4180,34.6879775,137.7452641
234,専任媒介,売地,浜松市中央区三島町147,1430,バス停 瓜内東 停歩2分,所有権,60,無指定,2.72,200,208,2025/5/19,-,-,建築条件付,エムレップ不動産,053-401-2266,34.6879775,137.7452641
272,媒介,売地,浜松市中央区三島町1793,1450,徒歩27分,所有権,60,1種住居,19.11,200,251,2025/6/2,-,-,更地渡し,釜慶鉄工株式会社,053-421-0571,34.6930698,137.7506763
918,-,売地,浜松市中央区三島町212-11,1390,浜松市中央区三島町212-11,所有権,60,-,21.38,2,215,2025/4/21,-,-,更地渡し,しずなび(株)　浜松駅南店,053-453-3731,34.6879459,137.7395443
917,一般媒介,売地,"浜松市中央区三島町212-11,213-2",1390,"浜松市中央区三島町212-11,213-2",所有権,60,-,21.32,2,216,2025/5/5,-,-,現況渡し,(株)アランアール,053-488-5590,34.6880997,137.7396053
924,専任媒介,売地,浜松市中央区三島町26-1,9500,浜松市中央区三島町26-1,所有権,60,-,35.49,2,885,2025/4/3,-,-,現況渡し,(株)アール・プランニング,03-3491-0056,34.6879775,137.7452641
273,一般,売地,浜松市中央区三島町825-1,2505,徒歩29分,所有権,60,-,4.86,200,1704,2025/6/7,-,-,現況渡し,冨士物産(株)　浜松店,053-411-2223,34.6879775,137.7452641
921,-,売地,浜松市中央区三島町１６３８－１他,1498,浜松市中央区三島町１６３８－１他,所有権,60,-,24.41,2,203,2025/5/9,-,-,現況渡し,遠州鉄道(株)　買取再生グループ,053-488-8807,34.6900575,137.7537968
275,専任,売地,浜松市中央区三幸町177番1,10901,天竜浜名湖鉄道 常葉大学前 徒歩39分,所有権,60,無指定,5,200,7207,2025/6/20,-,-,現況渡し,冨士物産(株)　浜松店,053-411-2223,34.8019602,137.7218497
124,専任,売地,浜松市中央区三新町字中通297番1・298番,553,-,所有権,60,無指定,4.38,160,417,2025/6/16,-,-,現況渡し,(株)リサイクルクリーン　天竜不動産,053-926-2511,34.6654208,137.7859558
106,専任媒介,売地,浜松市中央区三新町７１４－３,530,バス停 遠州浜温泉 停歩10分,所有権,60,無指定,8.3,200,210,2025/5/22,-,-,相談,遠州鉄道(株)　浜北店,053-581-1124,34.657462,137.7849332
900,媒介,売地,浜松市中央区三方原町,1100,浜松市中央区三方原町,所有権,60,用途地域,11.06,2,279,2025/4/4,-,-,更地渡し,とぴあ浜松農業協同組合不動産センター有玉店,053-476-3152,34.785159,137.7100922
908,一般媒介,売地,浜松市中央区三方原町,2650,浜松市中央区三方原町,所有権,60,-,23.17,2,378,2025/4/14,-,-,更地渡し,(株)マストレ浜松医大前営業所,053-424-7747,34.785159,137.7100922
898,媒介,売地,浜松市中央区三方原町1093-1,955,浜松市中央区三方原町1093-1,所有権,60,-,13.5,2,234,2025/4/18,-,-,建築条件付,ひばり開発(株),053-488-7477,34.785159,137.7100922
899,媒介,売地,浜松市中央区三方原町1262-14,970,浜松市中央区三方原町1262-14,所有権,60,-,10.66,2,301,2025/4/19,-,-,現況渡し,RBS有限会社,053-443-8578,34.7850426,137.7173189
267,専任,売地,浜松市中央区三方原町1493-1,746,バス停 遠鉄バス「権七」 停歩4分,所有権,60,-,6.5,200,379,2025/6/10,-,-,相談,(株)グリーンランド,052-744-3833,34.785159,137.7100922
269,媒介,売地,浜松市中央区三方原町1526,10354,停歩4分,所有権,60,無指定,12.98,200,2637,2025/6/17,-,-,建築条件付,RBS有限会社,053-443-8578,34.7822914,137.7054142
888,媒介,売地,浜松市中央区三方原町1543-5,700,浜松市中央区三方原町1543-5,所有権,60,-,7.72,2,300,2025/4/10,-,-,更地渡し,とぴあ浜松農業協同組合不動産センター有玉店,053-476-3152,34.784446,137.7052196
229,★売主,売地,浜松市中央区三方原町1641-9,870,バス停 遠鉄バス停「新豊院」 停歩6分,所有権,60,無指定,10.97,200,262,2025/5/19,-,-,建築条件付,浜松太陽住宅(株),053-437-6030,34.7860378,137.7115834
887,★売主,売地,浜松市中央区三方原町1808－7（Ｃ号地）,685,浜松市中央区三方原町1808－7（Ｃ号地）,所有権,60,-,9.03,2,251,2025/3/14,-,-,現況渡し,古田不動産(株),053-581-9801,34.785159,137.7100922
882,媒介,売地,浜松市中央区三方原町182９-1 から分筆,500,浜松市中央区三方原町182９-1 から分筆,所有権,60,-,4.07,2,113,2025/2/24,-,-,相談,(有)イーエム,053-437-1980,34.7852802,137.7022554
897,媒介,売地,浜松市中央区三方原町1912,950,浜松市中央区三方原町1912,所有権,60,-,9,2,349,2025/4/12,-,-,現況渡し,(有)弥生不動産,053-587-0030,34.785159,137.7100922
901,媒介,売地,浜松市中央区三方原町1912,1198,浜松市中央区三方原町1912,所有権,60,-,8,2,495,2025/3/17,-,-,現況渡し,ひばり開発(株),053-488-7477,34.785159,137.7100922
266,一般,売地,浜松市中央区三方原町1990-1の一部,666,停 停歩7分,所有権,60,無指定,8.07,200,273,2025/6/23,-,-,現況渡し,遠州鉄道(株)　高台店,053-437-1976,34.785159,137.7100922
226,媒介,売地,浜松市中央区三方原町2012-8,515,バス停 豊岡 停歩6分,所有権,60,-,8,200,213,2025/5/16,-,-,更地渡し,(有)天商,053-436-6708,34.7900925,137.7109707
893,媒介,売地,浜松市中央区三方原町2095番3、2097番3,780,浜松市中央区三方原町2095番3、2097番3,所有権,-,-,5.2,2,496,2025/5/8,-,-,更地渡し,とぴあ浜松農業協同組合不動産センター有玉店,053-476-3152,34.7905988,137.7080767
881,一般媒介,売地,浜松市中央区三方原町2200番15,160,浜松市中央区三方原町2200番15,所有権,-,-,4.6,2,115,2025/5/2,-,-,現況渡し,まちかど相談室,053-485-0626,34.7878552,137.7015694
896,媒介,売地,浜松市中央区三方原町2208番10,950,浜松市中央区三方原町2208番10,所有権,-,-,3.29,2,956,2025/4/14,-,-,現況渡し,とぴあ浜松農業協同組合不動産センター有玉店,053-476-3152,34.7871909,137.7016333
225,専任媒介,売地,浜松市中央区三方原町2325-1,503,"遠州鉄道 遠州西ヶ崎 距離77,220000m",,,,,,,,,,,,,,
889,専任媒介,売地,浜松市中央区三方原町2352-4,700,浜松市中央区三方原町2352-4,所有権,60,-,7.02,2,330,2025/4/8,-,-,現況渡し,(株)マエフジ不動産,053-472-3341,34.7878936,137.6988162
268,媒介,売地,浜松市中央区三方原町2745-1,3179,停歩3分,所有権,60,無指定,27,200,389,2025/6/4,-,-,現況渡し,(有)イーエム,053-437-1980,34.787096,137.6955594
909,媒介,売地,浜松市中央区三方原町2745-1,3178,浜松市中央区三方原町2745-1,所有権,60,-,27,2,389,2025/3/11,-,-,現況渡し,(有)イーエム,053-437-1980,34.787096,137.6955594
903,専任媒介,売地,浜松市中央区三方原町403-2,1750,浜松市中央区三方原町403-2,所有権,60,-,27.04,2,214,2025/5/2,-,-,現況渡し,(株)不動産Ｌａｂｏ．,0538-33-6118,34.7770207,137.7205253
884,★売主,売地,浜松市中央区三方原町487-8,580,浜松市中央区三方原町487-8,所有権,60,-,22.9,2,84,2025/4/14,-,-,更地渡し,センチュリー21中央不動産浜松店,053-584-0021,34.7774603,137.715401
905,★売主,売地,浜松市中央区三方原町49 付近,1980,浜松市中央区三方原町49 付近,所有権,60,-,19.9,2,329,2025/4/28,-,-,建築条件付,(株)ベスト・ハウジング,053-474-6252,34.7729904,137.7162995
904,媒介,売地,浜松市中央区三方原町815-5,1880,浜松市中央区三方原町815-5,所有権,60,-,29.43,2,211,2025/4/28,-,-,更地渡し,RBS有限会社,053-443-8578,34.7801224,137.7221511
902,媒介,売地,浜松市中央区三方原町815-7,1738,浜松市中央区三方原町815-7,所有権,60,-,28.51,2,202,2025/4/24,-,-,建築条件付,RBS有限会社,053-443-8578,34.780131,137.7220122
230,一般媒介,売地,浜松市中央区三方原町951番1の一部,898,バス停 遠鉄　百園 停歩3分,所有権,-,-,10,,297,2025/5/22,-,-,相談,とぴあ浜松農業協同組合不動産センター有玉店,053-476-3152,34.7814205,137.7117629
886,★売主,売地,浜松市中央区三方原町１３４２－１の一部(A号地),670,浜松市中央区三方原町１３４２－１の一部(A号地),所有権,60,-,4.98,2,445,2025/3/14,-,-,更地渡し,古田不動産(株),053-581-9801,34.7837629,137.7126897
265,売主,売地,浜松市中央区三方原町１３４２－１の一部(B号地),636,バス停 豊岡小入口 停歩2分,所有権,60,-,4.24,200,496,2025/6/4,-,-,更地渡し,古田不動産(株),053-581-9801,34.7837629,137.7126897
228,専任媒介,売地,浜松市中央区三方原町２２５５－１,731,バス停 一里山 停歩6分,所有権,60,無指定,8,200,302,2025/5/22,-,-,現況渡し,遠州鉄道(株)　高台店,053-437-1976,34.7856425,137.6992237
906,専任媒介,売地,浜松市中央区三方原町６８６－１,2250,浜松市中央区三方原町６８６－１,所有権,60,-,28.13,2,264,2025/4/30,-,-,更地渡し,遠州鉄道(株)　高台店,053-437-1976,34.7786851,137.7136494
271,専属専任,売地,浜松市中央区三組町,15000,停歩3分,所有権,70,1種住居,44.41,200,1117,2025/6/20,-,-,-,(有)ホームズ,053-455-2223,34.7089332,137.7203096
912,一般媒介,売地,浜松市中央区三組町144の一部,2480,浜松市中央区三組町144の一部,所有権,60,-,34.69,2,236,2025/4/23,-,-,現況渡し,冨士物産(株)　浜松店,053-411-2223,34.707926,137.7205564
232,★売主,売地,浜松市中央区三組町175-3,2950,ＪＲ東海道新幹線 浜松 徒歩2200分,所有権,60,２種住居,50.37,200,194,2025/5/21,-,-,現況渡し,AGILE,053-568-2073,34.7089332,137.7203096
231,★売主,売地,浜松市中央区三組町175-6,2350,ＪＲ東海道新幹線 浜松 徒歩2200分,所有権,60,２種住居,51.07,200,152,2025/5/21,-,-,現況渡し,AGILE,053-568-2073,34.7089332,137.7203096
915,-,売地,"浜松市中央区三組町28番64,65",7000,"浜松市中央区三組町28番64,65",所有権,60,-,30.96,2,748,2025/5/7,-,-,現況渡し,冨士物産(株)　浜松店,053-411-2223,34.7107384,137.7197678
911,-,売地,浜松市中央区三組町１９６,2350,浜松市中央区三組町１９６,所有権,60,-,51.07,2,152,2025/4/17,-,-,現況渡し,遠州鉄道(株)　広沢プラザ,053-456-0055,34.7078104,137.7233263
913,-,売地,浜松市中央区三組町１９６,2950,浜松市中央区三組町１９６,所有権,60,-,50.39,2,194,2025/4/18,-,-,現況渡し,遠州鉄道(株)　広沢プラザ,053-456-0055,34.7078104,137.7233263
270,専任,売地,浜松市中央区三組町３２－１,3200,バス停 高町(静岡県) 停歩3分,所有権,60,1種住居,39.86,200,265,2025/6/14,-,-,更地渡し,遠州鉄道(株)　浜松店,053-471-0202,34.7095356,137.7204324
265,★売主,売地,浜松市中央区上島１丁目12-21 付近,1298,浜松市中央区上島１丁目12-21 付近,所有権,70,-,37.64,2,114,2025/4/28,-,-,建築条件付,(株)ベスト・ハウジング,053-474-6252,34.7395375,137.7416338
76,★売主,売地,浜松市中央区上島１丁目9-22 付近,1898,遠州鉄道 曳馬 徒歩1100分,所有権,60,１種住居,42.62,200,147,2025/5/21,-,-,建築条件付,(株)ベスト・ハウジング,053-474-6252,34.737418,137.7398757
267,★売主,売地,浜松市中央区上島２丁目18-36 付近,1798,浜松市中央区上島２丁目18-36 付近,所有権,60,-,38.64,2,154,2025/4/28,-,-,建築条件付,(株)ベスト・ハウジング,053-474-6252,34.7402361,137.7420739
77,★売主,売地,浜松市中央区上島３丁目178－4,1880,遠州鉄道 上島 徒歩88分,所有権,60,１種住居,49.81,160,125,2025/5/20,-,-,建築条件付,三井ホーム(株)　浜松支店,053-555-5331,34.739083,137.7477294
270,一般媒介,売地,浜松市中央区上島４丁目,2660,浜松市中央区上島４丁目,所有権,60,用途地域,39.18,2,224,2025/4/12,-,-,更地渡し,(株)マストレ　高林支店,053-472-5656,34.7433259,137.7483457
269,一般媒介,売地,浜松市中央区上島４丁目１１－６,2660,浜松市中央区上島４丁目１１－６,所有権,60,-,39.18,2,224,2025/4/24,-,-,更地渡し,遠州鉄道(株)　浜北店,053-581-1124,34.7434343,137.7509366
72,専任,売地,浜松市中央区上島６丁目2680-9,1950,遠州鉄道 上島 徒歩10 分,所有権,60,2種住居,19.19,200,336,2025/6/1,-,-,現況渡し,釜慶鉄工株式会社,053-421-0571,34.7439861,137.737869
271,専任媒介,売地,浜松市中央区上島６丁目2680番3,888,浜松市中央区上島６丁目2680番3,所有権,60,-,26.24,2,112,2025/5/8,-,-,現況渡し,(株)アモルテ,053-522-8885,34.7439861,137.737869
272,専任媒介,売地,浜松市中央区上島６丁目１０－４,1480,浜松市中央区上島６丁目１０－４,所有権,60,-,32.57,2,150,2025/4/30,-,-,更地渡し,遠州鉄道(株)　高台店,053-437-1976,34.739549,137.7364857
73,専任,売地,浜松市中央区上島６丁目１３－１０,3401,遠州鉄道 曳馬 徒歩15分,所有権,60,1種中高,29.65,200,379,2025/6/12,-,-,相談,遠州鉄道(株)　高台店,053-437-1976,34.7405217,137.7356541
275,専任媒介,売地,浜松市中央区上島６丁目１３－１０,3400,浜松市中央区上島６丁目１３－１０,所有権,60,-,29.65,2,379,2025/4/11,-,-,相談,遠州鉄道(株)　高台店,053-437-1976,34.7405217,137.7356541
274,-,売地,浜松市中央区上島６丁目２５０７－４３,2049,浜松市中央区上島６丁目２５０７－４３,所有権,60,-,29,2,234,2025/4/25,-,-,現況渡し,遠州鉄道(株)　買取再生グループ,053-488-8807,34.7439861,137.737869
276,一般媒介,売地,浜松市中央区上島７丁目２６,980,浜松市中央区上島７丁目２６,所有権,60,-,20.91,2,155,2025/5/2,-,-,現況渡し,遠州鉄道(株)　高台店,053-437-1976,34.747003,137.7409501
259,専任媒介,売地,浜松市中央区上新屋町201-4,1730,浜松市中央区上新屋町201-4,所有権,60,-,26.85,2,213,2025/5/7,-,-,更地渡し,浜松損害保険サービス(株),053-459-4180,34.7319125,137.7570715
256,一般媒介,売地,浜松市中央区上浅田１丁目,1180,浜松市中央区上浅田１丁目,所有権,60,-,26.65,2,146,2025/5/4,-,-,更地渡し,(株)マストレ　高林支店,053-472-5656,34.695738,137.7273943
70,専任,売地,浜松市中央区上浅田２丁目,1981,停歩2分,所有権,60,1種住居,25.46,200,257,2025/6/25,-,-,更地渡し,(株)マストレ,053-448-5656,34.6945111,137.7298587
257,専任媒介,売地,浜松市中央区上浅田２丁目,1980,浜松市中央区上浅田２丁目,所有権,60,-,25.46,2,257,2025/4/24,-,-,更地渡し,(株)マストレ,053-448-5656,34.6945111,137.7298587
71,専任,売地,浜松市中央区上浅田２丁目,2980,停歩1分,所有権,60,1種住居,27.52,200,358,2025/6/5,-,-,相談,丸善管財(株),053-569-4544,34.6945111,137.7298587
262,専任媒介,売地,浜松市中央区上石田町2178-2,1180,浜松市中央区上石田町2178-2,所有権,60,-,11.02,2,354,2025/4/17,-,-,現況渡し,(株)テラニシ,053-523-6201,34.7503458,137.7819481
75,専任媒介,売地,浜松市中央区上石田町2178-2,2756,バス停 上石田西 停歩4分,所有権,60,-,14,200,651,2025/5/16,-,-,現況渡し,上島不動産(株),053-473-5000,34.7503458,137.7819481
261,一般媒介,売地,浜松市中央区上石田町715,798,浜松市中央区上石田町715,所有権,60,-,8,2,330,2025/4/30,-,-,現況渡し,犬塚産業(株),053-455-0588,34.7519217,137.7859558
280,★売主,売地,浜松市中央区上西町字西表1164番4,1650,浜松市中央区上西町字西表1164番4,所有権,60,用途地域,44.31,2,123,2025/5/2,-,-,相談,ホームポジション(株)　浜松支店,053-582-6500,34.7238499,137.7600575
453,一般媒介,売地,浜松市中央区下江町,714,浜松市中央区下江町,所有権,60,-,5.01,2,472,2025/4/15,-,-,現況渡し,あららぎ不動産(株),053-464-5557,34.6799378,137.7705386
120,媒介,売地,浜松市中央区下江町,545,バス停 南陽公民館 停歩4分,所有権,60,-,8.01,200,225,2025/5/22,-,-,現況渡し,(株)山崎不動産,053-463-8713,34.6799378,137.7705386
138,媒介,売地,浜松市中央区下江町,920,バス停 南陽公民館 停歩4分,所有権,60,-,8,200,380,2025/6/19,-,-,現況渡し,(株)山崎不動産,053-463-8713,34.6799378,137.7705386
137,媒介,売地,浜松市中央区下江町,783,バス停 下江町 停歩5分,所有権,60,-,7,200,370,2025/6/19,-,-,現況渡し,(株)山崎不動産,053-463-8713,34.6799378,137.7705386
124,媒介,売地,浜松市中央区下江町,919,バス停 南陽公民館 停歩4分,所有権,60,-,8,200,380,2025/5/22,-,-,現況渡し,(株)山崎不動産,053-463-8713,34.6799378,137.7705386
455,一般媒介,売地,浜松市中央区下江町492・493,783,浜松市中央区下江町492・493,所有権,60,-,7,2,370,2025/4/4,-,-,現況渡し,とぴあ浜松農業協同組合不動産センター有玉店,053-476-3152,34.6799378,137.7705386
136,媒介,売地,浜松市中央区下江町６６８－①,656,バス停 下江町 停歩8分,所有権,60,-,8.51,200,255,2025/6/19,-,-,現況渡し,(株)山崎不動産,053-463-8713,34.6799378,137.7705386
135,媒介,売地,浜松市中央区下江町６６８－③,580,バス停 下江町 停歩8分,所有権,60,-,7.52,200,255,2025/6/19,-,-,現況渡し,(株)山崎不動産,053-463-8713,34.6799378,137.7705386
444,一般媒介,売地,浜松市中央区下池川町40-2,1480,浜松市中央区下池川町40-2,所有権,80,-,70.86,2,69,2025/3/9,-,-,現況渡し,(株)ライフナビ,053-458-5000,34.7173511,137.7273943
448,媒介,売地,浜松市中央区下石田町,1630,浜松市中央区下石田町,所有権,60,-,26.93,2,200,2025/5/2,-,-,更地渡し,アスティア,053-543-9988,34.7388826,137.7847223
445,媒介,売地,浜松市中央区下石田町1315,550,浜松市中央区下石田町1315,所有権,60,-,5.37,2,339,2025/3/22,-,-,現況渡し,丸八不動産(株),053-455-0808,34.7388826,137.7847223
132,媒介,売地,浜松市中央区下石田町1315,551,バス停 下石田南 停歩9分,所有権,60,無指定,5.37,200,339,2025/6/4,-,-,現況渡し,丸八不動産(株),053-455-0808,34.7388826,137.7847223
134,専任,売地,浜松市中央区下石田町1578-1,5601,-,所有権,60,無指定,10.45,160,1772,2025/6/10,-,-,更地渡し,アセットクローバー,053-476-6001,34.7351934,137.7828085
446,一般媒介,売地,浜松市中央区下石田町1583-1,660,浜松市中央区下石田町1583-1,所有権,60,-,7,2,312,2025/4/29,-,-,現況渡し,しずなび(株)　浜松東店,053-467-6700,34.73507,137.783419
447,媒介,売地,浜松市中央区下石田町492-1,800,浜松市中央区下石田町492-1,所有権,60,-,9.95,2,266,2025/3/13,-,-,相談,とぴあ浜松農業協同組合不動産センター有玉店,053-476-3152,34.7554487,137.7893365
133,媒介,売地,浜松市中央区下石田町492-1,801,バス停 浜松インター 停歩12分,所有権,60,-,9.95,200,266,2025/6/5,-,-,相談,とぴあ浜松農業協同組合不動産センター有玉店,053-476-3152,34.7388826,137.7847223
658,専任媒介,売地,浜松市中央区中島１丁目,480,浜松市中央区中島１丁目,所有権,80,-,28.87,2,55,2025/5/2,-,-,相談,あららぎ不動産(株),053-464-5557,34.7047384,137.7458804
659,一般媒介,売地,浜松市中央区中島１丁目,750,浜松市中央区中島１丁目,所有権,80,-,35.72,2,69,2025/3/23,-,-,更地渡し,西村建設(株),0533-66-3221,34.7047384,137.7458804
660,一般媒介,売地,浜松市中央区中島２丁目,1400,浜松市中央区中島２丁目,所有権,60,用途地域,22.25,2,208,2025/4/21,-,-,更地渡し,あららぎ不動産(株),053-464-5557,34.7018492,137.747113
663,媒介,売地,浜松市中央区中島２丁目1-2,2220,浜松市中央区中島２丁目1-2,所有権,60,-,38.95,2,188,2025/5/2,-,-,更地渡し,アスティア,053-543-9988,34.7032901,137.7453494
662,★売主,売地,浜松市中央区中島２丁目12-12,1755,浜松市中央区中島２丁目12-12,所有権,60,-,39.08,2,148,2025/3/16,-,-,更地渡し,(株)スズキビジネス,053-451-3900,34.7001652,137.7476603
661,一般媒介,売地,浜松市中央区中島２丁目928-2,1400,浜松市中央区中島２丁目928-2,所有権,60,-,22.25,2,208,2025/4/11,-,-,更地渡し,しずなび(株)　浜松東店,053-467-6700,34.7018492,137.747113
160,一般媒介,売地,浜松市中央区中島３丁目23-6,2300,ＪＲ東海道新幹線 浜松 徒歩1199分,所有権,60,１種住居,3.84,200,225,2025/5/21,-,-,更地渡し,西村建設(株),0533-66-3221,34.6990795,137.7488273
162,★媒介,売地,浜松市中央区中島４丁目23-8,2964,バス停 領家西 停歩2分,所有権,60,１種住居,3,200,297,2025/5/22,-,-,相談,(株)プラス,053-478-5511,34.6952792,137.7495492
161,専任媒介,売地,浜松市中央区中島４丁目２０１,1118,東海道本線 浜松 徒歩1199分,所有権,70,１種住居,3.01,200,112,2025/5/22,-,-,現況渡し,遠州鉄道(株)　事業用不動産流通グループ,053-488-8811,34.6965755,137.7474212
159,★売主,売地,浜松市中央区中沢町364番70,840,バス停 常楽寺 停歩4分,所有権,60,２種中高,25.26,200,110,2025/5/19,-,-,建築条件付,浜松太陽住宅(株),053-437-6030,34.7203681,137.7304748
182,専属専任,売地,浜松市中央区中沢町40-8,2781,遠州鉄道 八幡 徒歩16 分,所有権,60,2種中高,31.48,200,292,2025/6/19,-,-,現況渡し,田舎暮らしNavi（株）,0794-43-5258,34.7216616,137.7268744
657,-,売地,浜松市中央区中沢町68‐16,3234,浜松市中央区中沢町68‐16,所有権,80,商業地域,42.02,2,254,2025/4/14,-,-,現況渡し,都市開発(株),053-488-6868,34.7211933,137.7323207
656,専任媒介,売地,浜松市中央区中沢町76-23,990,浜松市中央区中沢町76-23,所有権,80,-,15.2,2,215,2025/5/3,-,-,現況渡し,しずなび(株)　藤枝店,054-639-9816,34.721954,137.7319214
183,専任,売地,浜松市中央区中田島町,1201,停歩1分,所有権,60,無指定,11.92,200,333,2025/6/17,-,-,更地渡し,(株)マストレ,053-448-5656,34.6647823,137.7415664
673,専任媒介,売地,浜松市中央区中田島町,1200,浜松市中央区中田島町,所有権,60,-,11.92,2,333,2025/5/1,-,-,更地渡し,(株)マストレ,053-448-5656,34.6647823,137.7415664
672,専任媒介,売地,浜松市中央区中田島町,1000,浜松市中央区中田島町,所有権,60,-,13.23,2,250,2025/4/4,-,-,現況渡し,とぴあ浜松農業協同組合不動産センター有玉店,053-476-3152,34.6647823,137.7415664
674,一般媒介,売地,浜松市中央区中田島町6-1,1689,浜松市中央区中田島町6-1,所有権,60,-,7,2,798,2025/5/1,-,-,現況渡し,ＳＭＤ不動産(株),053-401-4235,34.6647823,137.7415664
164,媒介,売地,浜松市中央区中田島町820,229,バス停 新崎裏 停歩7分,所有権,-,無指定,1.01,,756,2025/5/22,-,-,相談,(株)プラス,053-478-5511,34.6647823,137.7415664
165,媒介,売地,浜松市中央区中田島町851,261,バス停 新崎裏 停歩9分,所有権,-,無指定,1,,863,2025/5/22,-,-,相談,(株)プラス,053-478-5511,34.6647823,137.7415664
166,媒介,売地,浜松市中央区中田島町854,743,バス停 新崎裏 停歩9分,所有権,-,無指定,1.01,,2456,2025/5/22,-,-,相談,(株)プラス,053-478-5511,34.6647823,137.7415664
163,媒介,売地,浜松市中央区中田島町868-1,60,バス停 新崎裏 停歩9分,所有権,-,無指定,1,,199,2025/5/22,-,-,相談,(株)プラス,053-478-5511,34.6647823,137.7415664
670,一般媒介,売地,浜松市中央区中田島町１３８９,600,浜松市中央区中田島町１３８９,所有権,60,用途地域,7.94,2,250,2025/5/1,-,-,現況渡し,サーラ不動産(株)　浜松仲介チーム,053-464-6105,34.6647823,137.7415664
676,一般媒介,売地,浜松市中央区中田町,2150,浜松市中央区中田町,所有権,60,-,7.95,2,895,2025/5/7,-,-,現況渡し,浜松損害保険サービス(株),053-459-4180,34.7364528,137.7575916
184,一般,売地,浜松市中央区中田町,2152,遠州鉄道 自動車学校前 徒歩20 分,所有権,60,無指定,7.95,200,895,2025/6/7,-,-,現況渡し,浜松損害保険サービス(株),053-459-4180,34.7364528,137.7575916
185,一般,売地,浜松市中央区中田町288-1,4410,遠州鉄道 上島 徒歩17分,所有権,60,-,10,200,1458,2025/6/16,-,-,現況渡し,釜慶鉄工株式会社,053-421-0571,34.7364528,137.7575916
675,一般媒介,売地,浜松市中央区中田町364-1,580,浜松市中央区中田町364-1,所有権,60,-,9.99,2,192,2025/3/24,-,-,現況渡し,(有)オカベ,053-545-7062,34.7364528,137.7575916
181,一般,売地,浜松市中央区中郡町,1151,遠州鉄道 遠州西ヶ崎 徒歩13分,所有権,60,無指定,7.61,200,500,2025/6/5,-,-,現況渡し,(株)マストレ　高林支店,053-472-5656,34.772575,137.7810219
644,一般媒介,売地,浜松市中央区中郡町,780,浜松市中央区中郡町,所有権,60,-,9.05,2,285,2025/4/28,-,-,現況渡し,(株)マストレ,053-448-5656,34.772575,137.7810219
650,一般媒介,売地,浜松市中央区中郡町,1150,浜松市中央区中郡町,所有権,60,用途地域,7.61,2,500,2025/5/5,-,-,現況渡し,(株)マストレ　高林支店,053-472-5656,34.772575,137.7810219
646,一般媒介,売地,浜松市中央区中郡町,847,浜松市中央区中郡町,所有権,60,-,10.01,2,280,2025/5/4,-,-,更地渡し,(株)マストレ　高林支店,053-472-5656,34.772575,137.7810219
155,専任媒介,売地,浜松市中央区中郡町1213-1,340,遠州鉄道 遠州西ヶ崎 徒歩1122分,所有権,60,無指定,3.17,200,355,2025/5/19,-,-,現況渡し,アイエス宅建,053-434-6810,34.772575,137.7810219
640,専任媒介,売地,浜松市中央区中郡町1396-1の一部,724,浜松市中央区中郡町1396-1の一部,所有権,60,用途地域,8,2,299,2025/4/22,-,-,現況渡し,アイエス宅建,053-434-6810,34.772575,137.7810219
630,媒介,売地,浜松市中央区中郡町1423-1,390,浜松市中央区中郡町1423-1,所有権,60,用途地域,2.72,2,474,2025/2/18,-,-,現況渡し,(株)エステート・パートナー,053-443-8856,34.772575,137.7810219
633,一般媒介,売地,浜松市中央区中郡町1495番3の一部,462,浜松市中央区中郡町1495番3の一部,所有権,60,-,7.5,2,204,2025/4/28,-,-,現況渡し,アイエス宅建,053-434-6810,34.7733024,137.7808634
639,一般媒介,売地,浜松市中央区中郡町1699番,680,浜松市中央区中郡町1699番,所有権,60,-,3.32,2,678,2025/3/4,-,-,現況渡し,浜日商事(株),053-545-5488,34.772575,137.7810219
179,専任,売地,浜松市中央区中郡町1921-1 の一部,750,遠州鉄道 遠州西ヶ崎 徒歩18 分,所有権,60,-,5.45,200,455,2025/6/1,-,-,相談,(株)ｉｎｓｔ．,053-555-1321,34.772575,137.7810219
180,専任,売地,浜松市中央区中郡町1921-1 の一部、1921-2,750,遠州鉄道 遠州西ヶ崎 徒歩18 分,所有権,60,-,4.6,200,539,2025/6/1,-,-,相談,アースデイ不動産,053-441-2103,34.772575,137.7810219
641,-,売地,浜松市中央区中郡町1921-1　の一部,750,浜松市中央区中郡町1921-1　の一部,所有権,60,-,5.45,2,455,2025/3/8,-,-,相談,(株)ｉｎｓｔ．,053-555-1321,34.772575,137.7810219
642,-,売地,浜松市中央区中郡町1921-1　の一部、1921-2,750,浜松市中央区中郡町1921-1　の一部、1921-2,所有権,60,-,4.6,2,539,2025/3/8,-,-,相談,(株)ｉｎｓｔ．,053-555-1321,34.772575,137.7810219
631,専任媒介,売地,浜松市中央区中郡町1945の一部,407,浜松市中央区中郡町1945の一部,所有権,60,-,5,2,269,2025/4/22,-,-,現況渡し,アイエス宅建,053-434-6810,34.772575,137.7810219
651,一般媒介,売地,浜松市中央区中郡町1991-3,1250,浜松市中央区中郡町1991-3,所有権,60,-,11.02,2,375,2025/4/28,-,-,現況渡し,とぴあ浜松農業協同組合不動産センター有玉店,053-476-3152,34.7692382,137.7796134
158,媒介,売地,浜松市中央区中郡町273番内、276番内,857,遠州鉄道 遠州西ヶ崎 徒歩1155分,所有権,60,-,7.5,200,378,2025/5/22,-,-,現況渡し,とぴあ浜松農業協同組合不動産センター有玉店,053-476-3152,34.772575,137.7810219
648,★売主,売地,浜松市中央区中郡町31-3,865,浜松市中央区中郡町31-3,所有権,60,-,5.82,2,491,2025/5/2,-,-,現況渡し,(有)ステップワーク,053-420-0666,34.772575,137.7810219
635,専任媒介,売地,浜松市中央区中郡町38番の一部,576,浜松市中央区中郡町38番の一部,所有権,60,-,6.62,2,288,2025/3/24,-,-,現況渡し,アイエス宅建,053-434-6810,34.772575,137.7810219
178,専任,売地,浜松市中央区中郡町38番の一部,577,遠州鉄道 遠州西ヶ崎 徒歩15分,所有権,60,無指定,6.62,200,288,2025/6/5,-,-,現況渡し,アイエス宅建,053-434-6810,34.772575,137.7810219
156,媒介,売地,浜松市中央区中郡町１４９５番３内（北側）,492,遠州鉄道 遠州西ヶ崎 徒歩1100分,所有権,60,-,8,200,203,2025/5/22,-,-,相談,とぴあ浜松農業協同組合不動産センター有玉店,053-476-3152,34.7733024,137.7808634
157,媒介,売地,浜松市中央区中郡町１９３０,583,バス停 大島町 停歩9分,所有権,60,-,8,200,241,2025/5/22,-,-,現況渡し,とぴあ浜松農業協同組合不動産センター有玉店,053-476-3152,34.772575,137.7810219
652,媒介,売地,浜松市中央区中里町1014番1,777,浜松市中央区中里町1014番1,所有権,60,-,10,2,257,2025/5/1,-,-,現況渡し,とぴあ浜松農業協同組合不動産センター有玉店,053-476-3152,34.7372952,137.797059
654,一般媒介,売地,浜松市中央区中里町721,1125,浜松市中央区中里町721,所有権,60,-,10,2,372,2025/5/1,-,-,現況渡し,ＳＭＤ不動産(株),053-401-4235,34.7372952,137.797059
653,専任媒介,売地,浜松市中央区中里町９５４－１,860,浜松市中央区中里町９５４－１,所有権,60,-,9.81,2,290,2025/4/25,-,-,現況渡し,遠州鉄道(株)　浜北店,053-581-1124,34.7372952,137.797059
188,専任,売地,"浜松市中央区中野町191-3,191-5",1501,停歩5分,所有権,60,準工業,16.45,200,302,2025/6/2,-,-,現況渡し,(株)東洋エージェンシー,053-421-0700,34.7375483,137.8056964
187,一般,売地,浜松市中央区中野町3054番1,600,-,所有権,60,無指定,5.82,200,341,2025/6/1,-,-,現況渡し,センチュリー21中央不動産浜松店,053-584-0021,34.7390533,137.8013408
15,一般媒介,売地,浜松市中央区伊左地町,5000,バス停 浜松西警察署前 停歩9分,所有権,60,無指定,6.1,200,2707,2025/5/20,-,-,相談,ニイノプラン,053-485-7700,34.7456974,137.6654485
17,一般,売地,浜松市中央区伊左地町,5003,バス停 浜松西警察署前 停歩9分,所有権,60,無指定,6.11,200,2707,2025/6/18,-,-,相談,ニイノプラン,053-485-7700,34.7456974,137.6654485
18,媒介,売地,浜松市中央区伊左地町2818-1，2820-1，2821-1,5660,バス停 遠鉄バス 前平停留所 停歩8分,所有権,60,無指定,4.47,200,4186,2025/6/24,-,-,相談,川井建設(株),053-461-9491,34.7456974,137.6654485
12,媒介,売地,浜松市中央区伊左地町5223番1,1425,バス停 ＪＡ伊佐見支店 停歩4分,所有権,60,-,6.75,200,698,2025/5/22,-,-,更地渡し,とぴあ浜松農業協同組合不動産センター有玉店,053-476-3152,34.7453417,137.6581408
19,媒介,売地,浜松市中央区伊左地町7964他,11825,-,所有権,60,無指定,8.5,200,4599,2025/6/3,-,-,相談,釜慶鉄工株式会社,053-421-0571,34.7456974,137.6654485
16,媒介,売地,浜松市中央区伊左地町8422、8423,4761,停歩8分,所有権,60,-,10,200,1574,2025/6/23,-,-,現況渡し,クリエイトジャパン浜松西,053-447-7941,34.7456974,137.6654485
68,媒介,売地,浜松市中央区伊左地町8858・8860,465,浜松市中央区伊左地町8858・8860,所有権,60,-,2.99,2,515,2025/4/27,-,-,相談,(有)ほんま不動産,053-461-3345,34.7456974,137.6654485
13,専属専任,売地,浜松市中央区伊左地町２４４９－１,3500,バス停 前平バス 停歩3分,所有権,60,-,3.7,200,3076,2025/5/21,-,-,現況渡し,(有)住まいる不動産,053-437-2490,34.7430822,137.6767975
481,専任媒介,売地,浜松市中央区住吉２丁目２３,2800,浜松市中央区住吉２丁目２３,所有権,60,-,39.94,2,232,2025/5/1,-,-,更地渡し,遠州鉄道(株)　広沢プラザ,053-456-0055,34.7325412,137.7260081
487,一般媒介,売地,浜松市中央区住吉３丁目,3295,浜松市中央区住吉３丁目,所有権,80,-,44.99,2,242,2025/4/11,-,-,更地渡し,マストレ企画営業所,053-401-3456,34.7344987,137.7249299
485,専任媒介,売地,浜松市中央区住吉３丁目,3000,浜松市中央区住吉３丁目,所有権,80,-,41.34,2,240,2025/5/7,-,-,更地渡し,浜松損害保険サービス(株),053-459-4180,34.7344987,137.7249299
144,専任,売地,浜松市中央区住吉３丁目,3568,停歩2分,所有権,80,近隣商業,40,300,295,2025/6/13,-,-,現況渡し,(株)マストレ　高林支店,053-472-5656,34.7344987,137.7249299
484,一般媒介,売地,浜松市中央区住吉３丁目,1850,浜松市中央区住吉３丁目,所有権,80,-,34.88,2,175,2025/5/2,-,-,現況渡し,(株)マストレ東営業所,053-462-5656,34.7344987,137.7249299
482,専任媒介,売地,浜松市中央区住吉３丁目1-1,1000,浜松市中央区住吉３丁目1-1,所有権,70,-,42.36,2,78,2025/4/23,-,-,更地渡し,ユウナンエイト(株),053-401-9723,34.7329912,137.7260713
483,★売主,売地,浜松市中央区住吉３丁目145-207,1850,浜松市中央区住吉３丁目145-207,所有権,80,-,34.88,2,175,2025/5/7,-,-,現況渡し,(株)新栄,0538-85-4690,34.7344987,137.7249299
128,一般媒介,売地,浜松市中央区住吉３丁目155-8,3295,東海道本線 浜松,,,,,,,,,,,,,,
129,媒介,売地,浜松市中央区住吉３丁目155番8,3296,バス停 城北工高 停歩5分,所有権,80,近隣商業,45.01,300,242,2025/5/22,-,-,相談,(株)プラス,053-478-5511,34.7344987,137.7249299
488,媒介,売地,浜松市中央区住吉３丁目１５５－８,3296,浜松市中央区住吉３丁目１５５－８,所有権,80,-,45,2,242,2025/4/23,-,-,現況渡し,アルファ,053-584-5388,34.7344987,137.7249299
492,専任媒介,売地,浜松市中央区住吉４丁目932-19,2630,浜松市中央区住吉４丁目932-19,所有権,60,-,40.91,2,213,2025/5/2,-,-,更地渡し,(株)ＩＭＡＥＤＡ,053-450-5678,34.7309106,137.7298587
493,専任媒介,売地,浜松市中央区住吉５丁目186-3,1872,浜松市中央区住吉５丁目186-3,所有権,40,-,43,2,144,2025/4/27,-,-,更地渡し,(株)美建コーポレーション,053-473-1208,34.7352414,137.7280104
122,専属専任,売地,浜松市中央区佐藤３丁目105,4460,停歩4分,所有権,60,1種住居,46.31,200,318,2025/6/18,-,-,相談,(株)オフィスＳＡＮＯ,053-522-8320,34.7136614,137.7508111
98,★媒介,売地,浜松市中央区佐藤３丁目8-9,760,東海道本線 浜松 徒歩2255分,所有権,60,１種低層,17.56,200,143,2025/5/20,-,-,更地渡し,(株)セイエイ,0538-66-2838,34.7119684,137.7508988
100,媒介,売地,浜松市中央区佐鳴台１丁目1774,2547,バス停 佐鳴台坂下 停歩2分,所有権,60,１種住居,39.9,200,211,2025/5/22,-,-,現況渡し,(株)プラス,053-478-5511,34.7040632,137.7015245
101,専任媒介,売地,浜松市中央区佐鳴台２丁目30-15,11000,東海道本線 高塚 徒歩3311分,所有権,60,１種住居,50.27,200,723,2025/5/19,-,-,現況渡し,(株)川嶋,053-437-3731,34.7046072,137.6925967
401,専任媒介,売地,浜松市中央区佐鳴台２丁目31-16,12000,浜松市中央区佐鳴台２丁目31-16,所有権,60,-,50.86,2,780,2025/2/18,-,-,現況渡し,(株)川嶋,053-437-3731,34.7042667,137.692504
399,専任媒介,売地,浜松市中央区佐鳴台２丁目１２９番２,2800,浜松市中央区佐鳴台２丁目１２９番２,所有権,60,-,38.25,2,242,2025/4/11,-,-,現況渡し,遠州鉄道(株)　浜北店,053-581-1124,34.7031905,137.6941355
103,一般媒介,売地,浜松市中央区佐鳴台５丁目,4680,東海道本線 浜松 徒歩5544分,,,,,,,,,,,,,,
403,一般媒介,売地,浜松市中央区佐鳴台５丁目,3890,浜松市中央区佐鳴台５丁目,所有権,30,-,37.61,2,342,2025/3/24,-,-,更地渡し,しずなび(株)　浜松駅南店,053-453-3731,34.7127243,137.6978299
102,売主,売地,浜松市中央区佐鳴台５丁目122-21,2500,バス停 蜆塚遺跡西 停歩3分,所有権,40,１種中高,36.26,200,228,2025/5/16,-,-,更地渡し,(株)エステート・パートナー,053-443-8856,34.7127243,137.6978299
104,★売主,売地,浜松市中央区佐鳴台６丁目110－18他,2600,ＪＲ東海道新幹線 浜松,,,,,,,,,,,,,,
331,媒介,売地,浜松市中央区倉松町234番Ａ,700,浜松市中央区倉松町234番Ａ,所有権,60,-,6.42,2,361,2025/4/4,-,-,現況渡し,とぴあ浜松農業協同組合不動産センター有玉店,053-476-3152,34.6756762,137.6922884
330,媒介,売地,浜松市中央区倉松町９１８番１、９１９番１,644,浜松市中央区倉松町９１８番１、９１９番１,所有権,60,用途地域,5,2,426,2025/5/8,-,-,現況渡し,とぴあ浜松農業協同組合不動産センター有玉店,053-476-3152,34.6765846,137.6942433
944,専任媒介,売地,浜松市中央区元浜町,250,浜松市中央区元浜町,所有権,80,商業地域,14.35,2,58,2025/4/10,-,-,現況渡し,あららぎ不動産(株),053-464-5557,34.7148987,137.7323233
945,専任媒介,売地,浜松市中央区元浜町２５８－１、２５８－４,1850,浜松市中央区元浜町２５８－１、２５８－４,所有権,80,商業地域,35.24,2,174,2025/4/28,-,-,現況渡し,遠州鉄道(株)　浜北店,053-581-1124,34.7162236,137.7331251
336,一般媒介,売地,浜松市中央区元目町128-25,1500,浜松市中央区元目町128-25,所有権,80,商業地域,48.27,2,103,2025/3/3,-,-,現況渡し,(有)カミヤプランニングオフィス,053-453-5564,34.7130492,137.7305037
87,一般媒介,売地,浜松市中央区元目町１２８－２５,1490,遠州鉄道 遠州病院 徒歩66分,所有権,80,商業地域,47.95,500,103,2025/5/18,-,-,更地渡し,アライブ企画営業部,053-476-7112,34.7130492,137.7305037
26,一般,売地,浜松市中央区入野町,2983,東海道本線 高塚 徒歩16 分,所有権,60,無指定,5.35,200,1843,2025/6/7,-,-,現況渡し,浜松損害保険サービス(株),053-459-4180,34.698039,137.6792657
27,専任,売地,浜松市中央区入野町,6994,停歩8分,所有権,40,1種中高,40,200,578,2025/6/8,-,-,現況渡し,(株)マストレ,053-448-5656,34.698039,137.6792657
109,専任媒介,売地,浜松市中央区入野町,6993,浜松市中央区入野町,所有権,40,-,40,2,578,2025/5/8,-,-,現況渡し,(株)マストレ,053-448-5656,34.698039,137.6792657
97,一般媒介,売地,浜松市中央区入野町,800,浜松市中央区入野町,所有権,60,工業地域,27.27,2,97,2025/4/15,-,-,更地渡し,常盤工業(株),053-461-9144,34.698039,137.6792657
102,専任媒介,売地,浜松市中央区入野町10181-4,1450,浜松市中央区入野町10181-4,所有権,60,-,30.17,2,159,2025/4/10,-,-,現況渡し,ユウナンエイト(株),053-401-9723,34.6979598,137.6693048
101,★売主,売地,浜松市中央区入野町16285番1,1280,浜松市中央区入野町16285番1,所有権,60,-,32.66,2,130,2025/2/18,-,-,建築条件付,(株)スズイチ,053-448-1155,34.7007735,137.6753501
105,★売主,売地,浜松市中央区入野町16412-29,1760,浜松市中央区入野町16412-29,所有権,60,-,32.1,2,181,2025/3/27,-,-,建築条件付,(株)スズイチ,053-448-1155,34.7032553,137.6756404
107,専任媒介,売地,浜松市中央区入野町16425-7,2780,浜松市中央区入野町16425-7,所有権,60,-,40.13,2,229,2025/5/1,-,-,更地渡し,(株)マルショウ企画,053-447-1115,34.7054527,137.6770859
99,専任媒介,売地,浜松市中央区入野町307-1,980,浜松市中央区入野町307-1,所有権,60,-,6.41,2,506,2025/4/1,-,-,更地渡し,(株)マルショウ企画,053-447-1115,34.6959068,137.6850257
25,専任,売地,浜松市中央区入野町307-1,981,東海道本線 高塚 徒歩14 分,所有権,60,-,6.41,200,506,2025/6/9,-,-,更地渡し,(株)マルショウ企画,053-447-1115,34.6959068,137.6850257
106,★売主,売地,浜松市中央区入野町6375-1 付近,1798,浜松市中央区入野町6375-1 付近,所有権,60,-,42.25,2,141,2025/4/28,-,-,建築条件付,(株)ベスト・ハウジング,053-474-6252,34.7001783,137.6873451
98,専任媒介,売地,浜松市中央区入野町字彦尾前913番1,878,浜松市中央区入野町字彦尾前913番1,所有権,60,-,3.01,2,968,2025/4/28,-,-,現況渡し,(株)ヤマセ不動産,053-474-2188,34.7002449,137.6913677
100,専任媒介,売地,浜松市中央区入野町１０８２３－２,1080,浜松市中央区入野町１０８２３－２,所有権,60,用途地域,13.53,2,264,2025/2/20,-,-,更地渡し,(株)マルショウ企画,053-447-1115,34.6959373,137.6743942
104,専任媒介,売地,浜松市中央区入野町１６４４７－３,1650,浜松市中央区入野町１６４４７－３,所有権,60,-,27.82,2,196,2025/2/20,-,-,現況渡し,(株)マルショウ企画,053-447-1115,34.7043809,137.6770265
225,一般,売地,浜松市中央区初生町,2251,停歩8分,所有権,60,無指定,22.81,200,326,2025/6/2,-,-,現況渡し,(株)マストレ,053-448-5656,34.7676897,137.7267782
226,一般,売地,浜松市中央区初生町,3301,-,所有権,60,無指定,22.81,200,478,2025/6/5,-,-,更地渡し,(株)ＡＦＣスマイルプラス　Ｓｍｉｆｅ浜松西支店,053-449-7111,34.7676897,137.7267782
771,一般媒介,売地,浜松市中央区初生町,3300,浜松市中央区初生町,所有権,60,-,22.81,2,478,2025/5/5,-,-,更地渡し,(株)ＡＦＣスマイルプラス　Ｓｍｉｆｅ浜松西支店,053-449-7111,34.7676897,137.7267782
192,一般媒介,売地,浜松市中央区初生町,2250,遠州鉄道 さぎの宮 徒歩3355分,,,,,,,,,,,,,,
221,売主,売地,浜松市中央区初生町1030-15 付近,1399,バス停 遠鉄バス「初生小学校」停 停歩1分,所有権,60,無指定,15.94,200,290,2025/6/17,-,-,建築条件付,(株)ベスト・ハウジング,053-474-6252,34.7699906,137.7296458
765,-,売地,浜松市中央区初生町1340-11,1600,浜松市中央区初生町1340-11,所有権,60,-,21.33,2,248,2025/4/20,-,-,更地渡し,しずなび(株)　浜松駅南店,053-453-3731,34.7696076,137.7138554
770,媒介,売地,浜松市中央区初生町265-1,2250,浜松市中央区初生町265-1,所有権,-,用途地域,34.68,2,214,2025/2/28,-,-,相談,アイエス宅建,053-434-6810,34.7605037,137.729452
763,媒介,売地,浜松市中央区初生町276-2の一部,945,浜松市中央区初生町276-2の一部,所有権,-,-,11.62,2,269,2025/3/22,-,-,相談,(同)ワンステップ,053-424-7477,34.7607796,137.7285846
222,売主,売地,浜松市中央区初生町502-1,1851,停歩3分,所有権,60,無指定,22.8,200,268,2025/6/21,-,-,更地渡し,センチュリー21中央不動産浜松店,053-584-0021,34.7658324,137.7278809
762,★一般媒介,売地,浜松市中央区初生町557-1,150,浜松市中央区初生町557-1,所有権,-,-,14.71,2,34,2025/4/28,-,-,現況渡し,石川瓦工業(有)　不動産部,053-485-1707,34.7640144,137.724415
767,★売主,売地,浜松市中央区初生町580 付近,1798,浜松市中央区初生町580 付近,所有権,60,-,35.87,2,166,2025/4/28,-,-,建築条件付,(株)ベスト・ハウジング,053-474-6252,34.7635753,137.7228742
766,★売主,売地,浜松市中央区初生町938-12 付近,1698,浜松市中央区初生町938-12 付近,所有権,60,-,34.58,2,162,2025/4/28,-,-,建築条件付,(株)ベスト・ハウジング,053-474-6252,34.7665022,137.7253317
191,媒介,売地,浜松市中央区初生町9番1の一部,1150,バス停 （遠）萩原荘 停歩2分,所有権,60,-,10.25,200,371,2025/5/22,-,-,更地渡し,とぴあ浜松農業協同組合不動産センター有玉店,053-476-3152,34.7555484,137.7323498
227,一般,売地,浜松市中央区初生町１４０８－４,1002,バス停 北星中学入口停 停歩4分,所有権,60,無指定,23.5,200,141,2025/6/25,-,-,-,遠州鉄道(株)　高台店,053-437-1976,34.7719023,137.7163725
772,一般媒介,売地,浜松市中央区初生町１４０８－４,3400,浜松市中央区初生町１４０８－４,所有権,60,-,23.5,2,141,2025/4/24,-,-,更地渡し,遠州鉄道(株)　高台店,053-437-1976,34.7719023,137.7163725
223,一般,売地,浜松市中央区初生町１６８－７,2250,バス停 JA初生支店 停歩8分,所有権,60,無指定,22.82,200,326,2025/6/18,-,-,現況渡し,遠州鉄道(株)　高台店,053-437-1976,34.7626902,137.7343221
89,媒介,売地,浜松市中央区北島町,2176,-,所有権,60,1種住居,25,200,288,2025/6/9,-,-,現況渡し,とぴあ浜松農業協同組合不動産センター有玉店,053-476-3152,34.7310076,137.7822553
420,一般媒介,売地,浜松市中央区十軒町４６１－８,1580,浜松市中央区十軒町４６１－８,所有権,60,用途地域,27.23,2,192,2025/5/8,-,-,相談,遠州鉄道(株)　高台店,053-437-1976,34.7306829,137.7452212
791,-,売地,浜松市中央区半田山２丁目4914-123,1900,浜松市中央区半田山２丁目4914-123,所有権,60,-,24.36,2,258,2025/3/26,-,-,更地渡し,(株)ヤマセ不動産,053-474-2188,34.7681705,137.7372527
793,-,売地,浜松市中央区半田山３丁目３６２６－２９,1894,浜松市中央区半田山３丁目３６２６－２９,所有権,60,-,25.8,2,243,2025/5/9,-,-,現況渡し,遠州鉄道(株)　買取再生グループ,053-488-8807,34.7723243,137.7403339
792,一般媒介,売地,浜松市中央区半田山３丁目４８－１０,1550,浜松市中央区半田山３丁目４８－１０,所有権,60,-,25.81,2,199,2025/5/4,-,-,更地渡し,サーラ不動産(株)　浜松仲介チーム,053-464-6105,34.7717756,137.73794
234,専任,売地,浜松市中央区半田山６丁目2178-5,2380,停歩10分,所有権,60,1種中高,27.61,200,285,2025/6/10,-,-,更地渡し,釜慶鉄工株式会社,053-421-0571,34.7797794,137.7424908
788,一般媒介,売地,浜松市中央区半田町,1970,浜松市中央区半田町,所有権,60,-,30,2,217,2025/3/24,-,-,更地渡し,アイエス宅建,053-434-6810,34.7719733,137.7501948
786,専任媒介,売地,浜松市中央区半田町,635,浜松市中央区半田町,所有権,60,-,9.05,2,232,2025/4/15,-,-,現況渡し,大瀬栩木不動産,053-489-6051,34.7719733,137.7501948
198,一般媒介,売地,浜松市中央区半田町1-6,1970,遠州鉄道 積志 徒歩2200分,所有権,60,-,30,200,217,2025/5/22,-,-,更地渡し,(株)プラス,053-478-5511,34.776231,137.7553609
233,専任,売地,浜松市中央区半田町1719-2,550,遠州鉄道 さぎの宮 徒歩2分,所有権,60,-,5.51,200,330,2025/6/24,-,-,相談,ゼロ(株),053-482-8777,34.7719733,137.7501948
785,専任媒介,売地,浜松市中央区半田町1719-2,620,浜松市中央区半田町1719-2,所有権,60,-,6.22,2,330,2025/3/14,-,-,相談,ゼロ(株),053-482-8777,34.7719733,137.7501948
790,専任媒介,売地,浜松市中央区半田町１５０２,3000,浜松市中央区半田町１５０２,所有権,60,用途地域,24.44,2,406,2025/4/12,-,-,更地渡し,遠州鉄道(株)　浜北店,053-581-1124,34.7671839,137.7485001
787,専任媒介,売地,浜松市中央区半田町１５０２,1500,浜松市中央区半田町１５０２,所有権,60,-,24.48,2,203,2025/4/12,-,-,更地渡し,遠州鉄道(株)　浜北店,053-581-1124,34.7671839,137.7485001
230,一般,売地,浜松市中央区原島町,3050,停歩5分,所有権,70,工業地域,35,200,288,2025/6/24,-,-,-,(株)マストレ,053-448-5656,34.7303183,137.769922
783,一般媒介,売地,浜松市中央区原島町,2712,浜松市中央区原島町,所有権,70,工業地域,35,2,288,2025/4/23,-,-,現況渡し,(株)マストレ　高林支店,053-472-5656,34.7303183,137.769922
780,一般媒介,売地,浜松市中央区原島町,1250,浜松市中央区原島町,所有権,60,工業地域,27.82,2,64,2025/4/14,-,-,更地渡し,(株)マストレ東営業所,053-462-5656,34.7303183,137.769922
781,★売主,売地,浜松市中央区原島町18-2 付近,1598,浜松市中央区原島町18-2 付近,所有権,70,-,31.96,2,165,2025/4/28,-,-,建築条件付,(株)ベスト・ハウジング,053-474-6252,34.7281154,137.771741
232,一般,売地,浜松市中央区原島町456-2,8001,-,所有権,60,工業地域,39.95,200,662,2025/6/18,-,-,更地渡し,(株)丸八アセットマネージメント　売買資産活用部 053-450-8008,053-450-8008,34.7295654,137.7672058
782,一般媒介,売地,浜松市中央区原島町59-1,2200,浜松市中央区原島町59-1,所有権,60,-,19.99,2,364,2025/4/21,-,-,相談,(株)ライフナビ,053-458-5000,34.7303183,137.769922
197,専任媒介,売地,浜松市中央区原島町４５６－２,8000,バス停 浜松自動車学校 停歩1分,所有権,60,工業地域,39.95,200,662,2025/5/21,-,-,更地渡し,アライブ企画営業部,053-476-7112,34.7295654,137.7672058
231,一般,売地,浜松市中央区原島町４５６－２,8001,バス停 浜松自動車学校 停歩1分,所有権,60,工業地域,39.95,200,662,2025/6/21,-,-,更地渡し,アライブ企画営業部,053-476-7112,34.7295654,137.7672058
406,専任媒介,売地,浜松市中央区参野町,890,浜松市中央区参野町,所有権,70,-,24,2,123,2025/4/29,-,-,更地渡し,あららぎ不動産(株),053-464-5557,34.6923863,137.7569752
407,一般媒介,売地,浜松市中央区参野町156-2,1598,浜松市中央区参野町156-2,所有権,60,-,25.53,2,207,2025/3/29,-,-,現況渡し,ＳＭＤ不動産(株),053-401-4235,34.6944935,137.7556364
105,★一般媒介,売地,浜松市中央区参野町334,2760,バス停 芳川西 停歩5分,所有権,60,１種住居,2.93,200,398,2025/5/16,-,-,相談,ユタカ土地,053-425-5771,34.6923863,137.7569752
123,一般,売地,浜松市中央区参野町334,2761,バス停 芳川西 停歩5分,所有権,60,1種住居,22.93,200,398,2025/6/11,-,-,相談,ユタカ土地,053-425-5771,34.6923863,137.7569752
366,一般媒介,売地,浜松市中央区古人見町,1190,浜松市中央区古人見町,所有権,60,-,14.67,2,268,2025/5/9,-,-,更地渡し,(株)マストレ　高林支店,053-472-5656,34.7256898,137.6282957
113,一般,売地,浜松市中央区古人見町,1191,停歩5分,所有権,60,無指定,14.67,200,268,2025/6/9,-,-,更地渡し,(株)マストレ　高林支店,053-472-5656,34.7256898,137.6282957
368,一般媒介,売地,浜松市中央区古人見町,1380,浜松市中央区古人見町,所有権,60,-,19.87,2,230,2025/5/8,-,-,更地渡し,(株)マストレ　高林支店,053-472-5656,34.7256898,137.6282957
364,一般媒介,売地,浜松市中央区古人見町,670,浜松市中央区古人見町,所有権,60,-,5,2,444,2025/5/1,-,-,更地渡し,(株)マストレ,053-448-5656,34.7256898,137.6282957
367,専任媒介,売地,浜松市中央区古人見町,1200,浜松市中央区古人見町,所有権,60,-,17.21,2,231,2025/4/14,-,-,更地渡し,(株)マストレ東営業所,053-462-5656,34.7256898,137.6282957
369,一般媒介,売地,浜松市中央区古人見町1538-39,1680,浜松市中央区古人見町1538-39,所有権,60,-,24.15,2,230,2025/3/21,-,-,更地渡し,(株)マエフジ不動産,053-472-3341,34.7313702,137.6442994
365,一般媒介,売地,浜松市中央区古人見町1570-12,680,浜松市中央区古人見町1570-12,所有権,60,-,3.64,2,619,2025/5/1,-,-,現況渡し,(株)Ｐａｄｄｌｅ,053-482-7733,34.731336,137.6417391
215,媒介,売地,浜松市中央区古川町,1076,バス停 古川 停歩3分,所有権,60,無指定,8,200,445,2025/5/22,-,-,現況渡し,(株)山崎不動産,053-463-8713,34.6892956,137.7791717
250,媒介,売地,浜松市中央区古川町,1077,バス停 古川 停歩3分,所有権,60,無指定,8,200,445,2025/6/19,-,-,現況渡し,(株)山崎不動産,053-463-8713,34.6892956,137.7791717
249,媒介,売地,浜松市中央区古川町,1020,バス停 古川 停歩2分,所有権,60,無指定,10.01,200,337,2025/6/19,-,-,更地渡し,(株)山崎不動産,053-463-8713,34.6892956,137.7791717
213,一般媒介,売地,浜松市中央区古川町119-3,900,バス停 古川 距離50m,所有権,60,-,8.83,200,337,2025/5/19,-,-,更地渡し,とぴあ浜松農業協同組合不動産センター有玉店,053-476-3152,34.6884734,137.7719053
248,媒介,売地,浜松市中央区古川町22-1,641,バス停 古川 停歩3分,所有権,60,無指定,7.51,200,282,2025/6/19,-,-,相談,(株)山崎不動産,053-463-8713,34.6879422,137.7703941
212,媒介,売地,浜松市中央区古川町22-1,640,バス停 古川 停歩3分,所有権,60,無指定,7.51,200,282,2025/5/22,-,-,相談,(株)山崎不動産,053-463-8713,34.6879422,137.7703941
216,媒介,売地,浜松市中央区古川町22-2,1560,バス停 古川 停歩2分,所有権,60,無指定,17.2,200,300,2025/5/22,-,-,更地渡し,(株)山崎不動産,053-463-8713,34.6879411,137.7705398
251,媒介,売地,浜松市中央区古川町22-2,1561,バス停 古川 停歩2分,所有権,60,無指定,17.2,200,300,2025/6/19,-,-,現況渡し,(株)山崎不動産,053-463-8713,34.6879411,137.7705398
210,媒介,売地,浜松市中央区古川町226-3,573,バス停 古川 停歩4分,所有権,60,無指定,8,200,237,2025/5/22,-,-,現況渡し,(株)山崎不動産,053-463-8713,34.7092218,137.7304474
247,媒介,売地,浜松市中央区古川町226-4,615,バス停 古川 停歩4分,所有権,60,無指定,8,200,254,2025/6/19,-,-,現況渡し,(株)山崎不動産,053-463-8713,34.709837,137.7304938
211,媒介,売地,浜松市中央区古川町226-4,614,バス停 古川 停歩4分,所有権,60,無指定,8,200,254,2025/5/22,-,-,現況渡し,(株)山崎不動産,053-463-8713,34.709837,137.7304938
687,専属専任,売地,浜松市中央区名塚町154-1，154-2,1900,浜松市中央区名塚町154-1，154-2,所有権,80,-,25.05,2,251,2025/4/19,-,-,現況渡し,川井建設(株),053-461-9491,34.7021665,137.755569
168,売主,売地,浜松市中央区名塚町１２９,1360,バス停 遠鉄バス　名塚西 停歩2分,所有権,60,１種住居,36.13,200,124,2025/5/21,-,-,建築条件付,なごみ住宅(株),053-415-9370,34.7019355,137.7550095
169,売主,売地,浜松市中央区名塚町１２９,1410,バス停 遠鉄バス　名塚西 停歩2分,所有権,60,１種住居,37.04,200,126,2025/5/21,-,-,建築条件付,なごみ住宅(株),053-415-9370,34.7019355,137.7550095
167,売主,売地,浜松市中央区名塚町１２９,1060,バス停 遠鉄バス　名塚西 停歩2分,所有権,60,１種住居,29.89,200,117,2025/5/21,-,-,建築条件付,なごみ住宅(株),053-415-9370,34.7019355,137.7550095
235,一般媒介,売地,浜松市中央区向宿２丁目,530,バス停 向宿 停歩1分,所有権,60,１種住居,30.64,200,57,2025/5/19,-,-,相談,あららぎ不動産(株),053-464-5557,34.7039455,137.7520439
928,★売主,売地,浜松市中央区向宿３丁目637-1、4,3395,浜松市中央区向宿３丁目637-1、4,所有権,60,-,35.01,2,321,2025/4/1,-,-,相談,(有)勝山不動産,053-464-8550,34.7020853,137.7523521
277,売主,売地,浜松市中央区向宿３丁目637-1、4,3396,徒歩21分,所有権,60,1種住居,35.01,200,321,2025/6/2,-,-,相談,(有)勝山不動産,053-464-8550,34.7020853,137.7523521
929,一般媒介,売地,浜松市中央区向宿３丁目9-3,3395,浜松市中央区向宿３丁目9-3,所有権,60,-,35.01,2,321,2025/3/11,-,-,現況渡し,(株)ライフデザインクリエイターズ,053-401-7905,34.7028642,137.7523232
276,一般,売地,浜松市中央区向宿３丁目9-3,3396,東海道本線 浜松 徒歩21分,所有権,60,1種住居,35.01,200,321,2025/6/6,-,-,現況渡し,(株)ライフデザインクリエイターズ,053-401-7905,34.7028642,137.7523232
91,一般,売地,浜松市中央区呉松町,1050,停歩2分,所有権,60,無指定,10.15,200,342,2025/6/12,-,-,更地渡し,(株)マストレ　高林支店,053-472-5656,34.7732281,137.6332155
332,一般媒介,売地,浜松市中央区呉松町2337,300,浜松市中央区呉松町2337,所有権,60,-,1.84,2,542,2025/2/25,-,-,現況渡し,(株)スズキビジネス,053-451-3900,34.7732281,137.6332155
92,一般,売地,浜松市中央区呉松町2868番1 外2筆,1932,バス停 動物園 停歩20分,所有権,60,無指定,10,200,639,2025/6/16,-,-,現況渡し,アイエス宅建,053-434-6810,34.7732281,137.6332155
334,★一般媒介,売地,浜松市中央区呉松町2868番1　外2筆,1932,浜松市中央区呉松町2868番1　外2筆,所有権,60,-,10,2,639,2025/4/3,-,-,現況渡し,アイエス宅建,053-434-6810,34.7732281,137.6332155
1038,媒介,売地,浜松市中央区和光町431-8,400,浜松市中央区和光町431-8,所有権,-,-,3.86,2,616,2025/3/15,-,-,現況渡し,ジュウソウ,053-489-9431,34.7820827,137.6792177
1030,一般媒介,売地,浜松市中央区和合北２丁目,300,浜松市中央区和合北２丁目,所有権,60,用途地域,15.01,2,66,2025/4/23,-,-,現況渡し,(株)マストレ,053-448-5656,34.7404481,137.7175376
1031,一般媒介,売地,浜松市中央区和合北２丁目192-162ほか,1350,浜松市中央区和合北２丁目192-162ほか,所有権,60,-,7.86,2,568,2025/3/23,-,-,現況渡し,西村建設(株),0533-66-3221,34.7404481,137.7175376
253,一般媒介,売地,浜松市中央区和合北３丁目2-4,1379,遠州鉄道 曳馬 徒歩5500分,,,,,,,,,,,,,,
1036,一般媒介,売地,浜松市中央区和合北４丁目,930,浜松市中央区和合北４丁目,所有権,60,-,26.08,2,118,2025/4/28,-,-,更地渡し,(株)マストレ,053-448-5656,34.7439467,137.7150738
254,媒介,売地,浜松市中央区和合北４丁目10,820,東海道本線 浜松,,,,,,,,,,,,,,
1033,一般媒介,売地,浜松市中央区和合北４丁目847-86,820,浜松市中央区和合北４丁目847-86,所有権,60,-,33.48,2,81,2025/5/7,-,-,現況渡し,(株)トレスト,053-459-0811,34.7439467,137.7150738
1034,一般媒介,売地,浜松市中央区和合北４丁目１０－３９,820,浜松市中央区和合北４丁目１０－３９,所有権,70,-,33.48,2,81,2025/5/3,-,-,現況渡し,遠州鉄道(株)　浜松店,053-471-0202,34.7440955,137.7171334
1037,専任媒介,売地,浜松市中央区和合北４丁目３１８－６２,1490,浜松市中央区和合北４丁目３１８－６２,所有権,60,-,22.66,2,217,2025/4/23,-,-,現況渡し,遠州鉄道(株)　高台店,053-437-1976,34.7439467,137.7150738
1051,専任媒介,売地,浜松市中央区和合町,4115,浜松市中央区和合町,所有権,60,-,35.01,2,389,2025/4/27,-,-,現況渡し,(株)マストレ,053-448-5656,34.7411047,137.707067
255,専任媒介,売地,浜松市中央区和合町,1283,東海道本線 浜松,,,,,,,,,,,,,,
1049,一般媒介,売地,浜松市中央区和合町,2100,浜松市中央区和合町,所有権,60,-,20.13,2,345,2025/2/16,-,-,更地渡し,(有)エステート東海,053-433-5401,34.7411047,137.707067
1048,専任媒介,売地,浜松市中央区和合町,1983,浜松市中央区和合町,所有権,60,-,35,2,187,2025/4/24,-,-,現況渡し,(株)マストレ,053-448-5656,34.7411047,137.707067
1042,一般媒介,売地,浜松市中央区和合町,1180,浜松市中央区和合町,所有権,60,-,11.23,2,347,2025/4/30,-,-,現況渡し,マストレ企画営業所,053-401-3456,34.7411047,137.707067
259,媒介,売地,浜松市中央区和合町1131-1,7500,バス停 寸田ヶ谷 停歩13分,所有権,30,１種低層,37.01,60,670,2025/5/22,-,-,相談,(株)プラス,053-478-5511,34.7325111,137.7016977
1040,専任媒介,売地,浜松市中央区和合町220-1688,1050,浜松市中央区和合町220-1688,所有権,60,用途地域,29.56,2,117,2025/3/15,-,-,更地渡し,ユウナンエイト(株),053-401-9723,34.7408737,137.7098192
256,一般媒介,売地,浜松市中央区和合町222-6,1369,バス停 馬舟 停歩8分,所有権,50,１種低層,1,80,412,2025/5/22,-,-,現況渡し,(株)プラス,053-478-5511,34.7411047,137.707067
1041,一般媒介,売地,浜松市中央区和合町5-6,1178,浜松市中央区和合町5-6,所有権,60,-,25,2,156,2025/4/25,-,-,更地渡し,(株)中部不動産,054-646-7337,34.7315832,137.715803
303,売主,売地,浜松市中央区和合町936-151他,1624,-,所有権,30,1種低層,19.77,60,272,2025/6/2,-,-,更地渡し,(株)スズキビジネス,053-451-3900,34.7392317,137.7073254
1039,専任媒介,売地,浜松市中央区和合町字西岨272番10,850,浜松市中央区和合町字西岨272番10,所有権,60,-,8.09,2,347,2025/5/8,-,-,現況渡し,(株)アモルテ,053-522-8885,34.7411047,137.707067
258,売主,売地,浜松市中央区和合町１１３７－１８他,1886,バス停 寸田ヶ谷 停歩13分,所有権,30,１種低層,19.35,60,322,2025/5/20,-,-,現況渡し,アライブ企画営業部,053-476-7112,34.7327164,137.7020676
304,売主,売地,浜松市中央区和合町１１３７－１８他,1887,バス停 寸田ヶ谷 停歩13分,所有権,30,1種低層,19.35,60,322,2025/6/20,-,-,現況渡し,アライブ企画営業部,053-476-7112,34.7327164,137.7020676
1047,-,売地,浜松市中央区和合町１１３７－１９,1957,浜松市中央区和合町１１３７－１９,所有権,30,-,19.72,2,328,2025/4/30,-,-,現況渡し,アライブ企画営業部,053-476-7112,34.7327164,137.7020676
1050,専任媒介,売地,浜松市中央区和合町２４０－１１,2300,浜松市中央区和合町２４０－１１,所有権,50,用途地域,19.98,2,381,2025/4/27,-,-,更地渡し,遠州鉄道(株)　浜松店,053-471-0202,34.7368432,137.7128496
257,★一般媒介,売地,浜松市中央区和合町３１５－１１４４,1450,バス停 和合西 停歩5分,所有権,60,１種中高,27.29,200,176,2025/5/21,-,-,更地渡し,遠州鉄道(株)　高台店,053-437-1976,34.7403515,137.7118831
1056,専任媒介,売地,浜松市中央区和地山１丁目,2200,浜松市中央区和地山１丁目,所有権,60,-,41.52,2,175,2025/4/24,-,-,更地渡し,(株)マストレ,053-448-5656,34.7272393,137.7212337
1058,専任媒介,売地,浜松市中央区和地山２丁目,1100,浜松市中央区和地山２丁目,所有権,80,用途地域,42.09,2,86,2025/4/15,-,-,更地渡し,(株)アイジーコンサルティング　アイジー不動産,053-466-6000,34.7291423,137.7196936
1057,★売主,売地,浜松市中央区和地山２丁目33番2,1100,浜松市中央区和地山２丁目33番2,所有権,60,-,43.1,2,84,2025/5/9,-,-,建築条件付,ホームポジション(株)　浜松支店,053-582-6500,34.7306102,137.7198861
305,一般,売地,浜松市中央区和地町1320,901,-,所有権,60,無指定,4.21,200,708,2025/6/14,-,-,現況渡し,ひだまり工房(株),053-596-3900,34.764386,137.6471298
260,一般媒介,売地,浜松市中央区和地町1320,900,東海道本線 浜松,,,,,,,,,,,,,,
1055,一般媒介,売地,浜松市中央区和地町776,1650,浜松市中央区和地町776,所有権,60,-,12.91,2,423,2025/2/27,-,-,更地渡し,とぴあ浜松農業協同組合不動産センター有玉店,053-476-3152,34.762164,137.6487945
131,専任,売地,浜松市中央区四本松町,600,バス停 四本松 停歩4分,所有権,60,無指定,4.05,200,490,2025/6/13,-,-,相談,あららぎ不動産(株),053-464-5557,34.6837506,137.7674557
119,媒介,売地,浜松市中央区四本松町,2150,バス停 四本松 停歩3分,所有権,-,-,7.01,,1015,2025/5/22,-,-,相談,(株)山崎不動産,053-463-8713,34.6837506,137.7674557
440,専任媒介,売地,浜松市中央区四本松町,560,浜松市中央区四本松町,所有権,60,用途地域,6.52,2,284,2025/5/8,-,-,現況渡し,あららぎ不動産(株),053-464-5557,34.6837506,137.7674557
86,媒介,売地,浜松市中央区国吉町１２０６,1194,東海道本線 天竜川 徒歩2244分,,,,,,,,,,,,,,
551,専任媒介,売地,浜松市中央区坪井町,1290,浜松市中央区坪井町,所有権,60,-,16.73,2,255,2025/3/23,-,-,更地渡し,あららぎ不動産(株),053-464-5557,34.6840832,137.6479775
162,専任,売地,浜松市中央区坪井町,1190,バス停 坪井 停歩3分,所有権,60,1種住居,15.43,200,255,2025/6/6,-,-,更地渡し,あららぎ不動産(株),053-464-5557,34.6840832,137.6479775
462,-,売地,浜松市中央区城北２丁目22-15,2435,浜松市中央区城北２丁目22-15,所有権,60,-,45.84,2,176,2025/3/12,-,-,建築条件付,西遠建設(株),053-424-8188,34.7243555,137.7216397
460,★売主,売地,浜松市中央区城北２丁目29-6 付近,1698,浜松市中央区城北２丁目29-6 付近,所有権,70,用途地域,34.26,2,164,2025/4/28,-,-,建築条件付,(株)ベスト・ハウジング,053-474-6252,34.724864,137.7224369
140,専任,売地,浜松市中央区城北２丁目－,10006,バス停 六間坂上 停歩4分,所有権,60,2種中高,9.53,196,3471,2025/6/5,-,-,相談,(株)にわとり不動産,053-569-1122,34.7238276,137.7212337
125,一般媒介,売地,浜松市中央区城北２丁目２２－１５,2435,バス停 静岡大学 停歩4分,所有権,60,２種中高,45.84,160,176,2025/5/22,-,-,建築条件付,遠州鉄道(株)　事業用不動産流通グループ,053-488-8811,34.7243555,137.7216397
459,専任媒介,売地,浜松市中央区城北２丁目２７５　の一部,990,浜松市中央区城北２丁目２７５　の一部,所有権,60,-,30.88,2,106,2025/4/26,-,-,現況渡し,アライブ企画営業部,053-476-7112,34.7238276,137.7212337
550,媒介,売地,浜松市中央区堤町205の一部,570,浜松市中央区堤町205の一部,所有権,60,用途地域,6.96,2,271,2025/4/24,-,-,現況渡し,とぴあ浜松農業協同組合不動産センター有玉店,053-476-3152,34.671512,137.7052194
134,一般媒介,売地,浜松市中央区増楽町,1480,東海道本線 高塚,,,,,,,,,,,,,,
131,一般媒介,売地,浜松市中央区増楽町1756,300,東海道本線 高塚 徒歩1188分,所有権,60,-,4.75,200,209,2025/5/22,-,-,現況渡し,クリエイトジャパン浜松西,053-447-7941,34.690987,137.6935198
133,一般媒介,売地,浜松市中央区増楽町460-1,1350,東海道本線 高塚 徒歩1122分,所有権,60,１種住居,27.2,200,164,2025/5/19,-,-,更地渡し,(株)丸玉,053-421-7360,34.6888846,137.6900837
133,-,売地,浜松市中央区大久保町4415番4他1筆,200,浜松市中央区大久保町4415番4他1筆,所有権,-,-,4.22,2,157,2025/4/5,-,-,更地渡し,コイケ総建(株),053-422-3003,34.7146877,137.6504382
135,一般媒介,売地,浜松市中央区大久保町6462,880,浜松市中央区大久保町6462,所有権,60,-,9.51,2,306,2025/2/23,-,-,現況渡し,第一伊藤建設(株),053-457-1181,34.7146877,137.6504382
134,媒介,売地,浜松市中央区大久保町6471-1の一部,850,浜松市中央区大久保町6471-1の一部,所有権,60,-,7.16,2,393,2025/4/4,-,-,現況渡し,とぴあ浜松農業協同組合不動産センター有玉店,053-476-3152,34.7146877,137.6504382
46,専任媒介,売地,浜松市中央区大人見町,1690,東海道本線 浜松,,,,,,,,,,,,,,
190,一般媒介,売地,浜松市中央区大人見町,1182,浜松市中央区大人見町,所有権,60,用途地域,16.84,2,232,2025/4/12,-,-,更地渡し,マストレ企画営業所,053-401-3456,34.7361938,137.6528991
46,専任,売地,浜松市中央区大人見町,1691,停歩3分,所有権,60,無指定,17.08,200,327,2025/6/16,-,-,更地渡し,釜慶鉄工株式会社,053-421-0571,34.7361938,137.6528991
45,★売主,売地,浜松市中央区大人見町12番74,980,東海道本線 浜松,,,,,,,,,,,,,,
44,一般媒介,売地,浜松市中央区大人見町2325-1,477,東海道本線 舞阪 徒歩9900分,,,,,,,,,,,,,,
42,★専属専任,売地,浜松市中央区大塚町176,600,"東海道本線 天竜川 距離11,993300m",,,,,,,,,,,,,,
43,媒介,売地,浜松市中央区大塚町２０７他,1200,バス停 緑化推進センター 停歩3分,所有権,60,無指定,1.53,200,2593,2025/5/16,-,-,現況渡し,アート地建,053-528-7605,34.6977315,137.7896566
48,専任媒介,売地,浜松市中央区大山町,424,東海道本線 浜松,,,,,,,,,,,,,,
51,一般,売地,浜松市中央区大山町4067-1,4264,遠州鉄道 遠州小松 徒歩30 分,所有権,60,無指定,5,200,2819,2025/6/24,-,-,現況渡し,(株)竹林不動産,053-433-4451,34.7789509,137.6812072
40,一般,売地,浜松市中央区大島町,2279,停歩3分,所有権,60,無指定,5,200,1507,2025/6/6,-,-,現況渡し,(株)マストレ,053-448-5656,34.7653152,137.7773217
164,一般媒介,売地,浜松市中央区大島町,1806,浜松市中央区大島町,所有権,60,-,10.01,2,597,2025/4/15,-,-,相談,あららぎ不動産(株),053-464-5557,34.7653152,137.7773217
37,一般,売地,浜松市中央区大島町,801,停歩4分,所有権,60,無指定,7.5,200,353,2025/6/7,-,-,現況渡し,釜慶鉄工株式会社,053-421-0571,34.7653152,137.7773217
142,一般媒介,売地,浜松市中央区大島町,480,浜松市中央区大島町,所有権,60,-,3.89,2,408,2025/2/28,-,-,現況渡し,あららぎ不動産(株),053-464-5557,34.7653152,137.7773217
38,専任,売地,浜松市中央区大島町,1300,遠州鉄道 積志 徒歩30 分,所有権,60,-,9.49,200,453,2025/6/20,-,-,現況渡し,水嶋宅建(株),053-433-7660,34.7653152,137.7773217
158,専任媒介,売地,浜松市中央区大島町,1120,浜松市中央区大島町,所有権,60,-,22.38,2,165,2025/4/12,-,-,更地渡し,遠州鉄道(株)　袋井店,0538-31-8711,34.7653152,137.7773217
151,一般媒介,売地,浜松市中央区大島町,780,浜松市中央区大島町,所有権,60,-,7.17,2,360,2025/4/30,-,-,現況渡し,(株)マストレ　高林支店,053-472-5656,34.7653152,137.7773217
34,一般,売地,浜松市中央区大島町,473,停歩5分,所有権,60,無指定,5,200,313,2025/6/13,-,-,現況渡し,(株)ライフナビ,053-458-5000,34.7653152,137.7773217
36,媒介,売地,浜松市中央区大島町1004,780,バス停 大島町 停歩4分,所有権,60,無指定,7.7,200,335,2025/6/2,-,-,現況渡し,曳馬土地開発(株),053-463-2161,34.7653152,137.7773217
147,媒介,売地,浜松市中央区大島町1004,700,浜松市中央区大島町1004,所有権,60,-,6.91,2,335,2025/2/25,-,-,現況渡し,(有)弥生不動産,053-587-0030,34.7653152,137.7773217
148,媒介,売地,浜松市中央区大島町1014,707,浜松市中央区大島町1014,所有権,60,-,7.31,2,320,2025/3/4,-,-,現況渡し,浜日商事(株),053-545-5488,34.7653152,137.7773217
166,一般媒介,売地,浜松市中央区大島町1119,2700,浜松市中央区大島町1119,所有権,60,-,13.45,2,664,2025/4/3,-,-,現況渡し,アイエス宅建,053-434-6810,34.7653152,137.7773217
41,一般,売地,浜松市中央区大島町1119,2702,バス停 上大瀬公会堂 停歩2分,所有権,60,無指定,13.45,200,664,2025/6/16,-,-,現況渡し,アイエス宅建,053-434-6810,34.7653152,137.7773217
39,一般,売地,浜松市中央区大島町1119 の一部,1681,バス停 上大瀬公会堂 停歩2分,所有権,60,無指定,14.64,200,380,2025/6/5,-,-,現況渡し,アイエス宅建,053-434-6810,34.7653152,137.7773217
163,一般媒介,売地,浜松市中央区大島町1119　の一部,1680,浜松市中央区大島町1119　の一部,所有権,60,-,14.64,2,380,2025/3/24,-,-,現況渡し,アイエス宅建,053-434-6810,34.7653152,137.7773217
160,一般媒介,売地,浜松市中央区大島町1479外　一部,1250,浜松市中央区大島町1479外　一部,所有権,60,用途地域,8.33,2,496,2025/3/13,-,-,現況渡し,アイエス宅建,053-434-6810,34.7653152,137.7773217
137,専任媒介,売地,"浜松市中央区大島町320-1,320-2",383,"浜松市中央区大島町320-1,320-2",所有権,60,-,1.5,2,845,2025/2/15,-,-,現況渡し,アースデイ不動産,053-441-2103,34.7653152,137.7773217
144,媒介,売地,浜松市中央区大島町321番の北西一部,600,浜松市中央区大島町321番の北西一部,所有権,60,-,8.16,2,243,2025/3/4,-,-,現況渡し,浜日商事(株),053-545-5488,34.7359925,137.7330202
143,媒介,売地,浜松市中央区大島町483の一部,574,浜松市中央区大島町483の一部,所有権,60,-,6.01,2,316,2025/4/30,-,-,更地渡し,(有)天商,053-436-6708,34.7653152,137.7773217
140,媒介,売地,浜松市中央区大島町483の一部,478,浜松市中央区大島町483の一部,所有権,60,用途地域,5,2,316,2025/4/30,-,-,更地渡し,(有)天商,053-436-6708,34.7653152,137.7773217
33,専属専任,売地,浜松市中央区大島町496-3,302,遠州鉄道 積志 徒歩31分,所有権,60,無指定,1.41,200,708,2025/6/5,-,-,現況渡し,(有)明豊企画,052-265-7983,34.7571251,137.7780573
138,一般媒介,売地,浜松市中央区大島町532-1,460,浜松市中央区大島町532-1,所有権,60,-,5.03,2,303,2025/3/15,-,-,現況渡し,コリー(株),053-433-3808,34.7562403,137.7750022
157,専任媒介,売地,浜松市中央区大島町559外1筆　一部,979,浜松市中央区大島町559外1筆　一部,所有権,60,-,7.5,2,431,2025/4/22,-,-,現況渡し,アイエス宅建,053-434-6810,34.7653152,137.7773217
155,専任媒介,売地,浜松市中央区大島町717,838,浜松市中央区大島町717,所有権,60,-,10,2,277,2025/4/19,-,-,現況渡し,(有)西遠土地建物センター,053-587-7255,34.7653152,137.7773217
35,媒介,売地,浜松市中央区大島町780-1,779,-,所有権,60,-,5.01,200,514,2025/6/23,-,-,現況渡し,上島不動産(株),053-473-5000,34.7653152,137.7773217
150,媒介,売地,浜松市中央区大島町780-1,777,浜松市中央区大島町780-1,所有権,60,用途地域,5.01,2,514,2025/5/7,-,-,現況渡し,上島不動産(株),053-473-5000,34.7653152,137.7773217
34,媒介,売地,浜松市中央区大島町１００４,780,バス停 大島町 停歩4分,所有権,60,-,7.7,200,335,2025/5/22,-,-,現況渡し,とぴあ浜松農業協同組合不動産センター有玉店,053-476-3152,34.7653152,137.7773217
33,媒介,売地,浜松市中央区大島町１１７４番内,754,遠州鉄道 遠州西ヶ崎 徒歩1177分,,,,,,,,,,,,,,
162,専任媒介,売地,浜松市中央区大島町１３６８,1400,浜松市中央区大島町１３６８,所有権,60,-,19.21,2,241,2025/4/12,-,-,更地渡し,遠州鉄道(株)　浜北店,053-581-1124,34.7673069,137.7742896
136,専任媒介,売地,浜松市中央区大島町２１１,380,浜松市中央区大島町２１１,所有権,60,-,3.98,2,316,2025/4/29,-,-,現況渡し,アースデイ不動産,053-441-2103,34.7653152,137.7773217
35,媒介,売地,浜松市中央区大島町７７８,1134,バス停 上大瀬公会堂 停歩5分,所有権,60,-,7.5,200,500,2025/5/22,-,-,相談,とぴあ浜松農業協同組合不動産センター有玉店,053-476-3152,34.7653152,137.7773217
146,一般媒介,売地,浜松市中央区大島町９９７ー２、９９８,680,浜松市中央区大島町９９７ー２、９９８,所有権,60,-,5.77,2,390,2025/4/27,-,-,更地渡し,遠州鉄道(株)　高台店,053-437-1976,34.7682399,137.782326
135,一般媒介,売地,浜松市中央区大工町３１１－２３,2300,東海道本線 浜松 徒歩1111分,所有権,80,商業地域,68.63,500,111,2025/5/19,-,-,更地渡し,サーラ不動産(株)　浜松仲介チーム,053-464-6105,34.7052914,137.7274135
192,媒介,売地,浜松市中央区大平台１丁目8-18,5280,浜松市中央区大平台１丁目8-18,所有権,40,-,40.76,2,428,2025/4/23,-,-,更地渡し,ＲＥコンサルタント静岡(株),053-489-6088,34.7204625,137.6878728
48,一般,売地,浜松市中央区大平台１丁目8-18,5281,バス停 大平台2丁目北 停歩10分,所有権,40,1種低層,40.76,60,428,2025/6/9,-,-,更地渡し,(株)マルショウ企画,053-447-1115,34.7204625,137.6878728
193,専任媒介,売地,浜松市中央区大平台２丁目132-1､132-2,3100,浜松市中央区大平台２丁目132-1､132-2,所有権,40,-,29.62,2,346,2025/4/13,-,-,現況渡し,伸光不動産(株),053-448-0001,34.7128569,137.6861319
195,専任媒介,売地,浜松市中央区大平台２丁目2-8,4980,浜松市中央区大平台２丁目2-8,所有権,40,-,29.75,2,553,2025/4/13,-,-,更地渡し,伸光不動産(株),053-448-0001,34.7162262,137.6870198
194,専任媒介,売地,浜松市中央区大平台２丁目１３２－１他,3100,浜松市中央区大平台２丁目１３２－１他,所有権,40,-,29.62,2,346,2025/2/28,-,-,現況渡し,伸光不動産(株),053-448-0001,34.7128569,137.6861319
196,専任媒介,売地,浜松市中央区大平台２丁目２－８,4980,浜松市中央区大平台２丁目２－８,所有権,40,-,29.75,2,553,2025/2/28,-,-,更地渡し,伸光不動産(株),053-448-0001,34.7162262,137.6870198
49,一般,売地,浜松市中央区大平台４丁目128-7,3324,停歩6分,所有権,60,1種中高,32.51,200,338,2025/6/13,-,-,現況渡し,(株)丸浜不動産コンサルティング,053-447-8817,34.7089652,137.6756675
197,一般媒介,売地,浜松市中央区大平台４丁目128-7,3323,浜松市中央区大平台４丁目128-7,所有権,60,-,32.51,2,338,2025/4/5,-,-,現況渡し,(株)丸浜不動産コンサルティング,053-447-8817,34.7089652,137.6756675
50,一般,売地,浜松市中央区大柳町842-1,821,-,所有権,60,無指定,3,200,905,2025/6/23,-,-,現況渡し,(株)リデコ,053-488-4537,34.6772836,137.7575916
45,一般,売地,浜松市中央区大瀬町,1077,停歩7分,所有権,60,無指定,8,200,445,2025/6/16,-,-,現況渡し,(株)マストレ　高林支店,053-472-5656,34.7592816,137.7711552
170,一般媒介,売地,浜松市中央区大瀬町,455,浜松市中央区大瀬町,所有権,60,用途地域,7.01,2,215,2025/5/4,-,-,現況渡し,(株)マストレ　高林支店,053-472-5656,34.7592816,137.7711552
175,専任媒介,売地,浜松市中央区大瀬町,622,浜松市中央区大瀬町,所有権,60,-,7.01,2,294,2025/4/21,-,-,現況渡し,(株)宅建堂,053-568-2169,34.7592816,137.7711552
39,一般媒介,売地,浜松市中央区大瀬町,650,遠州鉄道 さぎの宮 徒歩1133分,所有権,60,無指定,10.72,200,200,2025/5/19,-,-,現況渡し,(株)マストレ,053-448-5656,34.7592816,137.7711552
178,一般媒介,売地,浜松市中央区大瀬町1156-1,708,浜松市中央区大瀬町1156-1,所有権,70,-,10,2,234,2025/4/19,-,-,現況渡し,(有)西遠土地建物センター,053-587-7255,34.7592816,137.7711552
38,媒介,売地,浜松市中央区大瀬町1328番内（北側）,588,遠州鉄道 積志 徒歩1144分,,,,,,,,,,,,,,
172,媒介,売地,浜松市中央区大瀬町1516,551,浜松市中央区大瀬町1516,所有権,60,-,8.01,2,54,2025/3/23,-,-,更地渡し,(有)弥生不動産,053-587-0030,34.7592816,137.7711552
173,一般媒介,売地,浜松市中央区大瀬町2210,560,浜松市中央区大瀬町2210,所有権,60,-,6.1,2,304,2025/4/28,-,-,現況渡し,コリー(株),053-433-3808,34.7592816,137.7711552
44,専属専任,売地,浜松市中央区大瀬町2446-1・2447-2,800,バス停 さぎの宮北 停歩2分,所有権,60,無指定,7.98,200,332,2025/6/16,-,-,現況渡し,アイエス宅建,053-434-6810,34.7592816,137.7711552
184,媒介,売地,浜松市中央区大瀬町2682,1580,浜松市中央区大瀬町2682,所有権,70,-,25.04,2,209,2025/5/2,-,-,更地渡し,アスティア,053-543-9988,34.7540881,137.7710204
171,媒介,売地,浜松市中央区大瀬町2751,460,浜松市中央区大瀬町2751,所有権,60,-,6.39,2,238,2025/3/28,-,-,現況渡し,(有)イーエム,053-437-1980,34.7592816,137.7711552
182,専任媒介,売地,浜松市中央区大瀬町685-2,1000,浜松市中央区大瀬町685-2,所有権,60,-,10.02,2,330,2025/2/16,-,-,現況渡し,(有)エステート東海,053-433-5401,34.7592816,137.7711552
179,専任媒介,売地,浜松市中央区大瀬町906-1の一部,748,浜松市中央区大瀬町906-1の一部,所有権,60,-,11.92,2,208,2025/3/9,-,-,現況渡し,アースデイ不動産,053-441-2103,34.7592816,137.7711552
42,専任,売地,浜松市中央区大瀬町１２９０番１,400,遠州鉄道 積志 徒歩14 分,所有権,60,無指定,4.91,200,270,2025/6/9,-,-,現況渡し,遠州鉄道(株)　高台店,053-437-1976,34.761382,137.7663269
43,専任,売地,浜松市中央区大瀬町２２１７－１,775,遠州鉄道 積志 徒歩28 分,所有権,60,無指定,8.51,200,301,2025/6/15,-,-,現況渡し,アライブ企画営業部,053-476-7112,34.7567067,137.7747035
180,専任媒介,売地,浜松市中央区大瀬町２２１７－１,774,浜松市中央区大瀬町２２１７－１,所有権,60,用途地域,8.51,2,301,2025/4/14,-,-,現況渡し,アライブ企画営業部,053-476-7112,34.7567067,137.7747035
37,専任媒介,売地,浜松市中央区大瀬町２５３８－２,299,遠州鉄道 さぎの宮 徒歩1177分,所有権,60,無指定,4.87,200,203,2025/5/23,-,-,現況渡し,遠州鉄道(株)　浜北店,053-581-1124,34.7592816,137.7711552
130,専任媒介,売地,浜松市中央区大蒲町,2590,浜松市中央区大蒲町,所有権,60,用途地域,36.76,2,233,2025/4/28,-,-,更地渡し,(株)マストレ東営業所,053-462-5656,34.7141717,137.7680723
31,一般媒介,売地,浜松市中央区大蒲町,2290,東海道本線 天竜川 徒歩1155分,所有権,60,１種住居,41.39,200,183,2025/5/22,-,-,更地渡し,(株)マストレ,053-448-5656,34.7141717,137.7680723
30,一般媒介,売地,浜松市中央区大蒲町,2287,東海道本線 天竜川 徒歩1155分,所有権,60,１種住居,41.16,200,184,2025/5/22,-,-,更地渡し,(株)マストレ,053-448-5656,34.7141717,137.7680723
28,一般媒介,売地,浜松市中央区大蒲町,1780,東海道本線 天竜川,,,,,,,,,,,,,,
131,一般媒介,売地,浜松市中央区大蒲町115-6,2735,浜松市中央区大蒲町115-6,所有権,60,工業地域,34,2,266,2025/5/1,-,-,現況渡し,ＳＭＤ不動産(株),053-401-4235,34.712802,137.7688266
132,一般媒介,売地,浜松市中央区大蒲町115-6,5471,浜松市中央区大蒲町115-6,所有権,60,工業地域,34,2,532,2025/5/1,-,-,現況渡し,ＳＭＤ不動産(株),053-401-4235,34.712802,137.7688266
124,一般媒介,売地,浜松市中央区大蒲町124-22,2000,浜松市中央区大蒲町124-22,所有権,60,工業地域,29.54,2,224,2025/4/30,-,-,現況渡し,(株)アクト建設　本社,053-445-4350,34.7142546,137.7714057
125,媒介,売地,浜松市中央区大蒲町124-36,2000,浜松市中央区大蒲町124-36,所有権,60,工業地域,29.54,2,224,2025/3/10,-,-,現況渡し,曳馬土地開発(株),053-463-2161,34.7147723,137.7711902
32,売主,売地,浜松市中央区大蒲町81番8,2343,東海道本線 天竜川 徒歩2200分,所有権,60,１種住居,41,200,189,2025/5/16,-,-,現況渡し,(株)リサイクルクリーン　天竜不動産,053-926-2511,34.7157088,137.7636987
129,-,売地,浜松市中央区大蒲町81番8外,2343,浜松市中央区大蒲町81番8外,所有権,60,-,41,2,189,2025/3/31,-,-,現況渡し,(株)リサイクルクリーン　天竜不動産,053-926-2511,34.7157088,137.7636987
127,★売主,売地,浜松市中央区大蒲町94-1,2287,浜松市中央区大蒲町94-1,所有権,60,-,41.16,2,184,2025/3/16,-,-,現況渡し,(株)スズキビジネス,053-451-3900,34.7143473,137.7650414
29,売主,売地,浜松市中央区大蒲町A区画,1850,東海道本線 天竜川 徒歩1155分,,,,,,,,,,,,,,
573,媒介,売地,浜松市中央区天王町1810、1811-2,1360,浜松市中央区天王町1810、1811-2,所有権,60,-,5.01,2,899,2025/4/30,-,-,現況渡し,(株)村こし,053-423-2220,34.7365309,137.7711552
567,媒介,売地,浜松市中央区天王町309番5,369,浜松市中央区天王町309番5,所有権,60,-,5.01,2,244,2025/4/7,-,-,現況渡し,とぴあ浜松農業協同組合不動産センター有玉店,053-476-3152,34.7365309,137.7711552
167,媒介,売地,浜松市中央区天王町522-2,450,遠州鉄道 自動車学校前 徒歩36 分,所有権,-,-,4.43,-,336,2025/6/17,-,-,相談,(株)にわとり不動産,053-569-1122,34.7365309,137.7711552
576,一般媒介,売地,浜松市中央区天王町734-1,4295,浜松市中央区天王町734-1,所有権,60,-,35,2,406,2025/5/2,-,-,現況渡し,(株)Ｐａｄｄｌｅ,053-482-7733,34.7365309,137.7711552
575,媒介,売地,"浜松市中央区天王町836-1,836-2",1700,"浜松市中央区天王町836-1,836-2",所有権,60,-,28.97,2,194,2025/2/26,-,-,更地渡し,(株)不動産Ｌａｂｏ．,0538-33-6118,34.6710191,137.7979203
574,専任媒介,売地,浜松市中央区天王町１２０１番１,1450,浜松市中央区天王町１２０１番１,所有権,60,-,43.94,2,109,2025/5/3,-,-,相談,遠州鉄道(株)　浜松店,053-471-0202,34.7363211,137.7717929
572,専任媒介,売地,浜松市中央区天王町２４番１,1220,浜松市中央区天王町２４番１,所有権,60,-,15.96,2,253,2025/4/28,-,-,現況渡し,遠州鉄道(株)　浜北店,053-581-1124,34.7365309,137.7711552
566,専任媒介,売地,浜松市中央区天神町12-1,750,浜松市中央区天神町12-1,所有権,70,-,32.93,2,75,2025/4/8,-,-,現況渡し,(有)西遠土地建物センター,053-587-7255,34.7110842,137.7516938
578,-,売地,浜松市中央区天龍川町８２４－１,1480,浜松市中央区天龍川町８２４－１,所有権,60,-,8.69,2,563,2025/4/25,-,-,相談,遠州鉄道(株)　買取再生グループ,053-488-8807,34.7235289,137.7794628
115,一般,売地,浜松市中央区子安町,2301,東海道本線 天竜川 徒歩30 分,所有権,60,準住居,27.26,200,279,2025/6/4,-,-,現況渡し,中部ガス不動産（株）浜松中央支店,053-451-0525,34.7120756,137.76314
370,専任媒介,売地,浜松市中央区子安町1378-10,1250,浜松市中央区子安町1378-10,所有権,60,用途地域,24.87,2,166,2025/4/12,-,-,更地渡し,しずなび(株)　浜松東店,053-467-6700,34.7150187,137.7623729
372,一般媒介,売地,浜松市中央区子安町335-4,2188,浜松市中央区子安町335-4,所有権,60,-,35,2,207,2025/4/14,-,-,更地渡し,しずなび(株)　浜松駅南店,053-453-3731,34.7112807,137.7667172
371,一般媒介,売地,浜松市中央区子安町336-3,1511,浜松市中央区子安町336-3,所有権,60,-,35.99,2,139,2025/5/1,-,-,現況渡し,ＳＭＤ不動産(株),053-401-4235,34.7118184,137.7666439
93,一般媒介,売地,浜松市中央区子安町３００番７,2300,東海道本線 天竜川 徒歩3300分,所有権,60,準住居,27.26,200,279,2025/5/20,-,-,現況渡し,サーラ不動産(株)　浜松仲介チーム,053-464-6105,34.7127194,137.7592222
114,一般,売地,浜松市中央区子安町３００－７,2301,バス停 子安 停歩5分,所有権,60,準住居,27.26,200,279,2025/6/18,-,-,現況渡し,遠州鉄道(株)　浜松店,053-471-0202,34.7127194,137.7592222
94,一般媒介,売地,浜松市中央区子安町３００－７,2300,バス停 子安 停歩5分,所有権,60,準住居,27.26,200,279,2025/5/18,-,-,現況渡し,遠州鉄道(株)　浜松店,053-471-0202,34.7127194,137.7592222
9,一般媒介,売地,浜松市中央区安新町８２－１,1370,東海道本線 天竜川 徒歩2222分,所有権,60,１種住居,27.03,200,168,2025/5/22,-,-,現況渡し,サーラ不動産(株)　浜松仲介チーム,053-464-6105,34.7308278,137.7871894
950,専任媒介,売地,浜松市中央区安松町60-7・60-8,3296,浜松市中央区安松町60-7・60-8,所有権,60,用途地域,24,2,454,2025/5/8,-,-,更地渡し,(株)アモルテ,053-522-8885,34.6966275,137.77282
10,一般媒介,売地,浜松市中央区安間町405番4,608,東海道本線 天竜川 徒歩1199分,所有権,60,-,10,200,201,2025/5/19,-,-,現況渡し,とぴあ浜松農業協同組合不動産センター有玉店,053-476-3152,34.7215434,137.792124
59,媒介,売地,浜松市中央区安間町725番1の一部,950,浜松市中央区安間町725番1の一部,所有権,60,-,10.41,2,302,2025/4/24,-,-,現況渡し,コイケ総建(株),053-422-3003,34.7215434,137.792124
58,一般媒介,売地,浜松市中央区安間町３４１,741,浜松市中央区安間町３４１,所有権,60,-,10,2,245,2025/4/10,-,-,現況渡し,(株)東洋エージェンシー,053-421-0700,34.7215434,137.792124
